[
  {
    "Arbol_id": 146,
    "Folio": 0,
    "Usuario_id": "usuario2792",
    "Fecha_plantado": "",
    "Especie": "Anacahuita",
    "Fecha_registro": "2013-05-08",
    "Municipio": "Monterrey",
    "Direccion": "Canadá 428-S GUARDERIA ESPACIO INFANTIL, Vista Hermosa, 64620 Monterrey, NL, México",
    "lon": -100.3535233,
    "lat": 25.6922493,
    "id": "541a2cab908e69c4ed6fb775"
  },
  {
    "Arbol_id": 370,
    "Folio": 69,
    "Usuario_id": "usuario1822",
    "Fecha_plantado": "",
    "Especie": "Anacahuita",
    "Fecha_registro": "2013-07-21",
    "Municipio": "Monterrey",
    "Direccion": "Avenida Lerdo de Tejada 362B, Las Villas, NL, México",
    "lon": -100.3011703,
    "lat": 25.7580204,
    "id": "541a2cac908e69c4ed6fb847"
  },
  {
    "Arbol_id": 374,
    "Folio": 0,
    "Usuario_id": "usuario1121",
    "Fecha_plantado": "",
    "Especie": "Anacahuita",
    "Fecha_registro": "2013-06-02",
    "Municipio": "Monterrey",
    "Direccion": "Unnamed Road, Centro, 64000 Monterrey, NL, México",
    "lon": "",
    "lat": "",
    "id": "541a2cac908e69c4ed6fb84b"
  },
  {
    "Arbol_id": 929,
    "Folio": 0,
    "Usuario_id": "usuario938",
    "Fecha_plantado": "",
    "Especie": "Anacahuita",
    "Fecha_registro": "2013-06-21",
    "Municipio": "Monterrey",
    "Direccion": "Ahuehuetes 2515, Cerro de La Silla, 64810 Monterrey, Nuevo Leon, Mexico",
    "lon": -100.2894592,
    "lat": 25.6553001,
    "id": "541a2cac908e69c4ed6fba43"
  },
  {
    "Arbol_id": 1103,
    "Folio": 0,
    "Usuario_id": "usuario2284",
    "Fecha_plantado": "",
    "Especie": "Anacahuita",
    "Fecha_registro": "2013-06-24",
    "Municipio": "Monterrey",
    "Direccion": "Cruz Azul, Estadio, 64830 Monterrey, Nuevo León, Mexique",
    "lon": -100.2824707,
    "lat": 25.6534691,
    "id": "541a2cac908e69c4ed6fbaee"
  },
  {
    "Arbol_id": 1104,
    "Folio": 0,
    "Usuario_id": "usuario2284",
    "Fecha_plantado": "",
    "Especie": "Anacahuita",
    "Fecha_registro": "2013-06-24",
    "Municipio": "Monterrey",
    "Direccion": "Cruz Azul, Estadio, 64830 Monterrey, Nuevo León, Mexique",
    "lon": -100.2824707,
    "lat": 25.6534691,
    "id": "541a2cac908e69c4ed6fbaef"
  },
  {
    "Arbol_id": 1107,
    "Folio": 0,
    "Usuario_id": "usuario2284",
    "Fecha_plantado": "",
    "Especie": "Anacahuita",
    "Fecha_registro": "2013-06-24",
    "Municipio": "Monterrey",
    "Direccion": "Cruz Azul, Estadio, 64830 Monterrey, Nuevo León, Mexique",
    "lon": -100.2824707,
    "lat": 25.6534691,
    "id": "541a2cac908e69c4ed6fbaf2"
  },
  {
    "Arbol_id": 1121,
    "Folio": 0,
    "Usuario_id": "usuario2730",
    "Fecha_plantado": "",
    "Especie": "Anacahuita",
    "Fecha_registro": "2013-07-02",
    "Municipio": "Monterrey",
    "Direccion": "Calle Pablo Moncayo 11 145-S PATO PARTY, Colinas de San Jerónimo 11O. Sector, Monterrey, NL, México",
    "lon": -100.3590927,
    "lat": 25.6832809,
    "id": "541a2cac908e69c4ed6fbafb"
  },
  {
    "Arbol_id": 1639,
    "Folio": 25,
    "Usuario_id": "usuario1822",
    "Fecha_plantado": "",
    "Especie": "Anacahuita",
    "Fecha_registro": "2013-07-24",
    "Municipio": "San Nicolás de los Garza",
    "Direccion": "S. Idelfonso 441, Las Villas, 66420 NL, México",
    "lon": -100.3010178,
    "lat": 25.7597332,
    "id": "541a2cac908e69c4ed6fbc91"
  },
  {
    "Arbol_id": 1896,
    "Folio": 161,
    "Usuario_id": "usuario1822",
    "Fecha_plantado": "",
    "Especie": "Anacahuita",
    "Fecha_registro": "2013-09-22",
    "Municipio": "San Nicolás",
    "Direccion": "Calle Casa de Los Mascarones, Las Villas, 66420 NL, México",
    "lon": -100.3002396,
    "lat": 25.7616692,
    "id": "541a2cac908e69c4ed6fbd75"
  },
  {
    "Arbol_id": 2086,
    "Folio": 183,
    "Usuario_id": "usuario1822",
    "Fecha_plantado": "",
    "Especie": "Anacahuita",
    "Fecha_registro": "2013-10-06",
    "Municipio": "San Nicolás",
    "Direccion": "Mandarina, Getsemaní, 66425 NL, México",
    "lon": -100.3025208,
    "lat": 25.7588806,
    "id": "541a2cac908e69c4ed6fbe1d"
  },
  {
    "Arbol_id": 2106,
    "Folio": 0,
    "Usuario_id": "usuario919",
    "Fecha_plantado": "",
    "Especie": "Anacahuita",
    "Fecha_registro": "2013-10-08",
    "Municipio": "Monterrey",
    "Direccion": "Bahía del Geógrafo, Rincon De La Primavera, 64835 Monterrey, NL, México",
    "lon": -100.2732773,
    "lat": 25.6501999,
    "id": "541a2cac908e69c4ed6fbe2d"
  },
  {
    "Arbol_id": 2186,
    "Folio": 0,
    "Usuario_id": "usuario2382",
    "Fecha_plantado": "2013-03-23T00:00:00Z",
    "Especie": "Anacahuita",
    "Fecha_registro": "2013-10-10",
    "Municipio": "Monterrey",
    "Direccion": "M. Barragán 2309, Diez de Marzo, 64488 Monterrey, NL, México",
    "lon": -100.3344269,
    "lat": 25.6933594,
    "id": "541a2cac908e69c4ed6fbe78"
  },
  {
    "Arbol_id": 2187,
    "Folio": 0,
    "Usuario_id": "usuario2382",
    "Fecha_plantado": "2013-03-23T00:00:00Z",
    "Especie": "Anacahuita",
    "Fecha_registro": "2013-10-10",
    "Municipio": "Monterrey",
    "Direccion": "M. Barragán 2309, Diez de Marzo, 64488 Monterrey, NL, México",
    "lon": -100.3344269,
    "lat": 25.6933594,
    "id": "541a2cac908e69c4ed6fbe79"
  },
  {
    "Arbol_id": 2189,
    "Folio": 0,
    "Usuario_id": "usuario2382",
    "Fecha_plantado": "2013-03-23T00:00:00Z",
    "Especie": "Anacahuita",
    "Fecha_registro": "2013-10-10",
    "Municipio": "Monterrey",
    "Direccion": "M. Barragán 2311, Talleres, 64440 Monterrey, NL, México",
    "lon": -100.334671,
    "lat": 25.6933899,
    "id": "541a2cac908e69c4ed6fbe7b"
  },
  {
    "Arbol_id": 2190,
    "Folio": 0,
    "Usuario_id": "usuario2382",
    "Fecha_plantado": "2013-03-23T00:00:00Z",
    "Especie": "Anacahuita",
    "Fecha_registro": "2013-10-10",
    "Municipio": "Monterrey",
    "Direccion": "M. Barragán 2311, Diez de Marzo, 64440 Monterrey, NL, México",
    "lon": -100.334671,
    "lat": 25.6933899,
    "id": "541a2cac908e69c4ed6fbe7c"
  },
  {
    "Arbol_id": 2227,
    "Folio": 0,
    "Usuario_id": "usuario1165",
    "Fecha_plantado": "",
    "Especie": "Anacahuita",
    "Fecha_registro": "2013-10-11",
    "Municipio": "San Pedro",
    "Direccion": "Bosque del Olivo 400, Bosques del Valle 2o Sector, 66250 Nuevo Leon, Mexico",
    "lon": -100.3742065,
    "lat": 25.6458302,
    "id": "541a2cac908e69c4ed6fbe9a"
  },
  {
    "Arbol_id": 2228,
    "Folio": 0,
    "Usuario_id": "usuario1165",
    "Fecha_plantado": "",
    "Especie": "Anacahuita",
    "Fecha_registro": "2013-10-11",
    "Municipio": "San Pedro",
    "Direccion": "Bosque del Olivo 400, Bosques del Valle 2o Sector, 66250 Nuevo Leon, Mexico",
    "lon": -100.3742065,
    "lat": 25.6458302,
    "id": "541a2cac908e69c4ed6fbe9b"
  },
  {
    "Arbol_id": 2329,
    "Folio": 0,
    "Usuario_id": "usuario2382",
    "Fecha_plantado": "2013-04-13T00:00:00Z",
    "Especie": "Anacahuita",
    "Fecha_registro": "2013-10-16",
    "Municipio": "Monterrey",
    "Direccion": "Anastasio Bustamante 2528, Benito Juárez, 64218 Monterrey, NL, México",
    "lon": -100.3348846,
    "lat": 25.6995583,
    "id": "541a2cac908e69c4ed6fbef9"
  },
  {
    "Arbol_id": 2331,
    "Folio": 0,
    "Usuario_id": "usuario2382",
    "Fecha_plantado": "2013-04-13T00:00:00Z",
    "Especie": "Anacahuita",
    "Fecha_registro": "2013-10-16",
    "Municipio": "Monterrey",
    "Direccion": "Anastasio Bustamante 2528, Benito Juárez, 64218 Monterrey, NL, México",
    "lon": -100.3348846,
    "lat": 25.6995583,
    "id": "541a2cac908e69c4ed6fbefb"
  },
  {
    "Arbol_id": 2333,
    "Folio": 0,
    "Usuario_id": "usuario2382",
    "Fecha_plantado": "2013-04-13T00:00:00Z",
    "Especie": "Anacahuita",
    "Fecha_registro": "2013-10-16",
    "Municipio": "Monterrey",
    "Direccion": "Anastasio Bustamante 2528, Benito Juárez, 64218 Monterrey, NL, México",
    "lon": -100.3348846,
    "lat": 25.6995583,
    "id": "541a2cac908e69c4ed6fbefd"
  },
  {
    "Arbol_id": 2336,
    "Folio": 0,
    "Usuario_id": "usuario2382",
    "Fecha_plantado": "2013-04-13T00:00:00Z",
    "Especie": "Anacahuita",
    "Fecha_registro": "2013-10-16",
    "Municipio": "Monterrey",
    "Direccion": "Anastasio Bustamante 2528-S\"ESCUELA PRIMARIA Benito Juárez 64218 Monterrey 64218 Monterrey NL México\"",
    "lon": -100.3348846,
    "lat": 25.6995583,
    "id": "541a2cac908e69c4ed6fbf00"
  },
  {
    "Arbol_id": 2338,
    "Folio": 0,
    "Usuario_id": "usuario2382",
    "Fecha_plantado": "2013-04-13T00:00:00Z",
    "Especie": "Anacahuita",
    "Fecha_registro": "2013-10-16",
    "Municipio": "Monterrey",
    "Direccion": "Anastasio Bustamante 2528-S\"ESCUELA PRIMARIA Benito Juárez 64218 Monterrey 64218 Monterrey NL México\"",
    "lon": -100.3348846,
    "lat": 25.6995583,
    "id": "541a2cac908e69c4ed6fbf02"
  },
  {
    "Arbol_id": 2340,
    "Folio": 0,
    "Usuario_id": "usuario2382",
    "Fecha_plantado": "2013-04-13T00:00:00Z",
    "Especie": "Anacahuita",
    "Fecha_registro": "2013-10-16",
    "Municipio": "Monterrey",
    "Direccion": "Anastasio Bustamante 2528-S\"ESCUELA PRIMARIA Benito Juárez 64218 Monterrey 64218 Monterrey NL México\"",
    "lon": -100.3348846,
    "lat": 25.6995583,
    "id": "541a2cac908e69c4ed6fbf04"
  },
  {
    "Arbol_id": 2342,
    "Folio": 0,
    "Usuario_id": "usuario2382",
    "Fecha_plantado": "2013-04-13T00:00:00Z",
    "Especie": "Anacahuita",
    "Fecha_registro": "2013-10-16",
    "Municipio": "Monterrey",
    "Direccion": "Anastasio Bustamante 2528-S\"ESCUELA PRIMARIA Benito Juárez 64218 Monterrey 64218 Monterrey NL México\"",
    "lon": -100.3348846,
    "lat": 25.6995583,
    "id": "541a2cac908e69c4ed6fbf06"
  },
  {
    "Arbol_id": 2344,
    "Folio": 0,
    "Usuario_id": "usuario2382",
    "Fecha_plantado": "2013-04-13T00:00:00Z",
    "Especie": "Anacahuita",
    "Fecha_registro": "2013-10-16",
    "Municipio": "Monterrey",
    "Direccion": "Anastasio Bustamante 2528-S\"ESCUELA PRIMARIA Benito Juárez 64218 Monterrey 64218 Monterrey NL México\"",
    "lon": -100.3348846,
    "lat": 25.6995583,
    "id": "541a2cac908e69c4ed6fbf08"
  },
  {
    "Arbol_id": 2346,
    "Folio": 0,
    "Usuario_id": "usuario2382",
    "Fecha_plantado": "2013-04-13T00:00:00Z",
    "Especie": "Anacahuita",
    "Fecha_registro": "2013-10-16",
    "Municipio": "Monterrey",
    "Direccion": "Anastasio Bustamante 2528-S\"ESCUELA PRIMARIA Benito Juárez 64218 Monterrey 64218 Monterrey NL México\"",
    "lon": -100.3348846,
    "lat": 25.6995583,
    "id": "541a2cac908e69c4ed6fbf0a"
  },
  {
    "Arbol_id": 2509,
    "Folio": 215,
    "Usuario_id": "usuario1822",
    "Fecha_plantado": "",
    "Especie": "Anacahuita",
    "Fecha_registro": "2013-10-24",
    "Municipio": "San Nicolás",
    "Direccion": "Avenida Lerdo de Tejada 523, Getsemaní, 66425 NL, México",
    "lon": -100.3027496,
    "lat": 25.7585697,
    "id": "541a2cac908e69c4ed6fbfab"
  },
  {
    "Arbol_id": 2572,
    "Folio": 40,
    "Usuario_id": "usuario1950",
    "Fecha_plantado": "",
    "Especie": "Anacahuita",
    "Fecha_registro": "2013-10-30",
    "Municipio": "Monterrey",
    "Direccion": "Avenida Valle Alto 101, Valle Alto, 64989 Monterrey, NL, México",
    "lon": -100.2693481,
    "lat": 25.5750618,
    "id": "541a2cac908e69c4ed6fbfde"
  },
  {
    "Arbol_id": 2979,
    "Folio": 95,
    "Usuario_id": "usuario1922",
    "Fecha_plantado": "",
    "Especie": "Anacahuita",
    "Fecha_registro": "2013-11-14",
    "Municipio": "Monterrey",
    "Direccion": "Acacias, Valle Alto, 64989 Monterrey, NL, México",
    "lon": -100.2571335,
    "lat": 25.5835991,
    "id": "541a2cac908e69c4ed6fc157"
  },
  {
    "Arbol_id": 2981,
    "Folio": 69,
    "Usuario_id": "usuario1922",
    "Fecha_plantado": "",
    "Especie": "Anacahuita",
    "Fecha_registro": "2013-11-14",
    "Municipio": "Monterrey",
    "Direccion": "4, Valle Alto, 64989 Monterrey, NL, México",
    "lon": -100.2576752,
    "lat": 25.5818996,
    "id": "541a2cac908e69c4ed6fc159"
  },
  {
    "Arbol_id": 3015,
    "Folio": 318,
    "Usuario_id": "usuario637",
    "Fecha_plantado": "",
    "Especie": "Anacahuita",
    "Fecha_registro": "2013-11-17",
    "Municipio": "Monterrey",
    "Direccion": "Químicos 201-203, Tecnológico, 64700 Monterrey, NL, México",
    "lon": -100.2941437,
    "lat": 25.6491203,
    "id": "541a2cac908e69c4ed6fc174"
  },
  {
    "Arbol_id": 3134,
    "Folio": 123,
    "Usuario_id": "usuario1922",
    "Fecha_plantado": "",
    "Especie": "Anacahuita",
    "Fecha_registro": "2013-11-20",
    "Municipio": "Monterrey",
    "Direccion": "Acacias, Valle Alto, 64989 Monterrey, NL, México",
    "lon": -100.2571335,
    "lat": 25.5835991,
    "id": "541a2cac908e69c4ed6fc1e7"
  },
  {
    "Arbol_id": 3135,
    "Folio": 128,
    "Usuario_id": "usuario1922",
    "Fecha_plantado": "",
    "Especie": "Anacahuita",
    "Fecha_registro": "2013-11-20",
    "Municipio": "Monterrey",
    "Direccion": "Acacias, Valle Alto, 64989 Monterrey, NL, México",
    "lon": -100.2571335,
    "lat": 25.5835991,
    "id": "541a2cac908e69c4ed6fc1e8"
  },
  {
    "Arbol_id": 3138,
    "Folio": 0,
    "Usuario_id": "usuario2139",
    "Fecha_plantado": "",
    "Especie": "Anacahuita",
    "Fecha_registro": "2013-11-20",
    "Municipio": "Monterrey",
    "Direccion": "Acacias, Valle Alto, 64989 Monterrey, NL, México",
    "lon": -100.2571335,
    "lat": 25.5835991,
    "id": "541a2cac908e69c4ed6fc1eb"
  },
  {
    "Arbol_id": 3140,
    "Folio": 0,
    "Usuario_id": "usuario2139",
    "Fecha_plantado": "",
    "Especie": "Anacahuita",
    "Fecha_registro": "2013-11-20",
    "Municipio": "Monterrey",
    "Direccion": "Acacias, Valle Alto, 64989 Monterrey, NL, México",
    "lon": -100.2571335,
    "lat": 25.5835991,
    "id": "541a2cac908e69c4ed6fc1ed"
  },
  {
    "Arbol_id": 3142,
    "Folio": 0,
    "Usuario_id": "usuario2139",
    "Fecha_plantado": "",
    "Especie": "Anacahuita",
    "Fecha_registro": "2013-11-20",
    "Municipio": "Monterrey",
    "Direccion": "Acacias, Valle Alto, 64989 Monterrey, NL, México",
    "lon": -100.2571335,
    "lat": 25.5835991,
    "id": "541a2cac908e69c4ed6fc1ef"
  },
  {
    "Arbol_id": 3148,
    "Folio": 0,
    "Usuario_id": "usuario2139",
    "Fecha_plantado": "",
    "Especie": "Anacahuita",
    "Fecha_registro": "2013-11-20",
    "Municipio": "Monterrey",
    "Direccion": "Acacias, Valle Alto, 64989 Monterrey, NL, México",
    "lon": -100.2571335,
    "lat": 25.5835991,
    "id": "541a2cac908e69c4ed6fc1f5"
  },
  {
    "Arbol_id": 3151,
    "Folio": 0,
    "Usuario_id": "usuario2139",
    "Fecha_plantado": "",
    "Especie": "Anacahuita",
    "Fecha_registro": "2013-11-20",
    "Municipio": "Monterrey",
    "Direccion": "Acacias, Valle Alto, 64989 Monterrey, NL, México",
    "lon": -100.2571335,
    "lat": 25.5835991,
    "id": "541a2cac908e69c4ed6fc1f8"
  },
  {
    "Arbol_id": 3181,
    "Folio": 0,
    "Usuario_id": "usuario2382",
    "Fecha_plantado": "2013-04-13T00:00:00Z",
    "Especie": "Anacahuita",
    "Fecha_registro": "2013-11-22",
    "Municipio": "Monterrey",
    "Direccion": "Anastasio Bustamante 2528-S\"ESCUELA PRIMARIA Benito Juárez 64218 Monterrey 64218 Monterrey NL México\"",
    "lon": -100.3348846,
    "lat": 25.6995583,
    "id": "541a2cac908e69c4ed6fc211"
  },
  {
    "Arbol_id": 3183,
    "Folio": 0,
    "Usuario_id": "usuario2382",
    "Fecha_plantado": "2013-04-13T00:00:00Z",
    "Especie": "Anacahuita",
    "Fecha_registro": "2013-11-22",
    "Municipio": "Monterrey",
    "Direccion": "Anastasio Bustamante 2528-S\"ESCUELA PRIMARIA Benito Juárez 64218 Monterrey 64218 Monterrey NL México\"",
    "lon": "",
    "lat": "",
    "id": "541a2cac908e69c4ed6fc213"
  },
  {
    "Arbol_id": 3185,
    "Folio": 0,
    "Usuario_id": "usuario2382",
    "Fecha_plantado": "2013-04-13T00:00:00Z",
    "Especie": "Anacahuita",
    "Fecha_registro": "2013-11-22",
    "Municipio": "Monterrey",
    "Direccion": "Anastasio Bustamante 2528-S\"ESCUELA PRIMARIA Benito Juárez 64218 Monterrey 64218 Monterrey NL México\"",
    "lon": -100.3348846,
    "lat": 25.6995583,
    "id": "541a2cac908e69c4ed6fc215"
  },
  {
    "Arbol_id": 3187,
    "Folio": 0,
    "Usuario_id": "usuario2382",
    "Fecha_plantado": "2013-04-13T00:00:00Z",
    "Especie": "Anacahuita",
    "Fecha_registro": "2013-11-22",
    "Municipio": "Monterrey",
    "Direccion": "Anastasio Bustamante 2528-S\"ESCUELA PRIMARIA Benito Juárez 64218 Monterrey 64218 Monterrey NL México\"",
    "lon": -100.3348846,
    "lat": 25.6995583,
    "id": "541a2cac908e69c4ed6fc217"
  },
  {
    "Arbol_id": 3190,
    "Folio": 0,
    "Usuario_id": "usuario2382",
    "Fecha_plantado": "2013-04-13T00:00:00Z",
    "Especie": "Anacahuita",
    "Fecha_registro": "2013-11-22",
    "Municipio": "Monterrey",
    "Direccion": "Anastasio Bustamante 2528-S\"ESCUELA PRIMARIA Benito Juárez 64218 Monterrey 64218 Monterrey NL México\"",
    "lon": -100.3348846,
    "lat": 25.6995583,
    "id": "541a2cac908e69c4ed6fc21a"
  },
  {
    "Arbol_id": 3194,
    "Folio": 0,
    "Usuario_id": "usuario2382",
    "Fecha_plantado": "2013-04-13T00:00:00Z",
    "Especie": "Anacahuita",
    "Fecha_registro": "2013-11-22",
    "Municipio": "Monterrey",
    "Direccion": "Roble 2607, Benito Juárez, 64218 Monterrey, NL, México",
    "lon": -100.3357925,
    "lat": 25.6993275,
    "id": "541a2cac908e69c4ed6fc21e"
  },
  {
    "Arbol_id": 3196,
    "Folio": 0,
    "Usuario_id": "usuario2382",
    "Fecha_plantado": "2013-04-13T00:00:00Z",
    "Especie": "Anacahuita",
    "Fecha_registro": "2013-11-22",
    "Municipio": "Monterrey",
    "Direccion": "Roble 2607, Benito Juárez, 64218 Monterrey, NL, México",
    "lon": -100.3357925,
    "lat": 25.6993275,
    "id": "541a2cac908e69c4ed6fc220"
  },
  {
    "Arbol_id": 3201,
    "Folio": 0,
    "Usuario_id": "usuario2382",
    "Fecha_plantado": "2013-04-13T00:00:00Z",
    "Especie": "Anacahuita",
    "Fecha_registro": "2013-11-22",
    "Municipio": "Monterrey",
    "Direccion": "Roble 2800, Benito Juárez, 64218 Monterrey, NL, México",
    "lon": -100.335907,
    "lat": 25.7005215,
    "id": "541a2cac908e69c4ed6fc225"
  },
  {
    "Arbol_id": 3202,
    "Folio": 0,
    "Usuario_id": "usuario2382",
    "Fecha_plantado": "2013-04-13T00:00:00Z",
    "Especie": "Anacahuita",
    "Fecha_registro": "2013-11-22",
    "Municipio": "Monterrey",
    "Direccion": "Roble 2800, Benito Juárez, 64218 Monterrey, NL, México",
    "lon": -100.335907,
    "lat": 25.7005215,
    "id": "541a2cac908e69c4ed6fc226"
  },
  {
    "Arbol_id": 3205,
    "Folio": 0,
    "Usuario_id": "usuario2382",
    "Fecha_plantado": "2013-04-13T00:00:00Z",
    "Especie": "Anacahuita",
    "Fecha_registro": "2013-11-22",
    "Municipio": "Monterrey",
    "Direccion": "Roble 2800, Benito Juárez, 64218 Monterrey, NL, México",
    "lon": -100.335907,
    "lat": 25.7005215,
    "id": "541a2cac908e69c4ed6fc229"
  },
  {
    "Arbol_id": 3207,
    "Folio": 0,
    "Usuario_id": "usuario2382",
    "Fecha_plantado": "2013-04-13T00:00:00Z",
    "Especie": "Anacahuita",
    "Fecha_registro": "2013-11-22",
    "Municipio": "Monterrey",
    "Direccion": "Roble 2800, Benito Juárez, 64218 Monterrey, NL, México",
    "lon": -100.335907,
    "lat": 25.7005215,
    "id": "541a2cac908e69c4ed6fc22b"
  },
  {
    "Arbol_id": 3208,
    "Folio": 0,
    "Usuario_id": "usuario2382",
    "Fecha_plantado": "2013-04-13T00:00:00Z",
    "Especie": "Anacahuita",
    "Fecha_registro": "2013-11-22",
    "Municipio": "Monterrey",
    "Direccion": "Roble 2800, Benito Juárez, 64218 Monterrey, NL, México",
    "lon": -100.335907,
    "lat": 25.7005215,
    "id": "541a2cac908e69c4ed6fc22c"
  },
  {
    "Arbol_id": 3211,
    "Folio": 0,
    "Usuario_id": "usuario2382",
    "Fecha_plantado": "2013-03-23T00:00:00Z",
    "Especie": "Anacahuita",
    "Fecha_registro": "2013-11-23",
    "Municipio": "Monterrey",
    "Direccion": "M. Barragán 2313A, Talleres, 64440 Monterrey, NL, México",
    "lon": -100.3348389,
    "lat": 25.6934204,
    "id": "541a2cac908e69c4ed6fc22f"
  },
  {
    "Arbol_id": 3212,
    "Folio": 0,
    "Usuario_id": "usuario2382",
    "Fecha_plantado": "2013-03-23T00:00:00Z",
    "Especie": "Anacahuita",
    "Fecha_registro": "2013-11-23",
    "Municipio": "Monterrey",
    "Direccion": "M. Barragán 2313, Talleres, 64440 Monterrey, NL, México",
    "lon": -100.3348389,
    "lat": 25.6934204,
    "id": "541a2cac908e69c4ed6fc230"
  },
  {
    "Arbol_id": 3215,
    "Folio": 0,
    "Usuario_id": "usuario2382",
    "Fecha_plantado": "2013-03-23T00:00:00Z",
    "Especie": "Anacahuita",
    "Fecha_registro": "2013-11-23",
    "Municipio": "Monterrey",
    "Direccion": "La Paz, Industrial, 64440 Monterrey, NL, México",
    "lon": -100.3347015,
    "lat": 25.6929092,
    "id": "541a2cac908e69c4ed6fc233"
  },
  {
    "Arbol_id": 3220,
    "Folio": 0,
    "Usuario_id": "usuario2382",
    "Fecha_plantado": "2013-03-23T00:00:00Z",
    "Especie": "Anacahuita",
    "Fecha_registro": "2013-11-23",
    "Municipio": "Monterrey",
    "Direccion": "La Paz, Industrial, 64440 Monterrey, NL, México",
    "lon": -100.3347015,
    "lat": 25.6929092,
    "id": "541a2cac908e69c4ed6fc238"
  },
  {
    "Arbol_id": 3222,
    "Folio": 0,
    "Usuario_id": "usuario2382",
    "Fecha_plantado": "2013-03-23T00:00:00Z",
    "Especie": "Anacahuita",
    "Fecha_registro": "2013-11-23",
    "Municipio": "Monterrey",
    "Direccion": "La Paz, Industrial, 64440 Monterrey, NL, México",
    "lon": -100.3347015,
    "lat": 25.6929092,
    "id": "541a2cac908e69c4ed6fc23a"
  },
  {
    "Arbol_id": 3223,
    "Folio": 0,
    "Usuario_id": "usuario2382",
    "Fecha_plantado": "2013-03-23T00:00:00Z",
    "Especie": "Anacahuita",
    "Fecha_registro": "2013-11-23",
    "Municipio": "Monterrey",
    "Direccion": "La Paz, Industrial, 64440 Monterrey, NL, México",
    "lon": -100.3347015,
    "lat": 25.6929092,
    "id": "541a2cac908e69c4ed6fc23b"
  },
  {
    "Arbol_id": 3224,
    "Folio": 0,
    "Usuario_id": "usuario2382",
    "Fecha_plantado": "2013-03-23T00:00:00Z",
    "Especie": "Anacahuita",
    "Fecha_registro": "2013-11-23",
    "Municipio": "Monterrey",
    "Direccion": "La Paz, Industrial, 64440 Monterrey, NL, México",
    "lon": -100.3347015,
    "lat": 25.6929092,
    "id": "541a2cac908e69c4ed6fc23c"
  },
  {
    "Arbol_id": 3225,
    "Folio": 0,
    "Usuario_id": "usuario2382",
    "Fecha_plantado": "2013-03-23T00:00:00Z",
    "Especie": "Anacahuita",
    "Fecha_registro": "2013-11-23",
    "Municipio": "Monterrey",
    "Direccion": "La Paz, Industrial, 64440 Monterrey, NL, México",
    "lon": -100.3347015,
    "lat": 25.6929092,
    "id": "541a2cac908e69c4ed6fc23d"
  },
  {
    "Arbol_id": 3226,
    "Folio": 0,
    "Usuario_id": "usuario2382",
    "Fecha_plantado": "2013-03-23T00:00:00Z",
    "Especie": "Anacahuita",
    "Fecha_registro": "2013-11-23",
    "Municipio": "Monterrey",
    "Direccion": "La Paz, Industrial, 64440 Monterrey, NL, México",
    "lon": -100.3347015,
    "lat": 25.6929092,
    "id": "541a2cac908e69c4ed6fc23e"
  },
  {
    "Arbol_id": 3229,
    "Folio": 0,
    "Usuario_id": "usuario2382",
    "Fecha_plantado": "2013-03-23T00:00:00Z",
    "Especie": "Anacahuita",
    "Fecha_registro": "2013-11-23",
    "Municipio": "Monterrey",
    "Direccion": "La Paz, Industrial, 64440 Monterrey, NL, México",
    "lon": -100.3347015,
    "lat": 25.6929092,
    "id": "541a2cac908e69c4ed6fc241"
  },
  {
    "Arbol_id": 3379,
    "Folio": 10,
    "Usuario_id": "usuario637",
    "Fecha_plantado": "",
    "Especie": "Anacahuita",
    "Fecha_registro": "2013-12-01",
    "Municipio": "Monterrey",
    "Direccion": "Técnicos 215, Tecnológico, 64700 Monterrey, NL, México",
    "lon": -100.2930832,
    "lat": 25.6463909,
    "id": "541a2cac908e69c4ed6fc2d6"
  },
  {
    "Arbol_id": 4338,
    "Folio": 0,
    "Usuario_id": "usuario2255",
    "Fecha_plantado": "",
    "Especie": "Anacahuita",
    "Fecha_registro": "2014-01-24",
    "Municipio": "Guadalupe",
    "Direccion": "Marco Tulio Cicerón 615, Contry La Silla 1er Sector, 67173 NL, México",
    "lon": -100.2693024,
    "lat": 25.6242199,
    "id": "541a2cad908e69c4ed6fc671"
  },
  {
    "Arbol_id": 4339,
    "Folio": 0,
    "Usuario_id": "usuario2255",
    "Fecha_plantado": "",
    "Especie": "Anacahuita",
    "Fecha_registro": "2014-01-24",
    "Municipio": "Guadalupe",
    "Direccion": "Marco Tulio Cicerón 615, Contry La Silla 1er Sector, 67173 NL, México",
    "lon": -100.2693024,
    "lat": 25.6242199,
    "id": "541a2cad908e69c4ed6fc672"
  },
  {
    "Arbol_id": 4591,
    "Folio": 0,
    "Usuario_id": "usuario2273",
    "Fecha_plantado": "",
    "Especie": "Anacahuita",
    "Fecha_registro": "2014-01-28",
    "Municipio": "Guadalupe",
    "Direccion": "Evangelina Torricelli 555, Contry La Silla 1er Sector, NL, México",
    "lon": "",
    "lat": "",
    "id": "541a2cad908e69c4ed6fc76b"
  },
  {
    "Arbol_id": 4593,
    "Folio": 0,
    "Usuario_id": "usuario2273",
    "Fecha_plantado": "",
    "Especie": "Anacahuita",
    "Fecha_registro": "2014-01-28",
    "Municipio": "Guadalupe",
    "Direccion": "Evangelina Torricelli 555, Contry La Silla 1er Sector, NL, México",
    "lon": "",
    "lat": "",
    "id": "541a2cad908e69c4ed6fc76d"
  },
  {
    "Arbol_id": 4716,
    "Folio": 0,
    "Usuario_id": "usuario2273",
    "Fecha_plantado": "",
    "Especie": "Anacahuita",
    "Fecha_registro": "2014-01-29",
    "Municipio": "Guadalupe",
    "Direccion": "Eje Metropolitano 31, Contry La Silla 1er Sector, 67173 NL, México",
    "lon": "",
    "lat": "",
    "id": "541a2cad908e69c4ed6fc7e4"
  },
  {
    "Arbol_id": 4720,
    "Folio": 0,
    "Usuario_id": "usuario2273",
    "Fecha_plantado": "",
    "Especie": "Anacahuita",
    "Fecha_registro": "2014-01-29",
    "Municipio": "Guadalupe",
    "Direccion": "Paseo de las Americas 3190, Contry La Silla 1er Sector, Contry la Silla, 64780 NL, México",
    "lon": -100.2704315,
    "lat": 25.6248608,
    "id": "541a2cad908e69c4ed6fc7e8"
  },
  {
    "Arbol_id": 4721,
    "Folio": 0,
    "Usuario_id": "usuario2273",
    "Fecha_plantado": "",
    "Especie": "Anacahuita",
    "Fecha_registro": "2014-01-29",
    "Municipio": "Guadalupe",
    "Direccion": "Paseo de las Americas 3190, Contry La Silla 1er Sector, Contry la Silla, 64780 NL, México",
    "lon": -100.2704315,
    "lat": 25.6248608,
    "id": "541a2cad908e69c4ed6fc7e9"
  },
  {
    "Arbol_id": 4724,
    "Folio": 0,
    "Usuario_id": "usuario2273",
    "Fecha_plantado": "",
    "Especie": "Anacahuita",
    "Fecha_registro": "2014-01-29",
    "Municipio": "Guadalupe",
    "Direccion": "Paseo de las Americas 3190, Contry La Silla 1er Sector, Contry la Silla, 64780 NL, México",
    "lon": -100.2704315,
    "lat": 25.6248608,
    "id": "541a2cad908e69c4ed6fc7ec"
  },
  {
    "Arbol_id": 4726,
    "Folio": 0,
    "Usuario_id": "usuario2273",
    "Fecha_plantado": "",
    "Especie": "Anacahuita",
    "Fecha_registro": "2014-01-29",
    "Municipio": "Guadalupe",
    "Direccion": "Paseo de las Americas 3190, Contry La Silla 1er Sector, Contry la Silla, 64780 NL, México",
    "lon": -100.2704315,
    "lat": 25.6248608,
    "id": "541a2cad908e69c4ed6fc7ee"
  },
  {
    "Arbol_id": 4729,
    "Folio": 0,
    "Usuario_id": "usuario2273",
    "Fecha_plantado": "",
    "Especie": "Anacahuita",
    "Fecha_registro": "2014-01-29",
    "Municipio": "Guadalupe",
    "Direccion": "Paseo de las Americas 3190, Contry La Silla 1er Sector, Contry la Silla, 64780 NL, México",
    "lon": -100.2704315,
    "lat": 25.6248608,
    "id": "541a2cad908e69c4ed6fc7f1"
  },
  {
    "Arbol_id": 4731,
    "Folio": 0,
    "Usuario_id": "usuario2273",
    "Fecha_plantado": "",
    "Especie": "Anacahuita",
    "Fecha_registro": "2014-01-29",
    "Municipio": "Guadalupe",
    "Direccion": "Paseo de las Americas 3190, Contry La Silla 1er Sector, Contry la Silla, 64780 NL, México",
    "lon": -100.2704315,
    "lat": 25.6248608,
    "id": "541a2cad908e69c4ed6fc7f3"
  },
  {
    "Arbol_id": 4733,
    "Folio": 0,
    "Usuario_id": "usuario2273",
    "Fecha_plantado": "",
    "Especie": "Anacahuita",
    "Fecha_registro": "2014-01-29",
    "Municipio": "Guadalupe",
    "Direccion": "Eje Metropolitano 31, Contry La Silla 1er Sector, 67173 NL, México",
    "lon": "",
    "lat": "",
    "id": "541a2cad908e69c4ed6fc7f5"
  },
  {
    "Arbol_id": 4735,
    "Folio": 0,
    "Usuario_id": "usuario2273",
    "Fecha_plantado": "",
    "Especie": "Anacahuita",
    "Fecha_registro": "2014-01-29",
    "Municipio": "Guadalupe",
    "Direccion": "Eje Metropolitano 31, Contry La Silla 1er Sector, 67173 NL, México",
    "lon": "",
    "lat": "",
    "id": "541a2cad908e69c4ed6fc7f7"
  },
  {
    "Arbol_id": 4740,
    "Folio": 0,
    "Usuario_id": "usuario2273",
    "Fecha_plantado": "",
    "Especie": "Anacahuita",
    "Fecha_registro": "2014-01-29",
    "Municipio": "Guadalupe",
    "Direccion": "Eje Metropolitano 31, Contry La Silla 1er Sector, 67173 NL, México",
    "lon": "",
    "lat": "",
    "id": "541a2cad908e69c4ed6fc7fc"
  },
  {
    "Arbol_id": 4742,
    "Folio": 0,
    "Usuario_id": "usuario2273",
    "Fecha_plantado": "",
    "Especie": "Anacahuita",
    "Fecha_registro": "2014-01-29",
    "Municipio": "Guadalupe",
    "Direccion": "Eje Metropolitano 31, Contry La Silla 1er Sector, 67173 NL, México",
    "lon": "",
    "lat": "",
    "id": "541a2cad908e69c4ed6fc7fe"
  },
  {
    "Arbol_id": 4745,
    "Folio": 0,
    "Usuario_id": "usuario2273",
    "Fecha_plantado": "",
    "Especie": "Anacahuita",
    "Fecha_registro": "2014-01-29",
    "Municipio": "Guadalupe",
    "Direccion": "Eje Metropolitano 31, Contry La Silla 1er Sector, 67173 NL, México",
    "lon": "",
    "lat": "",
    "id": "541a2cad908e69c4ed6fc801"
  },
  {
    "Arbol_id": 4747,
    "Folio": 0,
    "Usuario_id": "usuario2273",
    "Fecha_plantado": "",
    "Especie": "Anacahuita",
    "Fecha_registro": "2014-01-29",
    "Municipio": "Guadalupe",
    "Direccion": "Eje Metropolitano 31, Contry La Silla 1er Sector, 67173 NL, México",
    "lon": "",
    "lat": "",
    "id": "541a2cad908e69c4ed6fc803"
  },
  {
    "Arbol_id": 4750,
    "Folio": 0,
    "Usuario_id": "usuario2273",
    "Fecha_plantado": "",
    "Especie": "Anacahuita",
    "Fecha_registro": "2014-01-29",
    "Municipio": "Guadalupe",
    "Direccion": "Abraham Lincoln 618B, Contry La Silla 1er Sector, 67173 NL, México",
    "lon": -100.2700348,
    "lat": 25.6238003,
    "id": "541a2cad908e69c4ed6fc806"
  },
  {
    "Arbol_id": 4753,
    "Folio": 0,
    "Usuario_id": "usuario2273",
    "Fecha_plantado": "",
    "Especie": "Anacahuita",
    "Fecha_registro": "2014-01-29",
    "Municipio": "Guadalupe",
    "Direccion": "Abraham Lincoln 618B, Contry La Silla 1er Sector, 67173 NL, México",
    "lon": -100.2700348,
    "lat": 25.6238003,
    "id": "541a2cad908e69c4ed6fc809"
  },
  {
    "Arbol_id": 4756,
    "Folio": 0,
    "Usuario_id": "usuario2273",
    "Fecha_plantado": "",
    "Especie": "Anacahuita",
    "Fecha_registro": "2014-01-29",
    "Municipio": "Guadalupe",
    "Direccion": "Abraham Lincoln 618B, Contry La Silla 1er Sector, 67173 NL, México",
    "lon": -100.2700348,
    "lat": 25.6238003,
    "id": "541a2cad908e69c4ed6fc80c"
  },
  {
    "Arbol_id": 4764,
    "Folio": 0,
    "Usuario_id": "usuario2273",
    "Fecha_plantado": "",
    "Especie": "Anacahuita",
    "Fecha_registro": "2014-01-29",
    "Municipio": "Guadalupe",
    "Direccion": "Eje Metropolitano 31, Contry La Silla 1er Sector, 67173 NL, México",
    "lon": "",
    "lat": "",
    "id": "541a2cad908e69c4ed6fc814"
  },
  {
    "Arbol_id": 4766,
    "Folio": 0,
    "Usuario_id": "usuario2273",
    "Fecha_plantado": "",
    "Especie": "Anacahuita",
    "Fecha_registro": "2014-01-29",
    "Municipio": "Guadalupe",
    "Direccion": "Sócrates 601, Contry La Silla 1er Sector, 67173 NL, México",
    "lon": -100.2699814,
    "lat": 25.6245003,
    "id": "541a2cad908e69c4ed6fc816"
  },
  {
    "Arbol_id": 4769,
    "Folio": 0,
    "Usuario_id": "usuario2273",
    "Fecha_plantado": "",
    "Especie": "Anacahuita",
    "Fecha_registro": "2014-01-29",
    "Municipio": "Guadalupe",
    "Direccion": "Sócrates 601, Contry La Silla 1er Sector, 67173 NL, México",
    "lon": -100.2699814,
    "lat": 25.6245003,
    "id": "541a2cad908e69c4ed6fc819"
  },
  {
    "Arbol_id": 4772,
    "Folio": 0,
    "Usuario_id": "usuario2273",
    "Fecha_plantado": "",
    "Especie": "Anacahuita",
    "Fecha_registro": "2014-01-29",
    "Municipio": "Guadalupe",
    "Direccion": "Sócrates 601, Contry La Silla 1er Sector, 67173 NL, México",
    "lon": -100.2699814,
    "lat": 25.6245003,
    "id": "541a2cad908e69c4ed6fc81c"
  },
  {
    "Arbol_id": 4773,
    "Folio": 0,
    "Usuario_id": "usuario2273",
    "Fecha_plantado": "",
    "Especie": "Anacahuita",
    "Fecha_registro": "2014-01-29",
    "Municipio": "Guadalupe",
    "Direccion": "Sócrates 601, Contry La Silla 1er Sector, 67173 NL, México",
    "lon": -100.2699814,
    "lat": 25.6245003,
    "id": "541a2cad908e69c4ed6fc81d"
  },
  {
    "Arbol_id": 4775,
    "Folio": 0,
    "Usuario_id": "usuario2273",
    "Fecha_plantado": "",
    "Especie": "Anacahuita",
    "Fecha_registro": "2014-01-29",
    "Municipio": "Guadalupe",
    "Direccion": "Abraham Lincoln 618B, Contry La Silla 1er Sector, 67173 NL, México",
    "lon": -100.2700348,
    "lat": 25.6238003,
    "id": "541a2cad908e69c4ed6fc81f"
  },
  {
    "Arbol_id": 4777,
    "Folio": 0,
    "Usuario_id": "usuario2273",
    "Fecha_plantado": "",
    "Especie": "Anacahuita",
    "Fecha_registro": "2014-01-29",
    "Municipio": "Guadalupe",
    "Direccion": "Eje Metropolitano 31, Contry La Silla 1er Sector, 67173 NL, México",
    "lon": "",
    "lat": "",
    "id": "541a2cad908e69c4ed6fc821"
  },
  {
    "Arbol_id": 4780,
    "Folio": 0,
    "Usuario_id": "usuario2273",
    "Fecha_plantado": "",
    "Especie": "Anacahuita",
    "Fecha_registro": "2014-01-29",
    "Municipio": "Guadalupe",
    "Direccion": "Eje Metropolitano 31, Contry La Silla 1er Sector, 67173 NL, México",
    "lon": "",
    "lat": "",
    "id": "541a2cad908e69c4ed6fc824"
  },
  {
    "Arbol_id": 4782,
    "Folio": 0,
    "Usuario_id": "usuario2273",
    "Fecha_plantado": "",
    "Especie": "Anacahuita",
    "Fecha_registro": "2014-01-29",
    "Municipio": "Guadalupe",
    "Direccion": "Eje Metropolitano 31, Contry La Silla 1er Sector, 67173 NL, México",
    "lon": "",
    "lat": "",
    "id": "541a2cad908e69c4ed6fc826"
  },
  {
    "Arbol_id": 4784,
    "Folio": 0,
    "Usuario_id": "usuario2273",
    "Fecha_plantado": "",
    "Especie": "Anacahuita",
    "Fecha_registro": "2014-01-29",
    "Municipio": "Guadalupe",
    "Direccion": "Eje Metropolitano 31, Contry La Silla 1er Sector, 67173 NL, México",
    "lon": "",
    "lat": "",
    "id": "541a2cad908e69c4ed6fc828"
  },
  {
    "Arbol_id": 4787,
    "Folio": 0,
    "Usuario_id": "usuario2273",
    "Fecha_plantado": "",
    "Especie": "Anacahuita",
    "Fecha_registro": "2014-01-29",
    "Municipio": "Guadalupe",
    "Direccion": "Eje Metropolitano 31, Contry La Silla 1er Sector, 67173 NL, México",
    "lon": "",
    "lat": "",
    "id": "541a2cad908e69c4ed6fc82b"
  },
  {
    "Arbol_id": 4789,
    "Folio": 0,
    "Usuario_id": "usuario2273",
    "Fecha_plantado": "",
    "Especie": "Anacahuita",
    "Fecha_registro": "2014-01-29",
    "Municipio": "Guadalupe",
    "Direccion": "Eje Metropolitano 31, Contry La Silla 1er Sector, 67173 NL, México",
    "lon": "",
    "lat": "",
    "id": "541a2cad908e69c4ed6fc82d"
  },
  {
    "Arbol_id": 5155,
    "Folio": 0,
    "Usuario_id": "usuario2273",
    "Fecha_plantado": "",
    "Especie": "Anacahuita",
    "Fecha_registro": "2014-01-31",
    "Municipio": "Guadalupe",
    "Direccion": "Ancón 3386-3387, Riberas del Río, 67160 NL, México",
    "lon": -100.22612,
    "lat": 25.6793404,
    "id": "541a2cad908e69c4ed6fc998"
  },
  {
    "Arbol_id": 5160,
    "Folio": 0,
    "Usuario_id": "usuario2273",
    "Fecha_plantado": "",
    "Especie": "Anacahuita",
    "Fecha_registro": "2014-01-31",
    "Municipio": "Guadalupe",
    "Direccion": "Ancón 3386-3387, Riberas del Río, 67160 NL, México",
    "lon": -100.22612,
    "lat": 25.6793404,
    "id": "541a2cad908e69c4ed6fc99d"
  },
  {
    "Arbol_id": 5227,
    "Folio": 0,
    "Usuario_id": "usuario2160",
    "Fecha_plantado": "2014-01-28T00:00:00Z",
    "Especie": "Anacahuita",
    "Fecha_registro": "2014-01-31",
    "Municipio": "Garc",
    "Direccion": "Diamante, NL, M",
    "lon": "",
    "lat": "",
    "id": "541a2cad908e69c4ed6fc9da"
  },
  {
    "Arbol_id": 5300,
    "Folio": 0,
    "Usuario_id": "usuario2160",
    "Fecha_plantado": "2014-01-31T00:00:00Z",
    "Especie": "Anacahuita",
    "Fecha_registro": "2014-01-31",
    "Municipio": "Garc",
    "Direccion": "Diamante, NL, M",
    "lon": "",
    "lat": "",
    "id": "541a2cad908e69c4ed6fca23"
  },
  {
    "Arbol_id": 5301,
    "Folio": 0,
    "Usuario_id": "usuario2160",
    "Fecha_plantado": "2014-01-28T00:00:00Z",
    "Especie": "Anacahuita",
    "Fecha_registro": "2014-01-31",
    "Municipio": "Garc",
    "Direccion": "Diamante, NL, M",
    "lon": "",
    "lat": "",
    "id": "541a2cad908e69c4ed6fca24"
  },
  {
    "Arbol_id": 5352,
    "Folio": 78,
    "Usuario_id": "usuario2840",
    "Fecha_plantado": "",
    "Especie": "Anacahuita",
    "Fecha_registro": "2014-02-04",
    "Municipio": "San Nicolás",
    "Direccion": "Ojo de Agua 417, Residencial Potrero de Anáhuac, 66635 Chandra's Test City [don't deny], state, Méxi",
    "lon": "",
    "lat": "",
    "id": "541a2cad908e69c4ed6fca51"
  },
  {
    "Arbol_id": 6478,
    "Folio": 0,
    "Usuario_id": "usuario2273",
    "Fecha_plantado": "",
    "Especie": "Anacahuita",
    "Fecha_registro": "2014-02-11",
    "Municipio": "Guadalupe",
    "Direccion": "Itsmo 3315, Riberas del Río, 67160 NL, México",
    "lon": -100.2207184,
    "lat": 25.6784077,
    "id": "541a2cad908e69c4ed6fceac"
  },
  {
    "Arbol_id": 6625,
    "Folio": 2,
    "Usuario_id": "usuario456",
    "Fecha_plantado": "2013-12-10T00:00:00Z",
    "Especie": "Anacahuita",
    "Fecha_registro": "2014-02-11",
    "Municipio": "Garc",
    "Direccion": "Tanzanita, NL, México",
    "lon": "",
    "lat": "",
    "id": "541a2cad908e69c4ed6fcf3f"
  },
  {
    "Arbol_id": 6626,
    "Folio": 3,
    "Usuario_id": "usuario456",
    "Fecha_plantado": "2013-12-10T00:00:00Z",
    "Especie": "Anacahuita",
    "Fecha_registro": "2014-02-11",
    "Municipio": "Garc",
    "Direccion": "Tanzanita, NL, México",
    "lon": -100.2051392,
    "lat": 25.7971592,
    "id": "541a2cad908e69c4ed6fcf40"
  },
  {
    "Arbol_id": 6627,
    "Folio": 1,
    "Usuario_id": "usuario456",
    "Fecha_plantado": "2013-12-10T00:00:00Z",
    "Especie": "Anacahuita",
    "Fecha_registro": "2014-02-11",
    "Municipio": "Garc",
    "Direccion": "Tanzanita, NL, México",
    "lon": -100.2051392,
    "lat": 25.7971592,
    "id": "541a2cad908e69c4ed6fcf41"
  },
  {
    "Arbol_id": 6628,
    "Folio": 4,
    "Usuario_id": "usuario456",
    "Fecha_plantado": "2013-12-10T00:00:00Z",
    "Especie": "Anacahuita",
    "Fecha_registro": "2014-02-11",
    "Municipio": "Garc",
    "Direccion": "Tanzanita, NL, M",
    "lon": "",
    "lat": "",
    "id": "541a2cad908e69c4ed6fcf42"
  },
  {
    "Arbol_id": 6974,
    "Folio": 5,
    "Usuario_id": "usuario456",
    "Fecha_plantado": "2013-12-10T00:00:00Z",
    "Especie": "Anacahuita",
    "Fecha_registro": "2014-02-13",
    "Municipio": "García",
    "Direccion": "Tanzanita, NL, México",
    "lon": -100.2051392,
    "lat": 25.7971592,
    "id": "541a2cad908e69c4ed6fd099"
  },
  {
    "Arbol_id": 8140,
    "Folio": 0,
    "Usuario_id": "usuario2273",
    "Fecha_plantado": "",
    "Especie": "Anacahuita",
    "Fecha_registro": "2014-02-19",
    "Municipio": "Guadalupe",
    "Direccion": "Pedro Calderón de La Barça 2760, Contry La Silla 4o Sector, 67173 Guadalupe, NL, México",
    "lon": -100.26754,
    "lat": 25.6343899,
    "id": "541a2cae908e69c4ed6fd518"
  },
  {
    "Arbol_id": 8549,
    "Folio": 0,
    "Usuario_id": "usuario2273",
    "Fecha_plantado": "",
    "Especie": "Anacahuita",
    "Fecha_registro": "2014-02-19",
    "Municipio": "Guadalupe",
    "Direccion": "Samuel Morse 752, Contry La Silla 4o Sector, 67173 NL, México",
    "lon": -100.2667236,
    "lat": 25.6313992,
    "id": "541a2cae908e69c4ed6fd6aa"
  },
  {
    "Arbol_id": 8568,
    "Folio": 0,
    "Usuario_id": "usuario2273",
    "Fecha_plantado": "",
    "Especie": "Anacahuita",
    "Fecha_registro": "2014-02-19",
    "Municipio": "Guadalupe",
    "Direccion": "Benjamín Franklin 840, Sin Nombre de Colonia 53, NL, México",
    "lon": "",
    "lat": "",
    "id": "541a2cae908e69c4ed6fd6bd"
  },
  {
    "Arbol_id": 8576,
    "Folio": 0,
    "Usuario_id": "usuario2273",
    "Fecha_plantado": "",
    "Especie": "Anacahuita",
    "Fecha_registro": "2014-02-19",
    "Municipio": "Guadalupe",
    "Direccion": "Benjamín Franklin 840, Sin Nombre de Colonia 53, NL, México",
    "lon": "",
    "lat": "",
    "id": "541a2cae908e69c4ed6fd6c5"
  },
  {
    "Arbol_id": 8597,
    "Folio": 0,
    "Usuario_id": "usuario2273",
    "Fecha_plantado": "",
    "Especie": "Anacahuita",
    "Fecha_registro": "2014-02-19",
    "Municipio": "Guadalupe",
    "Direccion": "Albert Einstein 2860, Contry La Silla 4o Sector, 67173 NL, México",
    "lon": -100.26651,
    "lat": 25.6326008,
    "id": "541a2cae908e69c4ed6fd6da"
  },
  {
    "Arbol_id": 8600,
    "Folio": 0,
    "Usuario_id": "usuario2273",
    "Fecha_plantado": "",
    "Especie": "Anacahuita",
    "Fecha_registro": "2014-02-19",
    "Municipio": "Guadalupe",
    "Direccion": "Albert Einstein 2860, Contry La Silla 4o Sector, 67173 NL, México",
    "lon": -100.26651,
    "lat": 25.6326008,
    "id": "541a2cae908e69c4ed6fd6dd"
  },
  {
    "Arbol_id": 8652,
    "Folio": 0,
    "Usuario_id": "usuario2273",
    "Fecha_plantado": "",
    "Especie": "Anacahuita",
    "Fecha_registro": "2014-02-20",
    "Municipio": "Guadalupe",
    "Direccion": "Samuel Morse 734, Contry La Silla 4o Sector, 67173 NL, México",
    "lon": -100.2668228,
    "lat": 25.6315308,
    "id": "541a2cae908e69c4ed6fd70f"
  },
  {
    "Arbol_id": 8710,
    "Folio": 0,
    "Usuario_id": "usuario2273",
    "Fecha_plantado": "",
    "Especie": "Anacahuita",
    "Fecha_registro": "2014-02-20",
    "Municipio": "Guadalupe",
    "Direccion": "Einstein 2701, Contry La Silla 4o Sector, 67173 NL, México",
    "lon": -100.2673111,
    "lat": 25.6361103,
    "id": "541a2cae908e69c4ed6fd749"
  },
  {
    "Arbol_id": 8715,
    "Folio": 0,
    "Usuario_id": "usuario2273",
    "Fecha_plantado": "",
    "Especie": "Anacahuita",
    "Fecha_registro": "2014-02-20",
    "Municipio": "Guadalupe",
    "Direccion": "Einstein 2701, Contry La Silla 4o Sector, 67173 NL, México",
    "lon": -100.2673111,
    "lat": 25.6361103,
    "id": "541a2cae908e69c4ed6fd74e"
  },
  {
    "Arbol_id": 8847,
    "Folio": 0,
    "Usuario_id": "usuario2427",
    "Fecha_plantado": "",
    "Especie": "Anacahuita",
    "Fecha_registro": "2014-02-21",
    "Municipio": "San Pedro",
    "Direccion": "Lic. Benito Juárez 250-S, Casco Urbano, 66230 NL, México",
    "lon": "",
    "lat": "",
    "id": "541a2cae908e69c4ed6fd7cf"
  },
  {
    "Arbol_id": 9547,
    "Folio": 0,
    "Usuario_id": "usuario2273",
    "Fecha_plantado": "",
    "Especie": "Anacahuita",
    "Fecha_registro": "2014-02-26",
    "Municipio": "Guadalupe",
    "Direccion": "Ancón 702, Riberas del Río, 67160 NL, México",
    "lon": -100.22612,
    "lat": 25.6793404,
    "id": "541a2cae908e69c4ed6fda86"
  },
  {
    "Arbol_id": 9549,
    "Folio": 0,
    "Usuario_id": "usuario2273",
    "Fecha_plantado": "",
    "Especie": "Anacahuita",
    "Fecha_registro": "2014-02-26",
    "Municipio": "Guadalupe",
    "Direccion": "Ancón 702, Riberas del Río, 67160 NL, México",
    "lon": -100.22612,
    "lat": 25.6793404,
    "id": "541a2cae908e69c4ed6fda88"
  },
  {
    "Arbol_id": 9550,
    "Folio": 0,
    "Usuario_id": "usuario2273",
    "Fecha_plantado": "",
    "Especie": "Anacahuita",
    "Fecha_registro": "2014-02-26",
    "Municipio": "Guadalupe",
    "Direccion": "Ancón 702, Riberas del Río, 67160 NL, México",
    "lon": "",
    "lat": "",
    "id": "541a2cae908e69c4ed6fda89"
  },
  {
    "Arbol_id": 10739,
    "Folio": 0,
    "Usuario_id": "usuario1900",
    "Fecha_plantado": "2013-12-05T00:00:00Z",
    "Especie": "Anacahuita",
    "Fecha_registro": "2014-03-04",
    "Municipio": "San Pedro",
    "Direccion": "José María Morelos y Pavón 228, Casco Urbano, 66230 NL, México",
    "lon": -100.4022751,
    "lat": 25.6633568,
    "id": "541a2cae908e69c4ed6fdf07"
  },
  {
    "Arbol_id": 10906,
    "Folio": 0,
    "Usuario_id": "usuario1900",
    "Fecha_plantado": "2013-12-19T00:00:00Z",
    "Especie": "Anacahuita",
    "Fecha_registro": "2014-03-04",
    "Municipio": "San Pedro",
    "Direccion": "Río Volga 306, Del Valle, 66220 NL, México",
    "lon": -100.3636703,
    "lat": 25.6530972,
    "id": "541a2cae908e69c4ed6fdfae"
  },
  {
    "Arbol_id": 10912,
    "Folio": 0,
    "Usuario_id": "usuario1900",
    "Fecha_plantado": "2013-12-19T00:00:00Z",
    "Especie": "Anacahuita",
    "Fecha_registro": "2014-03-04",
    "Municipio": "San Pedro",
    "Direccion": "Río Volga 305, Del Valle, 66220 NL, México",
    "lon": -100.3636398,
    "lat": 25.6533718,
    "id": "541a2cae908e69c4ed6fdfb4"
  },
  {
    "Arbol_id": 10913,
    "Folio": 0,
    "Usuario_id": "usuario1900",
    "Fecha_plantado": "2013-12-19T00:00:00Z",
    "Especie": "Anacahuita",
    "Fecha_registro": "2014-03-04",
    "Municipio": "San Pedro",
    "Direccion": "Río Volga 305, Del Valle, 66220 NL, México",
    "lon": -100.3636398,
    "lat": 25.6533718,
    "id": "541a2cae908e69c4ed6fdfb5"
  },
  {
    "Arbol_id": 10915,
    "Folio": 0,
    "Usuario_id": "usuario1900",
    "Fecha_plantado": "2013-12-19T00:00:00Z",
    "Especie": "Anacahuita",
    "Fecha_registro": "2014-03-04",
    "Municipio": "San Pedro",
    "Direccion": "Río Volga 305, Del Valle, 66220 NL, México",
    "lon": -100.3636398,
    "lat": 25.6533718,
    "id": "541a2cae908e69c4ed6fdfb7"
  },
  {
    "Arbol_id": 11171,
    "Folio": 18,
    "Usuario_id": "usuario1900",
    "Fecha_plantado": "2013-05-27T00:00:00Z",
    "Especie": "Anacahuita",
    "Fecha_registro": "2014-03-05",
    "Municipio": "San Pedro",
    "Direccion": "Calle Paseo Olga 600-S, Haciendas de La Sierra, NL, México",
    "lon": "",
    "lat": "",
    "id": "541a2caf908e69c4ed6fe0b4"
  },
  {
    "Arbol_id": 11179,
    "Folio": 16,
    "Usuario_id": "usuario1900",
    "Fecha_plantado": "2013-05-27T00:00:00Z",
    "Especie": "Anacahuita",
    "Fecha_registro": "2014-03-05",
    "Municipio": "San Pedro",
    "Direccion": "Calle Paseo Irma 601, Haciendas de La Sierra, NL, México",
    "lon": "",
    "lat": "",
    "id": "541a2caf908e69c4ed6fe0bc"
  },
  {
    "Arbol_id": 11182,
    "Folio": 17,
    "Usuario_id": "usuario1900",
    "Fecha_plantado": "2013-05-27T00:00:00Z",
    "Especie": "Anacahuita",
    "Fecha_registro": "2014-03-05",
    "Municipio": "San Pedro",
    "Direccion": "Calle Paseo Olga 600-S, Haciendas de La Sierra, NL, México",
    "lon": "",
    "lat": "",
    "id": "541a2caf908e69c4ed6fe0bf"
  },
  {
    "Arbol_id": 11334,
    "Folio": 0,
    "Usuario_id": "usuario1900",
    "Fecha_plantado": "2014-01-21T00:00:00Z",
    "Especie": "Anacahuita",
    "Fecha_registro": "2014-03-05",
    "Municipio": "San Pedro",
    "Direccion": "Calle Paseo Irma 601, Haciendas de La Sierra, NL, México",
    "lon": "",
    "lat": "",
    "id": "541a2caf908e69c4ed6fe157"
  },
  {
    "Arbol_id": 11335,
    "Folio": 1,
    "Usuario_id": "usuario1900",
    "Fecha_plantado": "2014-01-21T00:00:00Z",
    "Especie": "Anacahuita",
    "Fecha_registro": "2014-03-05",
    "Municipio": "San Pedro",
    "Direccion": "Calle Paseo Irma 601, Haciendas de La Sierra, NL, México",
    "lon": "",
    "lat": "",
    "id": "541a2caf908e69c4ed6fe158"
  },
  {
    "Arbol_id": 11339,
    "Folio": 0,
    "Usuario_id": "usuario1900",
    "Fecha_plantado": "2014-01-21T00:00:00Z",
    "Especie": "Anacahuita",
    "Fecha_registro": "2014-03-05",
    "Municipio": "San Pedro",
    "Direccion": "Calle Paseo Irma 601, Haciendas de La Sierra, NL, México",
    "lon": "",
    "lat": "",
    "id": "541a2caf908e69c4ed6fe15c"
  },
  {
    "Arbol_id": 11340,
    "Folio": 2,
    "Usuario_id": "usuario1900",
    "Fecha_plantado": "2014-01-21T00:00:00Z",
    "Especie": "Anacahuita",
    "Fecha_registro": "2014-03-05",
    "Municipio": "San Pedro",
    "Direccion": "Calle Paseo Irma 601, Haciendas de La Sierra, NL, México",
    "lon": "",
    "lat": "",
    "id": "541a2caf908e69c4ed6fe15d"
  },
  {
    "Arbol_id": 11661,
    "Folio": 90004,
    "Usuario_id": "usuario1533",
    "Fecha_plantado": "",
    "Especie": "Anacahuita",
    "Fecha_registro": "2014-03-06",
    "Municipio": "San Pedro",
    "Direccion": "Avenida Corregidora Norte 513, Casco Urbano, 66230 NL, México",
    "lon": -100.4032516,
    "lat": 25.6677799,
    "id": "541a2caf908e69c4ed6fe29d"
  },
  {
    "Arbol_id": 11665,
    "Folio": 90006,
    "Usuario_id": "usuario1533",
    "Fecha_plantado": "",
    "Especie": "Anacahuita",
    "Fecha_registro": "2014-03-06",
    "Municipio": "San Pedro",
    "Direccion": "De Los Arizpe 591, Casco Urbano, 66230 NL, México",
    "lon": "",
    "lat": "",
    "id": "541a2caf908e69c4ed6fe2a1"
  },
  {
    "Arbol_id": 11688,
    "Folio": 90008,
    "Usuario_id": "usuario1533",
    "Fecha_plantado": "",
    "Especie": "Anacahuita",
    "Fecha_registro": "2014-03-06",
    "Municipio": "San Pedro",
    "Direccion": "De Los Arizpe 591, Casco Urbano, 66230 NL, México",
    "lon": "",
    "lat": "",
    "id": "541a2caf908e69c4ed6fe2b7"
  },
  {
    "Arbol_id": 11694,
    "Folio": 90010,
    "Usuario_id": "usuario1533",
    "Fecha_plantado": "",
    "Especie": "Anacahuita",
    "Fecha_registro": "2014-03-06",
    "Municipio": "San Pedro",
    "Direccion": "De Los Arizpe 591, Casco Urbano, 66230 NL, México",
    "lon": "",
    "lat": "",
    "id": "541a2caf908e69c4ed6fe2bc"
  },
  {
    "Arbol_id": 11796,
    "Folio": 90019,
    "Usuario_id": "usuario1533",
    "Fecha_plantado": "",
    "Especie": "Anacahuita",
    "Fecha_registro": "2014-03-06",
    "Municipio": "San Pedro",
    "Direccion": "De Los Arizpe 326, Casco Urbano, 66230 NL, México",
    "lon": "",
    "lat": "",
    "id": "541a2caf908e69c4ed6fe322"
  },
  {
    "Arbol_id": 11803,
    "Folio": 90021,
    "Usuario_id": "usuario1533",
    "Fecha_plantado": "",
    "Especie": "Anacahuita",
    "Fecha_registro": "2014-03-06",
    "Municipio": "San Pedro",
    "Direccion": "De Los Arizpe 326D, Casco Urbano, 66230 NL, México",
    "lon": "",
    "lat": "",
    "id": "541a2caf908e69c4ed6fe329"
  },
  {
    "Arbol_id": 11816,
    "Folio": 90022,
    "Usuario_id": "usuario1533",
    "Fecha_plantado": "",
    "Especie": "Anacahuita",
    "Fecha_registro": "2014-03-06",
    "Municipio": "San Pedro",
    "Direccion": "Avenida Corregidora Norte 513, Casco Urbano, 66230 NL, México",
    "lon": -100.4032516,
    "lat": 25.6677799,
    "id": "541a2caf908e69c4ed6fe335"
  },
  {
    "Arbol_id": 12571,
    "Folio": 0,
    "Usuario_id": "usuario2273",
    "Fecha_plantado": "",
    "Especie": "Anacahuita",
    "Fecha_registro": "2014-03-10",
    "Municipio": "Guadalupe",
    "Direccion": "Isaac Newton 650, Contry La Silla 4o Sector, 67173 Guadalupe, NL, México",
    "lon": -100.267128,
    "lat": 25.6317596,
    "id": "541a2caf908e69c4ed6fe61f"
  },
  {
    "Arbol_id": 12576,
    "Folio": 0,
    "Usuario_id": "usuario2273",
    "Fecha_plantado": "",
    "Especie": "Anacahuita",
    "Fecha_registro": "2014-03-10",
    "Municipio": "Guadalupe",
    "Direccion": "Isaac Newton 620, Contry La Silla 1er Sector, 67173 Guadalupe, NL, México",
    "lon": -100.268158,
    "lat": 25.6312008,
    "id": "541a2caf908e69c4ed6fe624"
  },
  {
    "Arbol_id": 12584,
    "Folio": 0,
    "Usuario_id": "usuario2273",
    "Fecha_plantado": "",
    "Especie": "Anacahuita",
    "Fecha_registro": "2014-03-10",
    "Municipio": "Guadalupe",
    "Direccion": "Isaac Newton 620, Contry La Silla 1er Sector, 67173 Guadalupe, NL, México",
    "lon": -100.268158,
    "lat": 25.6312008,
    "id": "541a2caf908e69c4ed6fe62c"
  },
  {
    "Arbol_id": 12670,
    "Folio": 0,
    "Usuario_id": "usuario2273",
    "Fecha_plantado": "",
    "Especie": "Anacahuita",
    "Fecha_registro": "2014-03-11",
    "Municipio": "Guadalupe",
    "Direccion": "Isaac Newton 640, Contry La Silla 4o Sector, 67173 NL, México",
    "lon": -100.2674179,
    "lat": 25.6316109,
    "id": "541a2caf908e69c4ed6fe67f"
  },
  {
    "Arbol_id": 12685,
    "Folio": 0,
    "Usuario_id": "usuario2273",
    "Fecha_plantado": "",
    "Especie": "Anacahuita",
    "Fecha_registro": "2014-03-11",
    "Municipio": "Guadalupe",
    "Direccion": "Isaac Newton 640, Contry La Silla 4o Sector, 67173 NL, México",
    "lon": -100.2674179,
    "lat": 25.6316109,
    "id": "541a2caf908e69c4ed6fe68e"
  },
  {
    "Arbol_id": 12701,
    "Folio": 0,
    "Usuario_id": "usuario2273",
    "Fecha_plantado": "",
    "Especie": "Anacahuita",
    "Fecha_registro": "2014-03-11",
    "Municipio": "Guadalupe",
    "Direccion": "Ortega Y. Gasset 2801, Contry La Silla 4o Sector, 67173 NL, México",
    "lon": -100.2677383,
    "lat": 25.6333294,
    "id": "541a2caf908e69c4ed6fe69e"
  },
  {
    "Arbol_id": 12768,
    "Folio": 0,
    "Usuario_id": "usuario2273",
    "Fecha_plantado": "",
    "Especie": "Anacahuita",
    "Fecha_registro": "2014-03-11",
    "Municipio": "Guadalupe",
    "Direccion": "Isaac Newton 620, Contry La Silla 1er Sector, 67173 Guadalupe, NL, México",
    "lon": -100.268158,
    "lat": 25.6312008,
    "id": "541a2caf908e69c4ed6fe6e1"
  },
  {
    "Arbol_id": 12771,
    "Folio": 0,
    "Usuario_id": "usuario2273",
    "Fecha_plantado": "",
    "Especie": "Anacahuita",
    "Fecha_registro": "2014-03-11",
    "Municipio": "Guadalupe",
    "Direccion": "Isaac Newton 620, Contry La Silla 1er Sector, 67173 Guadalupe, NL, México",
    "lon": -100.268158,
    "lat": 25.6312008,
    "id": "541a2caf908e69c4ed6fe6e4"
  },
  {
    "Arbol_id": 12806,
    "Folio": 0,
    "Usuario_id": "usuario2273",
    "Fecha_plantado": "",
    "Especie": "Anacahuita",
    "Fecha_registro": "2014-03-11",
    "Municipio": "Guadalupe",
    "Direccion": "Isaac Newton 620, Contry La Silla 1er Sector, 67173 Guadalupe, NL, México",
    "lon": -100.268158,
    "lat": 25.6312008,
    "id": "541a2caf908e69c4ed6fe707"
  },
  {
    "Arbol_id": 12810,
    "Folio": 0,
    "Usuario_id": "usuario2273",
    "Fecha_plantado": "",
    "Especie": "Anacahuita",
    "Fecha_registro": "2014-03-11",
    "Municipio": "Guadalupe",
    "Direccion": "Isaac Newton 620, Contry La Silla 1er Sector, 67173 Guadalupe, NL, México",
    "lon": -100.268158,
    "lat": 25.6312008,
    "id": "541a2caf908e69c4ed6fe70b"
  },
  {
    "Arbol_id": 12838,
    "Folio": 0,
    "Usuario_id": "usuario2273",
    "Fecha_plantado": "",
    "Especie": "Anacahuita",
    "Fecha_registro": "2014-03-11",
    "Municipio": "Guadalupe",
    "Direccion": "Eje Metropolitano 31, Contry La Silla 4o Sector, 67173 NL, México",
    "lon": "",
    "lat": "",
    "id": "541a2caf908e69c4ed6fe727"
  },
  {
    "Arbol_id": 12840,
    "Folio": 0,
    "Usuario_id": "usuario2273",
    "Fecha_plantado": "",
    "Especie": "Anacahuita",
    "Fecha_registro": "2014-03-11",
    "Municipio": "Guadalupe",
    "Direccion": "Paseo de las Americas, Contry La Silla 4o Sector, 67173 NL, México",
    "lon": -100.2684631,
    "lat": 25.6352692,
    "id": "541a2caf908e69c4ed6fe729"
  },
  {
    "Arbol_id": 12850,
    "Folio": 0,
    "Usuario_id": "usuario2273",
    "Fecha_plantado": "",
    "Especie": "Anacahuita",
    "Fecha_registro": "2014-03-11",
    "Municipio": "Guadalupe",
    "Direccion": "Isaac Newton 620, Contry La Silla 1er Sector, 67173 Guadalupe, NL, México",
    "lon": -100.268158,
    "lat": 25.6312008,
    "id": "541a2caf908e69c4ed6fe733"
  },
  {
    "Arbol_id": 12913,
    "Folio": 0,
    "Usuario_id": "usuario2273",
    "Fecha_plantado": "",
    "Especie": "Anacahuita",
    "Fecha_registro": "2014-03-12",
    "Municipio": "Guadalupe",
    "Direccion": "Paseo de Los Lirios 3208, Riberas del Río, 67160 NL, México",
    "lon": -100.2211075,
    "lat": 25.6820107,
    "id": "541a2caf908e69c4ed6fe76e"
  },
  {
    "Arbol_id": 13551,
    "Folio": 762,
    "Usuario_id": "usuario2498",
    "Fecha_plantado": "",
    "Especie": "Anacahuita",
    "Fecha_registro": "2014-03-19",
    "Municipio": "San Nicolás",
    "Direccion": "Ojo de Agua 417, Residencial Potrero de Anáhuac, 66635 NL, México",
    "lon": "",
    "lat": "",
    "id": "541a2caf908e69c4ed6fe9e6"
  },
  {
    "Arbol_id": 13622,
    "Folio": 0,
    "Usuario_id": "usuario2273",
    "Fecha_plantado": "",
    "Especie": "Anacahuita",
    "Fecha_registro": "2014-03-19",
    "Municipio": "Guadalupe",
    "Direccion": "Del Río 3011, Riberas del Río, 67160 NL, México",
    "lon": -100.2265091,
    "lat": 25.6797695,
    "id": "541a2caf908e69c4ed6fea2d"
  },
  {
    "Arbol_id": 13703,
    "Folio": 0,
    "Usuario_id": "usuario2273",
    "Fecha_plantado": "",
    "Especie": "Anacahuita",
    "Fecha_registro": "2014-03-19",
    "Municipio": "Guadalupe",
    "Direccion": "Veneros 3223, Riberas del Río, 67160 NL, México",
    "lon": -100.2204437,
    "lat": 25.6835194,
    "id": "541a2caf908e69c4ed6fea7e"
  },
  {
    "Arbol_id": 13728,
    "Folio": 35,
    "Usuario_id": "usuario1083",
    "Fecha_plantado": "",
    "Especie": "Anacahuita",
    "Fecha_registro": "2014-03-19",
    "Municipio": "Monterrey",
    "Direccion": "Calle Paseo del Agua 4428, Villa Las Fuentes, 64890 Monterrey, NL, México",
    "lon": -100.2663193,
    "lat": 25.6101799,
    "id": "541a2caf908e69c4ed6fea95"
  },
  {
    "Arbol_id": 13823,
    "Folio": 0,
    "Usuario_id": "usuario2273",
    "Fecha_plantado": "",
    "Especie": "Anacahuita",
    "Fecha_registro": "2014-03-20",
    "Municipio": "Guadalupe",
    "Direccion": "Ortega Y. Gasset 2831, Contry La Silla 4o Sector, 67173 NL, México",
    "lon": -100.2676163,
    "lat": 25.6330891,
    "id": "541a2caf908e69c4ed6feaf4"
  },
  {
    "Arbol_id": 14123,
    "Folio": 0,
    "Usuario_id": "usuario2273",
    "Fecha_plantado": "",
    "Especie": "Anacahuita",
    "Fecha_registro": "2014-03-21",
    "Municipio": "Guadalupe",
    "Direccion": "Torrente 3135, Riberas del Río, 67160 NL, México",
    "lon": -100.222023,
    "lat": 25.6836491,
    "id": "541a2caf908e69c4ed6fec1e"
  },
  {
    "Arbol_id": 14401,
    "Folio": 707,
    "Usuario_id": "usuario958",
    "Fecha_plantado": "",
    "Especie": "Anacahuita",
    "Fecha_registro": "2014-03-24",
    "Municipio": "San Nicolás",
    "Direccion": "Ojo de Agua 601, Residencial Nova, 66464 Monterrey, NL, México",
    "lon": -100.2926025,
    "lat": 25.737009,
    "id": "541a2caf908e69c4ed6fed2e"
  },
  {
    "Arbol_id": 14403,
    "Folio": 709,
    "Usuario_id": "usuario958",
    "Fecha_plantado": "",
    "Especie": "Anacahuita",
    "Fecha_registro": "2014-03-24",
    "Municipio": "San Nicolás",
    "Direccion": "Ojo de Agua SN-S GRAN PARQUE SAN NICOLAS, Sin Nombre de Colonia 2, NL, México",
    "lon": -99.2449722,
    "lat": 19.2828293,
    "id": "541a2caf908e69c4ed6fed30"
  },
  {
    "Arbol_id": 14607,
    "Folio": 0,
    "Usuario_id": "usuario1599",
    "Fecha_plantado": "",
    "Especie": "Anacahuita",
    "Fecha_registro": "2014-03-25",
    "Municipio": "San Nicolás",
    "Direccion": "Nardo 302, Torres de Santo Domingo, 66440 NL, México",
    "lon": -100.2542725,
    "lat": 25.7400398,
    "id": "541a2caf908e69c4ed6fedfa"
  },
  {
    "Arbol_id": 14854,
    "Folio": 0,
    "Usuario_id": "usuario1599",
    "Fecha_plantado": "",
    "Especie": "Anacahuita",
    "Fecha_registro": "2014-03-26",
    "Municipio": "San Nicolás",
    "Direccion": "Ladrillera 402, Nuevo Mezquital, 66440 NL, México",
    "lon": -100.2543716,
    "lat": 25.7374897,
    "id": "541a2cb0908e69c4ed6feee3"
  },
  {
    "Arbol_id": 14976,
    "Folio": 0,
    "Usuario_id": "usuario1599",
    "Fecha_plantado": "",
    "Especie": "Anacahuita",
    "Fecha_registro": "2014-03-27",
    "Municipio": "San Nicolás",
    "Direccion": "Ladrillera 414, Nuevo Mezquital, 66440 NL, México",
    "lon": -100.2543716,
    "lat": 25.7374897,
    "id": "541a2cb0908e69c4ed6fef5d"
  },
  {
    "Arbol_id": 15168,
    "Folio": 0,
    "Usuario_id": "usuario2273",
    "Fecha_plantado": "",
    "Especie": "Anacahuita",
    "Fecha_registro": "2014-03-27",
    "Municipio": "Guadalupe",
    "Direccion": "Manuel Kant 2811, Contry La Silla 4o Sector, 67173 Guadalupe, NL, México",
    "lon": "",
    "lat": "",
    "id": "541a2cb0908e69c4ed6ff016"
  },
  {
    "Arbol_id": 15410,
    "Folio": 0,
    "Usuario_id": "usuario1599",
    "Fecha_plantado": "",
    "Especie": "Anacahuita",
    "Fecha_registro": "2014-03-31",
    "Municipio": "San Nicolás",
    "Direccion": "Laguna de Bustillos 711, Del Lago, 66477 NL, México",
    "lon": "",
    "lat": "",
    "id": "541a2cb0908e69c4ed6ff0f9"
  },
  {
    "Arbol_id": 15444,
    "Folio": 0,
    "Usuario_id": "usuario1599",
    "Fecha_plantado": "",
    "Especie": "Anacahuita",
    "Fecha_registro": "2014-03-31",
    "Municipio": "San Nicolás",
    "Direccion": "Laguna de Coatetelco 205, Del Lago, 66477 NL, México",
    "lon": "",
    "lat": "",
    "id": "541a2cb0908e69c4ed6ff11b"
  },
  {
    "Arbol_id": 15468,
    "Folio": 0,
    "Usuario_id": "usuario2273",
    "Fecha_plantado": "",
    "Especie": "Anacahuita",
    "Fecha_registro": "2014-03-31",
    "Municipio": "Guadalupe",
    "Direccion": "Escritores Mexicanos 2323, Contry La Silla 8o Sector, 67173 NL, México",
    "lon": -100.2659073,
    "lat": 25.6485596,
    "id": "541a2cb0908e69c4ed6ff133"
  },
  {
    "Arbol_id": 15469,
    "Folio": 0,
    "Usuario_id": "usuario2273",
    "Fecha_plantado": "",
    "Especie": "Anacahuita",
    "Fecha_registro": "2014-03-31",
    "Municipio": "Guadalupe",
    "Direccion": "Escritores Mexicanos 2323, Contry La Silla 8o Sector, 67173 NL, México",
    "lon": -100.2659073,
    "lat": 25.6485596,
    "id": "541a2cb0908e69c4ed6ff134"
  },
  {
    "Arbol_id": 15534,
    "Folio": 0,
    "Usuario_id": "usuario2273",
    "Fecha_plantado": "",
    "Especie": "Anacahuita",
    "Fecha_registro": "2014-04-01",
    "Municipio": "Guadalupe",
    "Direccion": "Albert Einstein 2860, Contry La Silla 4o Sector, 67173 NL, México",
    "lon": -100.26651,
    "lat": 25.6326008,
    "id": "541a2cb0908e69c4ed6ff174"
  },
  {
    "Arbol_id": 15874,
    "Folio": 883,
    "Usuario_id": "usuario845",
    "Fecha_plantado": "2014-04-02T00:00:00Z",
    "Especie": "Anacahuita",
    "Fecha_registro": "2014-04-02",
    "Municipio": "Juárez",
    "Direccion": "Av. Hda Molino de las Flores, Jardines de La Silla, NL, México",
    "lon": "",
    "lat": "",
    "id": "541a2cb0908e69c4ed6ff2c8"
  },
  {
    "Arbol_id": 15876,
    "Folio": 884,
    "Usuario_id": "usuario819",
    "Fecha_plantado": "",
    "Especie": "Anacahuita",
    "Fecha_registro": "2014-04-02",
    "Municipio": "Juárez",
    "Direccion": "Av. Hda Molino de las Flores, Jardines de La Silla, NL, México",
    "lon": "",
    "lat": "",
    "id": "541a2cb0908e69c4ed6ff2ca"
  },
  {
    "Arbol_id": 15882,
    "Folio": 888,
    "Usuario_id": "usuario819",
    "Fecha_plantado": "",
    "Especie": "Anacahuita",
    "Fecha_registro": "2014-04-02",
    "Municipio": "Juárez",
    "Direccion": "Av. Hda Molino de las Flores, Jardines de La Silla, NL, México",
    "lon": "",
    "lat": "",
    "id": "541a2cb0908e69c4ed6ff2d0"
  },
  {
    "Arbol_id": 15883,
    "Folio": 889,
    "Usuario_id": "usuario819",
    "Fecha_plantado": "",
    "Especie": "Anacahuita",
    "Fecha_registro": "2014-04-02",
    "Municipio": "Juárez",
    "Direccion": "Av. Hda Molino de las Flores, Jardines de La Silla, NL, México",
    "lon": "",
    "lat": "",
    "id": "541a2cb0908e69c4ed6ff2d1"
  },
  {
    "Arbol_id": 17096,
    "Folio": 0,
    "Usuario_id": "usuario1202",
    "Fecha_plantado": "",
    "Especie": "Anacahuita",
    "Fecha_registro": "2014-04-08",
    "Municipio": "Santa Catarina",
    "Direccion": "Avenida Manuel Ordoñez 707A-S, Sin Nombre de Colonia 18, NL, México",
    "lon": "",
    "lat": "",
    "id": "541a2cb0908e69c4ed6ff765"
  },
  {
    "Arbol_id": 17170,
    "Folio": 0,
    "Usuario_id": "usuario2273",
    "Fecha_plantado": "",
    "Especie": "Anacahuita",
    "Fecha_registro": "2014-04-09",
    "Municipio": "Guadalupe",
    "Direccion": "Dique 3104, Riberas del Río, 67160 NL, México",
    "lon": -100.22332,
    "lat": 25.6830902,
    "id": "541a2cb0908e69c4ed6ff7af"
  },
  {
    "Arbol_id": 17809,
    "Folio": 0,
    "Usuario_id": "usuario2273",
    "Fecha_plantado": "",
    "Especie": "Anacahuita",
    "Fecha_registro": "2014-04-10",
    "Municipio": "Guadalupe",
    "Direccion": "Costa, Riberas del Río, 67160 NL, México",
    "lon": -100.2168121,
    "lat": 25.6823292,
    "id": "541a2cb0908e69c4ed6ffa17"
  },
  {
    "Arbol_id": 18896,
    "Folio": 0,
    "Usuario_id": "usuario1599",
    "Fecha_plantado": "2014-04-07T00:00:00Z",
    "Especie": "Anacahuita",
    "Fecha_registro": "2014-04-16",
    "Municipio": "San Nicolás",
    "Direccion": "Grandes Lagos 1200-1201, Fresnos del Lago 2o Sector, 66478 NL, México",
    "lon": -100.2190323,
    "lat": 25.7328892,
    "id": "541a2cb1908e69c4ed6ffe1d"
  },
  {
    "Arbol_id": 18911,
    "Folio": 0,
    "Usuario_id": "usuario2500",
    "Fecha_plantado": "2014-03-14T00:00:00Z",
    "Especie": "Anacahuita",
    "Fecha_registro": "2014-04-17",
    "Municipio": "San Nicolás",
    "Direccion": "Las Torres 436, Nuevo Periférico Norte Sección 3, 66423 Nuevo Leon, Mexico",
    "lon": -100.3058014,
    "lat": 25.752718,
    "id": "541a2cb1908e69c4ed6ffe2c"
  },
  {
    "Arbol_id": 18912,
    "Folio": 0,
    "Usuario_id": "usuario2500",
    "Fecha_plantado": "2014-03-14T00:00:00Z",
    "Especie": "Anacahuita",
    "Fecha_registro": "2014-04-17",
    "Municipio": "San Nicolás",
    "Direccion": "Calle Benito Juárez 505, Cerrada del Roble, Nuevo Leon, Mexico",
    "lon": -100.1698227,
    "lat": 25.6233406,
    "id": "541a2cb1908e69c4ed6ffe2d"
  },
  {
    "Arbol_id": 18913,
    "Folio": 0,
    "Usuario_id": "usuario2500",
    "Fecha_plantado": "2014-03-18T00:00:00Z",
    "Especie": "Anacahuita",
    "Fecha_registro": "2014-04-17",
    "Municipio": "San Nicolás",
    "Direccion": "Las Torres 444, Iturbide, 66420 Nuevo Leon, Mexico",
    "lon": -100.3048096,
    "lat": 25.7544003,
    "id": "541a2cb1908e69c4ed6ffe2e"
  },
  {
    "Arbol_id": 18918,
    "Folio": 0,
    "Usuario_id": "usuario1599",
    "Fecha_plantado": "2014-04-07T00:00:00Z",
    "Especie": "Anacahuita",
    "Fecha_registro": "2014-04-17",
    "Municipio": "San Nicolás",
    "Direccion": "Grandes Lagos 1200-1201, Fresnos del Lago 2o Sector, 66478 NL, México",
    "lon": -100.2190323,
    "lat": 25.7328892,
    "id": "541a2cb1908e69c4ed6ffe33"
  },
  {
    "Arbol_id": 18933,
    "Folio": 0,
    "Usuario_id": "usuario1599",
    "Fecha_plantado": "2014-04-07T00:00:00Z",
    "Especie": "Anacahuita",
    "Fecha_registro": "2014-04-17",
    "Municipio": "San Nicolás",
    "Direccion": "Grandes Lagos 1200-1201, Fresnos del Lago 2o Sector, 66478 NL, México",
    "lon": -100.2190323,
    "lat": 25.7328892,
    "id": "541a2cb1908e69c4ed6ffe42"
  },
  {
    "Arbol_id": 18952,
    "Folio": 0,
    "Usuario_id": "usuario1599",
    "Fecha_plantado": "2014-04-07T00:00:00Z",
    "Especie": "Anacahuita",
    "Fecha_registro": "2014-04-17",
    "Municipio": "San Nicolás",
    "Direccion": "Grandes Lagos 1200-1201, Fresnos del Lago 2o Sector, 66478 NL, México",
    "lon": -100.2190323,
    "lat": 25.7328892,
    "id": "541a2cb1908e69c4ed6ffe55"
  },
  {
    "Arbol_id": 18974,
    "Folio": 0,
    "Usuario_id": "usuario1599",
    "Fecha_plantado": "2014-04-07T00:00:00Z",
    "Especie": "Anacahuita",
    "Fecha_registro": "2014-04-17",
    "Municipio": "San Nicolás",
    "Direccion": "Grandes Lagos 1200-1201, Fresnos del Lago 2o Sector, 66478 NL, México",
    "lon": -100.2190323,
    "lat": 25.7328892,
    "id": "541a2cb1908e69c4ed6ffe6b"
  },
  {
    "Arbol_id": 19021,
    "Folio": 0,
    "Usuario_id": "usuario1599",
    "Fecha_plantado": "2014-04-07T00:00:00Z",
    "Especie": "Anacahuita",
    "Fecha_registro": "2014-04-18",
    "Municipio": "San Nicolás",
    "Direccion": "Grandes Lagos 1200-1201, Fresnos del Lago 2o Sector, 66478 NL, México",
    "lon": -100.2190323,
    "lat": 25.7328892,
    "id": "541a2cb1908e69c4ed6ffe99"
  },
  {
    "Arbol_id": 19029,
    "Folio": 0,
    "Usuario_id": "usuario1599",
    "Fecha_plantado": "",
    "Especie": "Anacahuita",
    "Fecha_registro": "2014-04-18",
    "Municipio": "San Nicolás",
    "Direccion": "Grandes Lagos 1200, Fresnos del Lago 2o Sector, 66478 NL, México",
    "lon": -100.2190323,
    "lat": 25.7328892,
    "id": "541a2cb1908e69c4ed6ffea1"
  },
  {
    "Arbol_id": 19031,
    "Folio": 0,
    "Usuario_id": "usuario1599",
    "Fecha_plantado": "2014-04-07T00:00:00Z",
    "Especie": "Anacahuita",
    "Fecha_registro": "2014-04-18",
    "Municipio": "San Nicolás",
    "Direccion": "Grandes Lagos 1201, Fresnos del Lago 2o Sector, 66478 NL, México",
    "lon": -100.2190323,
    "lat": 25.7328892,
    "id": "541a2cb1908e69c4ed6ffea3"
  },
  {
    "Arbol_id": 19158,
    "Folio": 0,
    "Usuario_id": "usuario1599",
    "Fecha_plantado": "2014-04-07T00:00:00Z",
    "Especie": "Anacahuita",
    "Fecha_registro": "2014-04-20",
    "Municipio": "San Nicolás",
    "Direccion": "Grandes Lagos 1200, Fresnos del Lago 2o Sector, 66478 NL, México",
    "lon": -100.2190323,
    "lat": 25.7328892,
    "id": "541a2cb1908e69c4ed6fff1b"
  },
  {
    "Arbol_id": 20099,
    "Folio": 0,
    "Usuario_id": "usuario2248",
    "Fecha_plantado": "",
    "Especie": "Anacahuita",
    "Fecha_registro": "2014-04-27",
    "Municipio": "Escobedo",
    "Direccion": "De Las Mitras 226, Riveras de Girasoles, 66056 Escobedo, NL, México",
    "lon": -100.3178177,
    "lat": 25.7868805,
    "id": "541a2cb1908e69c4ed7002c0"
  },
  {
    "Arbol_id": 20146,
    "Folio": 52,
    "Usuario_id": "usuario1330",
    "Fecha_plantado": "",
    "Especie": "Anacahuita",
    "Fecha_registro": "2014-04-27",
    "Municipio": "Monterrey",
    "Direccion": "Paseo de Los Conquistadores 704, Cumbres 3o. Sector, 64610 Monterrey, NL, México",
    "lon": -100.3821335,
    "lat": 25.7150497,
    "id": "541a2cb1908e69c4ed7002ed"
  },
  {
    "Arbol_id": 20147,
    "Folio": 53,
    "Usuario_id": "usuario1330",
    "Fecha_plantado": "",
    "Especie": "Anacahuita",
    "Fecha_registro": "2014-04-27",
    "Municipio": "Monterrey",
    "Direccion": "Paseo de Los Conquistadores 704, Cumbres 3o. Sector, 64610 Monterrey, NL, México",
    "lon": -100.3821335,
    "lat": 25.7150497,
    "id": "541a2cb1908e69c4ed7002ee"
  },
  {
    "Arbol_id": 20148,
    "Folio": 54,
    "Usuario_id": "usuario1330",
    "Fecha_plantado": "",
    "Especie": "Anacahuita",
    "Fecha_registro": "2014-04-27",
    "Municipio": "Monterrey",
    "Direccion": "Paseo de Los Conquistadores 704, Cumbres 3o. Sector, 64610 Monterrey, NL, México",
    "lon": -100.3821335,
    "lat": 25.7150497,
    "id": "541a2cb1908e69c4ed7002ef"
  },
  {
    "Arbol_id": 20152,
    "Folio": 58,
    "Usuario_id": "usuario1330",
    "Fecha_plantado": "",
    "Especie": "Anacahuita",
    "Fecha_registro": "2014-04-27",
    "Municipio": "Monterrey",
    "Direccion": "Paseo de Los Conquistadores 704, Cumbres 3o. Sector, 64610 Monterrey, NL, México",
    "lon": -100.3821335,
    "lat": 25.7150497,
    "id": "541a2cb1908e69c4ed7002f3"
  },
  {
    "Arbol_id": 20153,
    "Folio": 59,
    "Usuario_id": "usuario1330",
    "Fecha_plantado": "",
    "Especie": "Anacahuita",
    "Fecha_registro": "2014-04-27",
    "Municipio": "Monterrey",
    "Direccion": "Paseo de Los Conquistadores 704, Cumbres 3o. Sector, 64610 Monterrey, NL, México",
    "lon": -100.3821335,
    "lat": 25.7150497,
    "id": "541a2cb1908e69c4ed7002f4"
  },
  {
    "Arbol_id": 20558,
    "Folio": 0,
    "Usuario_id": "usuario2273",
    "Fecha_plantado": "",
    "Especie": "Anacahuita",
    "Fecha_registro": "2014-04-29",
    "Municipio": "Guadalupe",
    "Direccion": "Arroyo 3004, Riberas del Río, 67160 NL, México",
    "lon": -100.2260971,
    "lat": 25.6834393,
    "id": "541a2cb1908e69c4ed700489"
  },
  {
    "Arbol_id": 20644,
    "Folio": 0,
    "Usuario_id": "usuario1599",
    "Fecha_plantado": "2014-04-25T00:00:00Z",
    "Especie": "Anacahuita",
    "Fecha_registro": "2014-04-29",
    "Municipio": "San Nicolás",
    "Direccion": "Titan 118, Cuauhtémoc, Cuahutémoc, 66450 Monterrey, NL, México",
    "lon": -100.3183899,
    "lat": 25.6768665,
    "id": "541a2cb1908e69c4ed7004df"
  },
  {
    "Arbol_id": 22130,
    "Folio": 0,
    "Usuario_id": "usuario2273",
    "Fecha_plantado": "",
    "Especie": "Anacahuita",
    "Fecha_registro": "2014-05-06",
    "Municipio": "Guadalupe",
    "Direccion": "14 de Abril 322, Valle Hermoso 1er Sector, 67160 NL, México",
    "lon": -100.220871,
    "lat": 25.6845894,
    "id": "541a2cb2908e69c4ed700aa3"
  },
  {
    "Arbol_id": 22176,
    "Folio": 1410,
    "Usuario_id": "usuario845",
    "Fecha_plantado": "",
    "Especie": "Anacahuita",
    "Fecha_registro": "2014-05-07",
    "Municipio": "Juárez",
    "Direccion": "Avenida Pablo Livas, NL, México",
    "lon": -100.2206116,
    "lat": 25.6667404,
    "id": "541a2cb2908e69c4ed700ad1"
  },
  {
    "Arbol_id": 22451,
    "Folio": 0,
    "Usuario_id": "usuario2273",
    "Fecha_plantado": "",
    "Especie": "Anacahuita",
    "Fecha_registro": "2014-05-07",
    "Municipio": "Guadalupe",
    "Direccion": "15 de Mayo 327, Valle Hermoso 1er Sector, 67160 NL, México",
    "lon": -100.2209625,
    "lat": 25.6851101,
    "id": "541a2cb2908e69c4ed700be4"
  },
  {
    "Arbol_id": 22643,
    "Folio": 0,
    "Usuario_id": "usuario2248",
    "Fecha_plantado": "",
    "Especie": "Anacahuita",
    "Fecha_registro": "2014-05-07",
    "Municipio": "Escobedo",
    "Direccion": "Hda. de Carrizalejo 224, Hacienda de Anáhuac, 66055 Escobedo, NL, México",
    "lon": -100.3150101,
    "lat": 25.7675705,
    "id": "541a2cb2908e69c4ed700ca4"
  },
  {
    "Arbol_id": 22666,
    "Folio": 0,
    "Usuario_id": "usuario2248",
    "Fecha_plantado": "",
    "Especie": "Anacahuita",
    "Fecha_registro": "2014-05-07",
    "Municipio": "Escobedo",
    "Direccion": "Hda. de Carrizalejo 224, Hacienda de Anáhuac, 66055 Escobedo, NL, México",
    "lon": -100.3150101,
    "lat": 25.7675705,
    "id": "541a2cb2908e69c4ed700cbb"
  },
  {
    "Arbol_id": 22668,
    "Folio": 0,
    "Usuario_id": "usuario2248",
    "Fecha_plantado": "",
    "Especie": "Anacahuita",
    "Fecha_registro": "2014-05-07",
    "Municipio": "Escobedo",
    "Direccion": "Avenida Los Pinos SN-O BODEGA, Sin Nombre de Colonia 21, Escobedo, NL, México",
    "lon": -106.4205093,
    "lat": 23.2090397,
    "id": "541a2cb2908e69c4ed700cbd"
  },
  {
    "Arbol_id": 23250,
    "Folio": 0,
    "Usuario_id": "usuario2536",
    "Fecha_plantado": "",
    "Especie": "Anacahuita",
    "Fecha_registro": "2014-05-11",
    "Municipio": "Santa Catarina",
    "Direccion": "Perimetral Ote., Mártires de Cananea, 66365 NL, México",
    "lon": -100.4428406,
    "lat": 25.6888409,
    "id": "541a2cb2908e69c4ed700f03"
  },
  {
    "Arbol_id": 23254,
    "Folio": 0,
    "Usuario_id": "usuario2536",
    "Fecha_plantado": "",
    "Especie": "Anacahuita",
    "Fecha_registro": "2014-05-11",
    "Municipio": "Santa Catarina",
    "Direccion": "Perimetral Ote., Mártires de Cananea, 66365 NL, México",
    "lon": -100.4428406,
    "lat": 25.6888409,
    "id": "541a2cb2908e69c4ed700f07"
  },
  {
    "Arbol_id": 23290,
    "Folio": 0,
    "Usuario_id": "usuario1035",
    "Fecha_plantado": "",
    "Especie": "Anacahuita",
    "Fecha_registro": "2014-05-11",
    "Municipio": "Monterrey",
    "Direccion": "Calderón 205, Chepevera, 64030 Monterrey, NL, México",
    "lon": -100.3408203,
    "lat": 25.6800938,
    "id": "541a2cb2908e69c4ed700f2b"
  },
  {
    "Arbol_id": 23325,
    "Folio": 1,
    "Usuario_id": "usuario2840",
    "Fecha_plantado": "2014-05-09T00:00:00Z",
    "Especie": "Anacahuita",
    "Fecha_registro": "2014-05-12",
    "Municipio": "San Nicolás",
    "Direccion": "Calle Libertad de Expresión, Constituyentes de Querétaro 4o Sector, 66490 NL, México",
    "lon": -100.2654419,
    "lat": 25.7122402,
    "id": "541a2cb2908e69c4ed700f4e"
  },
  {
    "Arbol_id": 23364,
    "Folio": 3,
    "Usuario_id": "usuario2840",
    "Fecha_plantado": "2014-05-09T00:00:00Z",
    "Especie": "Anacahuita",
    "Fecha_registro": "2014-05-12",
    "Municipio": "San Nicolás",
    "Direccion": "Calle Libertad de Expresión, Constituyentes de Querétaro 4o Sector, 66490 NL, México",
    "lon": -100.2654419,
    "lat": 25.7122402,
    "id": "541a2cb2908e69c4ed700f75"
  },
  {
    "Arbol_id": 23494,
    "Folio": 0,
    "Usuario_id": "usuario2273",
    "Fecha_plantado": "",
    "Especie": "Anacahuita",
    "Fecha_registro": "2014-05-12",
    "Municipio": "Guadalupe",
    "Direccion": "1o. de Diciembre 140, Veintiuno de Enero, 67160 NL, México",
    "lon": -100.2166672,
    "lat": 25.6861591,
    "id": "541a2cb2908e69c4ed700ff7"
  },
  {
    "Arbol_id": 23687,
    "Folio": 0,
    "Usuario_id": "usuario2273",
    "Fecha_plantado": "",
    "Especie": "Anacahuita",
    "Fecha_registro": "2014-05-13",
    "Municipio": "Guadalupe",
    "Direccion": "2 de Abril 306, Sin Nombre de Colonia 19, NL, México",
    "lon": "",
    "lat": "",
    "id": "541a2cb2908e69c4ed7010b8"
  },
  {
    "Arbol_id": 23703,
    "Folio": 0,
    "Usuario_id": "usuario2273",
    "Fecha_plantado": "",
    "Especie": "Anacahuita",
    "Fecha_registro": "2014-05-13",
    "Municipio": "Guadalupe",
    "Direccion": "5 de Enero 340, Sin Nombre de Colonia 19, NL, México",
    "lon": "",
    "lat": "",
    "id": "541a2cb2908e69c4ed7010c8"
  },
  {
    "Arbol_id": 23726,
    "Folio": 0,
    "Usuario_id": "usuario2840",
    "Fecha_plantado": "2014-05-05T00:00:00Z",
    "Especie": "Anacahuita",
    "Fecha_registro": "2014-05-13",
    "Municipio": "San Nicolás",
    "Direccion": "El Mezquite 418, Residencial Los Mezquites, 66499 NL, México",
    "lon": "",
    "lat": "",
    "id": "541a2cb2908e69c4ed7010df"
  },
  {
    "Arbol_id": 23736,
    "Folio": 3,
    "Usuario_id": "usuario2840",
    "Fecha_plantado": "2014-05-05T00:00:00Z",
    "Especie": "Anacahuita",
    "Fecha_registro": "2014-05-13",
    "Municipio": "San Nicolás",
    "Direccion": "El Mezquite 410, Residencial Los Mezquites, 66499 NL, México",
    "lon": -100.2554779,
    "lat": 25.7242298,
    "id": "541a2cb2908e69c4ed7010e9"
  },
  {
    "Arbol_id": 23844,
    "Folio": 5,
    "Usuario_id": "usuario2840",
    "Fecha_plantado": "2014-05-08T00:00:00Z",
    "Especie": "Anacahuita",
    "Fecha_registro": "2014-05-14",
    "Municipio": "San Nicolás",
    "Direccion": "Calle 25 717, Residencial Las Puentes, 66460 NL, México",
    "lon": -100.2825928,
    "lat": 25.73209,
    "id": "541a2cb2908e69c4ed701152"
  },
  {
    "Arbol_id": 23860,
    "Folio": 3,
    "Usuario_id": "usuario2840",
    "Fecha_plantado": "2014-05-06T00:00:00Z",
    "Especie": "Anacahuita",
    "Fecha_registro": "2014-05-14",
    "Municipio": "San Nicolás",
    "Direccion": "Río Conchos 414, Riberas de Las Puentes, 66465 NL, México",
    "lon": -100.2842178,
    "lat": 25.7375603,
    "id": "541a2cb2908e69c4ed701162"
  },
  {
    "Arbol_id": 23862,
    "Folio": 4,
    "Usuario_id": "usuario2840",
    "Fecha_plantado": "2014-05-06T00:00:00Z",
    "Especie": "Anacahuita",
    "Fecha_registro": "2014-05-14",
    "Municipio": "San Nicolás",
    "Direccion": "Río Conchos 410, Riberas de Las Puentes, 66465 NL, México",
    "lon": -100.2843781,
    "lat": 25.7376003,
    "id": "541a2cb2908e69c4ed701164"
  },
  {
    "Arbol_id": 24405,
    "Folio": 487,
    "Usuario_id": "usuario767",
    "Fecha_plantado": "",
    "Especie": "Anacahuita",
    "Fecha_registro": "2014-05-15",
    "Municipio": "Monterrey",
    "Direccion": "Carlos Osuna 200A, Alta Vista, 64840 Monterrey, NL, México",
    "lon": -100.2872543,
    "lat": 25.6490574,
    "id": "541a2cb2908e69c4ed70137e"
  },
  {
    "Arbol_id": 24764,
    "Folio": 0,
    "Usuario_id": "usuario2248",
    "Fecha_plantado": "",
    "Especie": "Anacahuita",
    "Fecha_registro": "2014-05-16",
    "Municipio": "Escobedo",
    "Direccion": "Avenida Jardines del Canadá, Jardines del Canadá, 66050 Escobedo, NL, México",
    "lon": -100.3079529,
    "lat": 25.7988491,
    "id": "541a2cb2908e69c4ed7014dd"
  },
  {
    "Arbol_id": 25262,
    "Folio": 0,
    "Usuario_id": "usuario2273",
    "Fecha_plantado": "",
    "Especie": "Anacahuita",
    "Fecha_registro": "2014-05-20",
    "Municipio": "Guadalupe",
    "Direccion": "Los Sabinos 550, El Sabino, 67150 NL, México",
    "lon": -100.2318268,
    "lat": 25.6815491,
    "id": "541a2cb2908e69c4ed7016ca"
  },
  {
    "Arbol_id": 25478,
    "Folio": 1746,
    "Usuario_id": "usuario845",
    "Fecha_plantado": "2014-05-20T00:00:00Z",
    "Especie": "Anacahuita",
    "Fecha_registro": "2014-05-20",
    "Municipio": "Juárez",
    "Direccion": "Fresno 252, Quinta Las Sabinas, 67250 Ciudad Benito Juárez, NL, México",
    "lon": -100.125267,
    "lat": 25.6611404,
    "id": "541a2cb2908e69c4ed7017a2"
  },
  {
    "Arbol_id": 25870,
    "Folio": 0,
    "Usuario_id": "usuario2273",
    "Fecha_plantado": "",
    "Especie": "Anacahuita",
    "Fecha_registro": "2014-05-21",
    "Municipio": "Guadalupe",
    "Direccion": "José María Zaragoza 121, Ignacio Zaragoza, 67160 NL, México",
    "lon": -100.230957,
    "lat": 25.6849499,
    "id": "541a2cb3908e69c4ed701926"
  },
  {
    "Arbol_id": 26248,
    "Folio": 0,
    "Usuario_id": "usuario2273",
    "Fecha_plantado": "",
    "Especie": "Anacahuita",
    "Fecha_registro": "2014-05-22",
    "Municipio": "Guadalupe",
    "Direccion": "Cheyene 505, Azteca, 67150 NL, México",
    "lon": -100.2351608,
    "lat": 25.6852398,
    "id": "541a2cb3908e69c4ed701a9d"
  },
  {
    "Arbol_id": 26484,
    "Folio": 0,
    "Usuario_id": "usuario2273",
    "Fecha_plantado": "",
    "Especie": "Anacahuita",
    "Fecha_registro": "2014-05-23",
    "Municipio": "Guadalupe",
    "Direccion": "Calle Chamula 562, Residencial Azteca, 67150 NL, México",
    "lon": -100.234436,
    "lat": 25.6854744,
    "id": "541a2cb3908e69c4ed701b82"
  },
  {
    "Arbol_id": 27109,
    "Folio": 470,
    "Usuario_id": "usuario456",
    "Fecha_plantado": "2014-05-23T00:00:00Z",
    "Especie": "Anacahuita",
    "Fecha_registro": "2014-05-27",
    "Municipio": "García",
    "Direccion": "Tanzanita, NL, México",
    "lon": -100.2051392,
    "lat": 25.7971592,
    "id": "541a2cb3908e69c4ed701dd0"
  },
  {
    "Arbol_id": 27113,
    "Folio": 471,
    "Usuario_id": "usuario456",
    "Fecha_plantado": "2014-05-23T00:00:00Z",
    "Especie": "Anacahuita",
    "Fecha_registro": "2014-05-27",
    "Municipio": "García",
    "Direccion": "Tanzanita, NL, México",
    "lon": -100.2051392,
    "lat": 25.7971592,
    "id": "541a2cb3908e69c4ed701dd3"
  },
  {
    "Arbol_id": 27115,
    "Folio": 472,
    "Usuario_id": "usuario456",
    "Fecha_plantado": "2014-05-23T00:00:00Z",
    "Especie": "Anacahuita",
    "Fecha_registro": "2014-05-27",
    "Municipio": "García",
    "Direccion": "Tanzanita, NL, México",
    "lon": -100.2051392,
    "lat": 25.7971592,
    "id": "541a2cb3908e69c4ed701dd4"
  },
  {
    "Arbol_id": 27116,
    "Folio": 473,
    "Usuario_id": "usuario456",
    "Fecha_plantado": "2014-05-26T00:00:00Z",
    "Especie": "Anacahuita",
    "Fecha_registro": "2014-05-27",
    "Municipio": "García",
    "Direccion": "Tanzanita, NL, México",
    "lon": -100.2051392,
    "lat": 25.7971592,
    "id": "541a2cb3908e69c4ed701dd5"
  },
  {
    "Arbol_id": 27121,
    "Folio": 475,
    "Usuario_id": "usuario456",
    "Fecha_plantado": "2014-05-26T00:00:00Z",
    "Especie": "Anacahuita",
    "Fecha_registro": "2014-05-27",
    "Municipio": "",
    "Direccion": "Tanzanita, NL, México",
    "lon": -100.2051392,
    "lat": 25.7971592,
    "id": "541a2cb3908e69c4ed701dd9"
  },
  {
    "Arbol_id": 27123,
    "Folio": 476,
    "Usuario_id": "usuario456",
    "Fecha_plantado": "2014-05-26T00:00:00Z",
    "Especie": "Anacahuita",
    "Fecha_registro": "2014-05-27",
    "Municipio": "",
    "Direccion": "Tanzanita, NL, México",
    "lon": -100.2051392,
    "lat": 25.7971592,
    "id": "541a2cb3908e69c4ed701ddb"
  },
  {
    "Arbol_id": 27125,
    "Folio": 477,
    "Usuario_id": "usuario456",
    "Fecha_plantado": "",
    "Especie": "Anacahuita",
    "Fecha_registro": "2014-05-27",
    "Municipio": "García",
    "Direccion": "Diamante, NL, México",
    "lon": -99.1175537,
    "lat": 19.4755802,
    "id": "541a2cb3908e69c4ed701ddd"
  },
  {
    "Arbol_id": 27129,
    "Folio": 748,
    "Usuario_id": "usuario456",
    "Fecha_plantado": "2014-05-26T00:00:00Z",
    "Especie": "Anacahuita",
    "Fecha_registro": "2014-05-27",
    "Municipio": "",
    "Direccion": "Diamante, NL, México",
    "lon": -99.1175537,
    "lat": 19.4755802,
    "id": "541a2cb3908e69c4ed701de1"
  },
  {
    "Arbol_id": 27135,
    "Folio": 479,
    "Usuario_id": "usuario456",
    "Fecha_plantado": "2014-05-26T00:00:00Z",
    "Especie": "Anacahuita",
    "Fecha_registro": "2014-05-27",
    "Municipio": "García",
    "Direccion": "Diamante, NL, México",
    "lon": -99.1175537,
    "lat": 19.4755802,
    "id": "541a2cb3908e69c4ed701de7"
  },
  {
    "Arbol_id": 27139,
    "Folio": 480,
    "Usuario_id": "usuario456",
    "Fecha_plantado": "2014-05-26T00:00:00Z",
    "Especie": "Anacahuita",
    "Fecha_registro": "2014-05-27",
    "Municipio": "",
    "Direccion": "Diamante, NL, México",
    "lon": -99.1175537,
    "lat": 19.4755802,
    "id": "541a2cb3908e69c4ed701deb"
  },
  {
    "Arbol_id": 27142,
    "Folio": 481,
    "Usuario_id": "usuario456",
    "Fecha_plantado": "2014-05-26T00:00:00Z",
    "Especie": "Anacahuita",
    "Fecha_registro": "2014-05-27",
    "Municipio": "García",
    "Direccion": "Diamante, NL, México",
    "lon": -99.1175537,
    "lat": 19.4755802,
    "id": "541a2cb3908e69c4ed701dee"
  },
  {
    "Arbol_id": 27143,
    "Folio": 482,
    "Usuario_id": "usuario456",
    "Fecha_plantado": "2014-05-26T00:00:00Z",
    "Especie": "Anacahuita",
    "Fecha_registro": "2014-05-27",
    "Municipio": "García",
    "Direccion": "Diamante, NL, México",
    "lon": -99.1175537,
    "lat": 19.4755802,
    "id": "541a2cb3908e69c4ed701def"
  },
  {
    "Arbol_id": 27147,
    "Folio": 483,
    "Usuario_id": "usuario456",
    "Fecha_plantado": "2014-05-26T00:00:00Z",
    "Especie": "Anacahuita",
    "Fecha_registro": "2014-05-27",
    "Municipio": "García",
    "Direccion": "Diamante, NL, México",
    "lon": -99.1175537,
    "lat": 19.4755802,
    "id": "541a2cb3908e69c4ed701df3"
  },
  {
    "Arbol_id": 27378,
    "Folio": 0,
    "Usuario_id": "usuario1599",
    "Fecha_plantado": "2014-05-17T00:00:00Z",
    "Especie": "Anacahuita",
    "Fecha_registro": "2014-05-27",
    "Municipio": "San Nicolás",
    "Direccion": "Casa de Los Azulejos 323, Casa Bella 2o Sector, 66635 NL, México",
    "lon": -100.2997971,
    "lat": 25.7618599,
    "id": "541a2cb3908e69c4ed701ed6"
  },
  {
    "Arbol_id": 27555,
    "Folio": 0,
    "Usuario_id": "usuario2536",
    "Fecha_plantado": "",
    "Especie": "Anacahuita",
    "Fecha_registro": "2014-05-27",
    "Municipio": "Santa Catarina",
    "Direccion": "Puerto Cumarebo 248, Residencial Cuauhtémoc, 66360 NL, México",
    "lon": -100.4448929,
    "lat": 25.6852093,
    "id": "541a2cb3908e69c4ed701f87"
  },
  {
    "Arbol_id": 27567,
    "Folio": 0,
    "Usuario_id": "usuario2536",
    "Fecha_plantado": "",
    "Especie": "Anacahuita",
    "Fecha_registro": "2014-05-27",
    "Municipio": "Santa Catarina",
    "Direccion": "Calle Puerto Maldonado, Residencial Cuauhtémoc, 66360 NL, México",
    "lon": -100.4444885,
    "lat": 25.6823692,
    "id": "541a2cb3908e69c4ed701f93"
  },
  {
    "Arbol_id": 27780,
    "Folio": 0,
    "Usuario_id": "usuario1599",
    "Fecha_plantado": "2014-05-22T00:00:00Z",
    "Especie": "Anacahuita",
    "Fecha_registro": "2014-05-28",
    "Municipio": "San Nicolás",
    "Direccion": "Ricardo Palmerín 228, Lomas del Roble 2o Sector, 66450 NL, México",
    "lon": "",
    "lat": "",
    "id": "541a2cb3908e69c4ed702068"
  },
  {
    "Arbol_id": 27811,
    "Folio": 0,
    "Usuario_id": "usuario1599",
    "Fecha_plantado": "2014-04-22T00:00:00Z",
    "Especie": "Anacahuita",
    "Fecha_registro": "2014-05-28",
    "Municipio": "San Nicolás",
    "Direccion": "Ricardo Palmerín 228, Lomas del Roble 2o Sector, 66450 NL, México",
    "lon": "",
    "lat": "",
    "id": "541a2cb3908e69c4ed702087"
  },
  {
    "Arbol_id": 27824,
    "Folio": 0,
    "Usuario_id": "usuario1599",
    "Fecha_plantado": "2014-05-22T00:00:00Z",
    "Especie": "Anacahuita",
    "Fecha_registro": "2014-05-28",
    "Municipio": "San Nicolás",
    "Direccion": "Ricardo Palmerín 236, Lomas del Roble 2o Sector, 66450 NL, México",
    "lon": "",
    "lat": "",
    "id": "541a2cb3908e69c4ed702094"
  },
  {
    "Arbol_id": 28145,
    "Folio": 0,
    "Usuario_id": "usuario1002",
    "Fecha_plantado": "2014-05-16T00:00:00Z",
    "Especie": "Anacahuita",
    "Fecha_registro": "2014-05-28",
    "Municipio": "Monterrey",
    "Direccion": "Filósofos 302, Tecnológico, 64700 Monterrey, NL, México",
    "lon": -100.2921448,
    "lat": 25.6488209,
    "id": "541a2cb3908e69c4ed7021d2"
  },
  {
    "Arbol_id": 29042,
    "Folio": 0,
    "Usuario_id": "usuario2273",
    "Fecha_plantado": "",
    "Especie": "Anacahuita",
    "Fecha_registro": "2014-05-30",
    "Municipio": "Guadalupe",
    "Direccion": "Jacarandas 1415, Sin Nombre de Colonia 43, 67110 NL, México",
    "lon": -100.2146683,
    "lat": 25.6964493,
    "id": "541a2cb3908e69c4ed702551"
  },
  {
    "Arbol_id": 29194,
    "Folio": 0,
    "Usuario_id": "usuario2224",
    "Fecha_plantado": "",
    "Especie": "Anacahuita",
    "Fecha_registro": "2014-05-31",
    "Municipio": "Monterrey",
    "Direccion": "Paseo San Gabriel, Sin Nombre de Colonia 63, Monterrey, NL, México",
    "lon": -100.2545395,
    "lat": 25.5781803,
    "id": "541a2cb4908e69c4ed7025e9"
  },
  {
    "Arbol_id": 29198,
    "Folio": 0,
    "Usuario_id": "usuario2224",
    "Fecha_plantado": "",
    "Especie": "Anacahuita",
    "Fecha_registro": "2014-05-31",
    "Municipio": "Monterrey",
    "Direccion": "Paseo San Gabriel, Sin Nombre de Colonia 63, Monterrey, NL, México",
    "lon": -100.2545395,
    "lat": 25.5781803,
    "id": "541a2cb4908e69c4ed7025ed"
  },
  {
    "Arbol_id": 29203,
    "Folio": 0,
    "Usuario_id": "usuario2536",
    "Fecha_plantado": "",
    "Especie": "Anacahuita",
    "Fecha_registro": "2014-05-31",
    "Municipio": "Santa Catarina",
    "Direccion": "Perimetral Ote., Mártires de Cananea, 66365 NL, México",
    "lon": -100.4428406,
    "lat": 25.6888409,
    "id": "541a2cb4908e69c4ed7025f1"
  },
  {
    "Arbol_id": 29253,
    "Folio": 0,
    "Usuario_id": "usuario2224",
    "Fecha_plantado": "",
    "Especie": "Anacahuita",
    "Fecha_registro": "2014-06-01",
    "Municipio": "Monterrey",
    "Direccion": "Paseo San Gabriel, Sin Nombre de Colonia 63, Monterrey, NL, México",
    "lon": -100.2545395,
    "lat": 25.5781803,
    "id": "541a2cb4908e69c4ed702623"
  },
  {
    "Arbol_id": 29260,
    "Folio": 0,
    "Usuario_id": "usuario2224",
    "Fecha_plantado": "",
    "Especie": "Anacahuita",
    "Fecha_registro": "2014-06-01",
    "Municipio": "Monterrey",
    "Direccion": "Paseo San Gabriel, Sin Nombre de Colonia 63, Monterrey, NL, México",
    "lon": -100.2545395,
    "lat": 25.5781803,
    "id": "541a2cb4908e69c4ed70262a"
  },
  {
    "Arbol_id": 29284,
    "Folio": 0,
    "Usuario_id": "usuario2248",
    "Fecha_plantado": "",
    "Especie": "Anacahuita",
    "Fecha_registro": "2014-06-01",
    "Municipio": "Escobedo",
    "Direccion": "Avenida Las Torres, Sin Nombre de Colonia 21, Escobedo, NL, México",
    "lon": "",
    "lat": "",
    "id": "541a2cb4908e69c4ed702642"
  },
  {
    "Arbol_id": 29285,
    "Folio": 0,
    "Usuario_id": "usuario2248",
    "Fecha_plantado": "",
    "Especie": "Anacahuita",
    "Fecha_registro": "2014-06-01",
    "Municipio": "Escobedo",
    "Direccion": "Avenida Las Torres, Sin Nombre de Colonia 21, Escobedo, NL, México",
    "lon": "",
    "lat": "",
    "id": "541a2cb4908e69c4ed702643"
  },
  {
    "Arbol_id": 29300,
    "Folio": 0,
    "Usuario_id": "usuario2248",
    "Fecha_plantado": "",
    "Especie": "Anacahuita",
    "Fecha_registro": "2014-06-01",
    "Municipio": "Escobedo",
    "Direccion": "S. Sebastián 449, Villas del Parque, 66055 Escobedo, NL, México",
    "lon": "",
    "lat": "",
    "id": "541a2cb4908e69c4ed702652"
  },
  {
    "Arbol_id": 29301,
    "Folio": 0,
    "Usuario_id": "usuario2248",
    "Fecha_plantado": "",
    "Especie": "Anacahuita",
    "Fecha_registro": "2014-06-01",
    "Municipio": "Escobedo",
    "Direccion": "S. Sebastián 449, Villas del Parque, 66055 Escobedo, NL, México",
    "lon": "",
    "lat": "",
    "id": "541a2cb4908e69c4ed702653"
  },
  {
    "Arbol_id": 29302,
    "Folio": 0,
    "Usuario_id": "usuario2248",
    "Fecha_plantado": "",
    "Especie": "Anacahuita",
    "Fecha_registro": "2014-06-01",
    "Municipio": "Escobedo",
    "Direccion": "S. Sebastián 449, Villas del Parque, 66055 Escobedo, NL, México",
    "lon": "",
    "lat": "",
    "id": "541a2cb4908e69c4ed702654"
  },
  {
    "Arbol_id": 29303,
    "Folio": 0,
    "Usuario_id": "usuario2248",
    "Fecha_plantado": "",
    "Especie": "Anacahuita",
    "Fecha_registro": "2014-06-01",
    "Municipio": "Escobedo",
    "Direccion": "Avenida Las Torres SN-S GASOLINERIA, Sin Nombre de Colonia 21, Escobedo, NL, México",
    "lon": "",
    "lat": "",
    "id": "541a2cb4908e69c4ed702655"
  },
  {
    "Arbol_id": 29304,
    "Folio": 0,
    "Usuario_id": "usuario2248",
    "Fecha_plantado": "",
    "Especie": "Anacahuita",
    "Fecha_registro": "2014-06-01",
    "Municipio": "Escobedo",
    "Direccion": "S. Sebastián 449, Villas del Parque, 66055 Escobedo, NL, México",
    "lon": "",
    "lat": "",
    "id": "541a2cb4908e69c4ed702656"
  },
  {
    "Arbol_id": 29305,
    "Folio": 0,
    "Usuario_id": "usuario2248",
    "Fecha_plantado": "",
    "Especie": "Anacahuita",
    "Fecha_registro": "2014-06-01",
    "Municipio": "Escobedo",
    "Direccion": "S. Sebastián 449, Villas del Parque, 66055 Escobedo, NL, México",
    "lon": "",
    "lat": "",
    "id": "541a2cb4908e69c4ed702657"
  },
  {
    "Arbol_id": 29414,
    "Folio": 0,
    "Usuario_id": "usuario2273",
    "Fecha_plantado": "",
    "Especie": "Anacahuita",
    "Fecha_registro": "2014-06-02",
    "Municipio": "Guadalupe",
    "Direccion": "Ébano 3333, Jardines de San Rafael, 67110 NL, México",
    "lon": -100.2197266,
    "lat": 25.6979504,
    "id": "541a2cb4908e69c4ed7026c4"
  },
  {
    "Arbol_id": 29491,
    "Folio": 0,
    "Usuario_id": "usuario2224",
    "Fecha_plantado": "",
    "Especie": "Anacahuita",
    "Fecha_registro": "2014-06-02",
    "Municipio": "Monterrey",
    "Direccion": "Paseo San Gabriel, Sin Nombre de Colonia 63, Monterrey, NL, México",
    "lon": -100.2545395,
    "lat": 25.5781803,
    "id": "541a2cb4908e69c4ed702710"
  },
  {
    "Arbol_id": 29594,
    "Folio": 0,
    "Usuario_id": "usuario2536",
    "Fecha_plantado": "",
    "Especie": "Anacahuita",
    "Fecha_registro": "2014-06-02",
    "Municipio": "Santa Catarina",
    "Direccion": "Calle Puerto Maldonado, Residencial Cuauhtémoc, 66360 NL, México",
    "lon": -100.4444885,
    "lat": 25.6823692,
    "id": "541a2cb4908e69c4ed702777"
  },
  {
    "Arbol_id": 29595,
    "Folio": 0,
    "Usuario_id": "usuario2536",
    "Fecha_plantado": "",
    "Especie": "Anacahuita",
    "Fecha_registro": "2014-06-02",
    "Municipio": "Santa Catarina",
    "Direccion": "Puerto Cumarebo 248, Residencial Cuauhtémoc, 66360 NL, México",
    "lon": -100.4448929,
    "lat": 25.6852093,
    "id": "541a2cb4908e69c4ed702778"
  },
  {
    "Arbol_id": 29936,
    "Folio": 0,
    "Usuario_id": "usuario2273",
    "Fecha_plantado": "",
    "Especie": "Anacahuita",
    "Fecha_registro": "2014-06-03",
    "Municipio": "Guadalupe",
    "Direccion": "Albert Einstein 798, Contry La Silla 4o Sector, 67173 NL, México",
    "lon": -100.265358,
    "lat": 25.6381302,
    "id": "541a2cb4908e69c4ed7028cc"
  },
  {
    "Arbol_id": 30376,
    "Folio": 0,
    "Usuario_id": "usuario2248",
    "Fecha_plantado": "",
    "Especie": "Anacahuita",
    "Fecha_registro": "2014-06-04",
    "Municipio": "Escobedo",
    "Direccion": "Avenida Las Torres, Sin Nombre de Colonia 21, Escobedo, NL, México",
    "lon": "",
    "lat": "",
    "id": "541a2cb4908e69c4ed702a80"
  },
  {
    "Arbol_id": 30385,
    "Folio": 0,
    "Usuario_id": "usuario2248",
    "Fecha_plantado": "",
    "Especie": "Anacahuita",
    "Fecha_registro": "2014-06-04",
    "Municipio": "Escobedo",
    "Direccion": "Avenida Las Torres, Sin Nombre de Colonia 21, Escobedo, NL, México",
    "lon": "",
    "lat": "",
    "id": "541a2cb4908e69c4ed702a89"
  },
  {
    "Arbol_id": 30953,
    "Folio": 0,
    "Usuario_id": "usuario2840",
    "Fecha_plantado": "",
    "Especie": "Anacahuita",
    "Fecha_registro": "2014-06-06",
    "Municipio": "San Nicolás",
    "Direccion": "Consentida 334, Bosques del Roble 1er Sector, 66413 NL, México",
    "lon": "",
    "lat": "",
    "id": "541a2cb4908e69c4ed702cc0"
  },
  {
    "Arbol_id": 31037,
    "Folio": 0,
    "Usuario_id": "usuario2536",
    "Fecha_plantado": "",
    "Especie": "Anacahuita",
    "Fecha_registro": "2014-06-08",
    "Municipio": "Santa Catarina",
    "Direccion": "Puerto Carreño 239, Residencial Cuauhtémoc, 66360 NL, México",
    "lon": -100.4451981,
    "lat": 25.6845093,
    "id": "541a2cb4908e69c4ed702d13"
  },
  {
    "Arbol_id": 31099,
    "Folio": 0,
    "Usuario_id": "usuario2536",
    "Fecha_plantado": "",
    "Especie": "Anacahuita",
    "Fecha_registro": "2014-06-08",
    "Municipio": "Santa Catarina",
    "Direccion": "Colina Dorada 800, Colinas de Santa Catarina, 66360 Monterrey, NL, México",
    "lon": -100.4450226,
    "lat": 25.693821,
    "id": "541a2cb4908e69c4ed702d51"
  },
  {
    "Arbol_id": 31104,
    "Folio": 0,
    "Usuario_id": "usuario2536",
    "Fecha_plantado": "",
    "Especie": "Anacahuita",
    "Fecha_registro": "2014-06-08",
    "Municipio": "Santa Catarina",
    "Direccion": "Colina Dorada 730, Colinas de Santa Catarina, 66360 NL, México",
    "lon": -100.4447784,
    "lat": 25.6936893,
    "id": "541a2cb4908e69c4ed702d56"
  },
  {
    "Arbol_id": 31356,
    "Folio": 0,
    "Usuario_id": "usuario2273",
    "Fecha_plantado": "2014-05-22T00:00:00Z",
    "Especie": "Anacahuita",
    "Fecha_registro": "2014-06-09",
    "Municipio": "Guadalupe",
    "Direccion": "San Joaquín, Evolución, NL, México",
    "lon": "",
    "lat": "",
    "id": "541a2cb4908e69c4ed702e4f"
  },
  {
    "Arbol_id": 31443,
    "Folio": 0,
    "Usuario_id": "usuario2273",
    "Fecha_plantado": "2014-05-22T00:00:00Z",
    "Especie": "Anacahuita",
    "Fecha_registro": "2014-06-09",
    "Municipio": "Guadalupe",
    "Direccion": "San Joaquín, Evolución, NL, México",
    "lon": "",
    "lat": "",
    "id": "541a2cb4908e69c4ed702ea6"
  },
  {
    "Arbol_id": 31444,
    "Folio": 0,
    "Usuario_id": "usuario2273",
    "Fecha_plantado": "2014-05-22T00:00:00Z",
    "Especie": "Anacahuita",
    "Fecha_registro": "2014-06-09",
    "Municipio": "Guadalupe",
    "Direccion": "San Joaquín, Evolución, NL, México",
    "lon": "",
    "lat": "",
    "id": "541a2cb4908e69c4ed702ea7"
  },