[
  {
    "Arbol_id": 2554,
    "Folio": 27,
    "Usuario_id": "usuario1950",
    "Fecha_plantado": "",
    "Especie": "Chaparro Prieto",
    "Fecha_registro": "2013-10-29",
    "Municipio": "Monterrey",
    "Direccion": "Avenida Valle Alto 101, Valle Alto, 64989 Monterrey, NL, México",
    "lon": -100.2693481,
    "lat": 25.5750618,
    "id": "541a2cac908e69c4ed6fbfd2"
  },
  {
    "Arbol_id": 2556,
    "Folio": 29,
    "Usuario_id": "usuario1950",
    "Fecha_plantado": "",
    "Especie": "Chaparro Prieto",
    "Fecha_registro": "2013-10-29",
    "Municipio": "Monterrey",
    "Direccion": "Avenida Valle Alto 101, Valle Alto, 64989 Monterrey, NL, México",
    "lon": -100.2693481,
    "lat": 25.5750618,
    "id": "541a2cac908e69c4ed6fbfd4"
  },
  {
    "Arbol_id": 2557,
    "Folio": 30,
    "Usuario_id": "usuario1950",
    "Fecha_plantado": "",
    "Especie": "Chaparro Prieto",
    "Fecha_registro": "2013-10-29",
    "Municipio": "Monterrey",
    "Direccion": "Avenida Valle Alto 101, Valle Alto, 64989 Monterrey, NL, México",
    "lon": -100.2693481,
    "lat": 25.5750618,
    "id": "541a2cac908e69c4ed6fbfd5"
  },
  {
    "Arbol_id": 3095,
    "Folio": 156,
    "Usuario_id": "usuario1950",
    "Fecha_plantado": "",
    "Especie": "Chaparro Prieto",
    "Fecha_registro": "2013-11-19",
    "Municipio": "Monterrey",
    "Direccion": "Acacias, Valle Alto, 64989 Monterrey, NL, México",
    "lon": -100.2571335,
    "lat": 25.5835991,
    "id": "541a2cac908e69c4ed6fc1c0"
  },
  {
    "Arbol_id": 3102,
    "Folio": 163,
    "Usuario_id": "usuario1950",
    "Fecha_plantado": "",
    "Especie": "Chaparro Prieto",
    "Fecha_registro": "2013-11-19",
    "Municipio": "Monterrey",
    "Direccion": "Avenida Valle Alto 101, Valle Alto, 64989 Monterrey, NL, México",
    "lon": -100.2693481,
    "lat": 25.5750618,
    "id": "541a2cac908e69c4ed6fc1c7"
  },
  {
    "Arbol_id": 12551,
    "Folio": 0,
    "Usuario_id": "usuario2273",
    "Fecha_plantado": "",
    "Especie": "Chaparro Prieto",
    "Fecha_registro": "2014-03-10",
    "Municipio": "Guadalupe",
    "Direccion": "Isaac Newton 650, Contry La Silla 4o Sector, 67173 Guadalupe, NL, México",
    "lon": -100.267128,
    "lat": 25.6317596,
    "id": "541a2caf908e69c4ed6fe60b"
  },
  {
    "Arbol_id": 12719,
    "Folio": 0,
    "Usuario_id": "usuario2273",
    "Fecha_plantado": "",
    "Especie": "Chaparro Prieto",
    "Fecha_registro": "2014-03-11",
    "Municipio": "Guadalupe",
    "Direccion": "Isaac Newton 640, Contry La Silla 4o Sector, 67173 NL, México",
    "lon": -100.2674179,
    "lat": 25.6316109,
    "id": "541a2caf908e69c4ed6fe6b0"
  },
  {
    "Arbol_id": 12724,
    "Folio": 0,
    "Usuario_id": "usuario2273",
    "Fecha_plantado": "",
    "Especie": "Chaparro Prieto",
    "Fecha_registro": "2014-03-11",
    "Municipio": "Guadalupe",
    "Direccion": "Isaac Newton 640, Contry La Silla 4o Sector, 67173 NL, México",
    "lon": -100.2674179,
    "lat": 25.6316109,
    "id": "541a2caf908e69c4ed6fe6b5"
  },
  {
    "Arbol_id": 12725,
    "Folio": 0,
    "Usuario_id": "usuario2273",
    "Fecha_plantado": "",
    "Especie": "Chaparro Prieto",
    "Fecha_registro": "2014-03-11",
    "Municipio": "Guadalupe",
    "Direccion": "Isaac Newton 640, Contry La Silla 4o Sector, 67173 NL, México",
    "lon": -100.2674179,
    "lat": 25.6316109,
    "id": "541a2caf908e69c4ed6fe6b6"
  },
  {
    "Arbol_id": 12729,
    "Folio": 0,
    "Usuario_id": "usuario2273",
    "Fecha_plantado": "",
    "Especie": "Chaparro Prieto",
    "Fecha_registro": "2014-03-11",
    "Municipio": "Guadalupe",
    "Direccion": "Isaac Newton 640, Contry La Silla 4o Sector, 67173 NL, México",
    "lon": -100.2674179,
    "lat": 25.6316109,
    "id": "541a2caf908e69c4ed6fe6ba"
  },
  {
    "Arbol_id": 12741,
    "Folio": 0,
    "Usuario_id": "usuario2273",
    "Fecha_plantado": "",
    "Especie": "Chaparro Prieto",
    "Fecha_registro": "2014-03-11",
    "Municipio": "Guadalupe",
    "Direccion": "Isaac Newton 640, Contry La Silla 4o Sector, 67173 NL, México",
    "lon": -100.2674179,
    "lat": 25.6316109,
    "id": "541a2caf908e69c4ed6fe6c6"
  },
  {
    "Arbol_id": 12752,
    "Folio": 0,
    "Usuario_id": "usuario2273",
    "Fecha_plantado": "",
    "Especie": "Chaparro Prieto",
    "Fecha_registro": "2014-03-11",
    "Municipio": "Guadalupe",
    "Direccion": "Isaac Newton 640, Contry La Silla 4o Sector, 67173 NL, México",
    "lon": -100.2674179,
    "lat": 25.6316109,
    "id": "541a2caf908e69c4ed6fe6d1"
  },
  {
    "Arbol_id": 12754,
    "Folio": 0,
    "Usuario_id": "usuario2273",
    "Fecha_plantado": "",
    "Especie": "Chaparro Prieto",
    "Fecha_registro": "2014-03-11",
    "Municipio": "Guadalupe",
    "Direccion": "Isaac Newton 640, Contry La Silla 4o Sector, 67173 NL, México",
    "lon": -100.2674179,
    "lat": 25.6316109,
    "id": "541a2caf908e69c4ed6fe6d3"
  },
  {
    "Arbol_id": 12847,
    "Folio": 0,
    "Usuario_id": "usuario2273",
    "Fecha_plantado": "",
    "Especie": "Chaparro Prieto",
    "Fecha_registro": "2014-03-11",
    "Municipio": "Guadalupe",
    "Direccion": "Isaac Newton 620, Contry La Silla 1er Sector, 67173 Guadalupe, NL, México",
    "lon": -100.268158,
    "lat": 25.6312008,
    "id": "541a2caf908e69c4ed6fe730"
  },
  {
    "Arbol_id": 26449,
    "Folio": 0,
    "Usuario_id": "usuario2273",
    "Fecha_plantado": "",
    "Especie": "Chaparro Prieto",
    "Fecha_registro": "2014-05-23",
    "Municipio": "Guadalupe",
    "Direccion": "Calle Chamula 501, Residencial Azteca, 67150 NL, México",
    "lon": -100.2351379,
    "lat": 25.6857452,
    "id": "541a2cb3908e69c4ed701b5f"
  },
  {
    "Arbol_id": 29590,
    "Folio": 0,
    "Usuario_id": "usuario2536",
    "Fecha_plantado": "",
    "Especie": "Chaparro Prieto",
    "Fecha_registro": "2014-06-02",
    "Municipio": "Santa Catarina",
    "Direccion": "Puerto Cumarebo 248, Residencial Cuauhtémoc, 66360 NL, México",
    "lon": -100.4448929,
    "lat": 25.6852093,
    "id": "541a2cb4908e69c4ed702773"
  },
  {
    "Arbol_id": 29596,
    "Folio": 0,
    "Usuario_id": "usuario2536",
    "Fecha_plantado": "",
    "Especie": "Chaparro Prieto",
    "Fecha_registro": "2014-06-02",
    "Municipio": "Santa Catarina",
    "Direccion": "Calle Puerto Maldonado, Residencial Cuauhtémoc, 66360 NL, México",
    "lon": -100.4444885,
    "lat": 25.6823692,
    "id": "541a2cb4908e69c4ed702779"
  },
  {
    "Arbol_id": 41530,
    "Folio": 0,
    "Usuario_id": "usuario2273",
    "Fecha_plantado": "",
    "Especie": "Chaparro Prieto",
    "Fecha_registro": "2014-07-25",
    "Municipio": "Guadalupe",
    "Direccion": "Miguel Angel Buonarroti 2004, Contry Las Águilas, 67174 NL, México",
    "lon": -100.2609634,
    "lat": 25.6534004,
    "id": "541a2cb7908e69c4ed7055cc"
  },
  {
    "Arbol_id": 41531,
    "Folio": 0,
    "Usuario_id": "usuario2273",
    "Fecha_plantado": "",
    "Especie": "Chaparro Prieto",
    "Fecha_registro": "2014-07-25",
    "Municipio": "Guadalupe",
    "Direccion": "Miguel Angel Buonarroti 2004, Contry Las Águilas, 67174 NL, México",
    "lon": -100.2609634,
    "lat": 25.6534004,
    "id": "541a2cb7908e69c4ed7055cd"
  },
  {
    "Arbol_id": 41532,
    "Folio": 0,
    "Usuario_id": "usuario2273",
    "Fecha_plantado": "",
    "Especie": "Chaparro Prieto",
    "Fecha_registro": "2014-07-25",
    "Municipio": "Guadalupe",
    "Direccion": "Miguel Angel Buonarroti 2004, Contry Las Águilas, 67174 NL, México",
    "lon": -100.2609634,
    "lat": 25.6534004,
    "id": "541a2cb7908e69c4ed7055ce"
  },
  {
    "Arbol_id": 41544,
    "Folio": 0,
    "Usuario_id": "usuario2273",
    "Fecha_plantado": "",
    "Especie": "Chaparro Prieto",
    "Fecha_registro": "2014-07-25",
    "Municipio": "Guadalupe",
    "Direccion": "Francisco de Goya 2031, Contry Las Águilas, 67174 NL, México",
    "lon": -100.2610474,
    "lat": 25.6521893,
    "id": "541a2cb7908e69c4ed7055da"
  },
  {
    "Arbol_id": 41545,
    "Folio": 0,
    "Usuario_id": "usuario2273",
    "Fecha_plantado": "",
    "Especie": "Chaparro Prieto",
    "Fecha_registro": "2014-07-25",
    "Municipio": "Guadalupe",
    "Direccion": "Francisco de Goya 2031, Contry Las Águilas, 67174 NL, México",
    "lon": -100.2610474,
    "lat": 25.6521893,
    "id": "541a2cb7908e69c4ed7055db"
  },
  {
    "Arbol_id": 41546,
    "Folio": 0,
    "Usuario_id": "usuario2273",
    "Fecha_plantado": "",
    "Especie": "Chaparro Prieto",
    "Fecha_registro": "2014-07-25",
    "Municipio": "Guadalupe",
    "Direccion": "Francisco de Goya 2024-2031, Contry Las Águilas, 67174 NL, México",
    "lon": -100.2610321,
    "lat": 25.6521034,
    "id": "541a2cb7908e69c4ed7055dc"
  },
  {
    "Arbol_id": 41547,
    "Folio": 0,
    "Usuario_id": "usuario2273",
    "Fecha_plantado": "",
    "Especie": "Chaparro Prieto",
    "Fecha_registro": "2014-07-25",
    "Municipio": "Guadalupe",
    "Direccion": "Francisco de Goya 2024, Contry Las Águilas, 67174 NL, México",
    "lon": -100.2610321,
    "lat": 25.6521034,
    "id": "541a2cb7908e69c4ed7055dd"
  },
  {
    "Arbol_id": 41548,
    "Folio": 0,
    "Usuario_id": "usuario2273",
    "Fecha_plantado": "",
    "Especie": "Chaparro Prieto",
    "Fecha_registro": "2014-07-25",
    "Municipio": "Guadalupe",
    "Direccion": "Francisco de Goya 2024, Contry Las Águilas, 67174 NL, México",
    "lon": -100.2610321,
    "lat": 25.6521034,
    "id": "541a2cb7908e69c4ed7055de"
  },
  {
    "Arbol_id": 41549,
    "Folio": 0,
    "Usuario_id": "usuario2273",
    "Fecha_plantado": "",
    "Especie": "Chaparro Prieto",
    "Fecha_registro": "2014-07-25",
    "Municipio": "Guadalupe",
    "Direccion": "Francisco de Goya 2031, Contry Las Águilas, 67174 NL, México",
    "lon": -100.2610474,
    "lat": 25.6521893,
    "id": "541a2cb7908e69c4ed7055df"
  },
  {
    "Arbol_id": 41550,
    "Folio": 0,
    "Usuario_id": "usuario2273",
    "Fecha_plantado": "",
    "Especie": "Chaparro Prieto",
    "Fecha_registro": "2014-07-25",
    "Municipio": "Guadalupe",
    "Direccion": "Francisco de Goya 2024-2031, Contry Las Águilas, 67174 NL, México",
    "lon": -100.2610321,
    "lat": 25.6521034,
    "id": "541a2cb7908e69c4ed7055e0"
  },
  {
    "Arbol_id": 41551,
    "Folio": 0,
    "Usuario_id": "usuario2273",
    "Fecha_plantado": "",
    "Especie": "Chaparro Prieto",
    "Fecha_registro": "2014-07-25",
    "Municipio": "Guadalupe",
    "Direccion": "Francisco de Goya 2024, Contry Las Águilas, 67174 NL, México",
    "lon": -100.2610321,
    "lat": 25.6521034,
    "id": "541a2cb7908e69c4ed7055e1"
  },
  {
    "Arbol_id": 41552,
    "Folio": 0,
    "Usuario_id": "usuario2273",
    "Fecha_plantado": "",
    "Especie": "Chaparro Prieto",
    "Fecha_registro": "2014-07-25",
    "Municipio": "Guadalupe",
    "Direccion": "Francisco de Goya 2024, Contry Las Águilas, 67174 NL, México",
    "lon": -100.2610321,
    "lat": 25.6521034,
    "id": "541a2cb7908e69c4ed7055e2"
  }
]