[
  {
    "Arbol_id": 145,
    "Folio": 0,
    "Usuario_id": "usuario2792",
    "Fecha_plantado": "",
    "Especie": "Chinese Tallow",
    "Fecha_registro": "2013-05-08",
    "Municipio": "Monterrey",
    "Direccion": "Canadá 420-424, Vista Hermosa, 64620 Monterrey, NL, México",
    "lon": -100.3543472,
    "lat": 25.6916008,
    "id": "541a2cab908e69c4ed6fb774"
  },
  {
    "Arbol_id": 433,
    "Folio": 0,
    "Usuario_id": "usuario2652",
    "Fecha_plantado": "",
    "Especie": "Chinese Tallow",
    "Fecha_registro": "2013-06-05",
    "Municipio": "Monterrey",
    "Direccion": "Felipe Villanueva 330, Colinas de San Jerónimo 11O. Sector, Monterrey, Nuevo León, Mexico",
    "lon": -100.3216705,
    "lat": 25.7403107,
    "id": "541a2cac908e69c4ed6fb884"
  },
  {
    "Arbol_id": 554,
    "Folio": 0,
    "Usuario_id": "usuario2382",
    "Fecha_plantado": "",
    "Especie": "Chinese Tallow",
    "Fecha_registro": "2013-07-12",
    "Municipio": "Monterrey",
    "Direccion": "José Vasconcelos 240, Casco Urbano, 66230 NL, México",
    "lon": -99.1811295,
    "lat": 19.4126911,
    "id": "541a2cac908e69c4ed6fb8f0"
  },
  {
    "Arbol_id": 555,
    "Folio": 0,
    "Usuario_id": "usuario2382",
    "Fecha_plantado": "",
    "Especie": "Chinese Tallow",
    "Fecha_registro": "2013-07-12",
    "Municipio": "Monterrey",
    "Direccion": "José Vasconcelos 243, Casco Urbano, 66230 NL, México",
    "lon": -99.1816177,
    "lat": 19.4130344,
    "id": "541a2cac908e69c4ed6fb8f1"
  },
  {
    "Arbol_id": 1001,
    "Folio": 0,
    "Usuario_id": "usuario153",
    "Fecha_plantado": "",
    "Especie": "Chinese Tallow",
    "Fecha_registro": "2013-06-22",
    "Municipio": "Monterrey",
    "Direccion": "Camino Al Panteon 7128, Lomas Mederos, 64978 Monterrey, NL, México",
    "lon": -100.2661819,
    "lat": 25.5923004,
    "id": "541a2cac908e69c4ed6fba8b"
  },
  {
    "Arbol_id": 1088,
    "Folio": 0,
    "Usuario_id": "usuario2382",
    "Fecha_plantado": "",
    "Especie": "Chinese Tallow",
    "Fecha_registro": "2013-07-12",
    "Municipio": "Monterrey",
    "Direccion": "José Vasconcelos 237, Casco Urbano, 66230 NL, México",
    "lon": -99.1815262,
    "lat": 19.4132137,
    "id": "541a2cac908e69c4ed6fbadf"
  },
  {
    "Arbol_id": 1089,
    "Folio": 0,
    "Usuario_id": "usuario2382",
    "Fecha_plantado": "",
    "Especie": "Chinese Tallow",
    "Fecha_registro": "2013-07-12",
    "Municipio": "Monterrey",
    "Direccion": "José Vasconcelos 202, Casco Urbano, 66230 NL, México",
    "lon": -99.180542,
    "lat": 19.4135094,
    "id": "541a2cac908e69c4ed6fbae0"
  },
  {
    "Arbol_id": 1090,
    "Folio": 0,
    "Usuario_id": "usuario2382",
    "Fecha_plantado": "",
    "Especie": "Chinese Tallow",
    "Fecha_registro": "2013-07-12",
    "Municipio": "Monterrey",
    "Direccion": "José Vasconcelos 201, Casco Urbano, 66230 NL, México",
    "lon": -99.181282,
    "lat": 19.4130802,
    "id": "541a2cac908e69c4ed6fbae1"
  },
  {
    "Arbol_id": 1091,
    "Folio": 0,
    "Usuario_id": "usuario2382",
    "Fecha_plantado": "",
    "Especie": "Chinese Tallow",
    "Fecha_registro": "2013-07-12",
    "Municipio": "Monterrey",
    "Direccion": "José Vasconcelos 138, Casco Urbano, 66230 NL, México",
    "lon": -99.1792068,
    "lat": 19.4156208,
    "id": "541a2cac908e69c4ed6fbae2"
  },
  {
    "Arbol_id": 1092,
    "Folio": 0,
    "Usuario_id": "usuario2382",
    "Fecha_plantado": "",
    "Especie": "Chinese Tallow",
    "Fecha_registro": "2013-07-12",
    "Municipio": "Monterrey",
    "Direccion": "José Vasconcelos 105, Casco Urbano, 66230 NL, México",
    "lon": -99.1832809,
    "lat": 19.4088593,
    "id": "541a2cac908e69c4ed6fbae3"
  },
  {
    "Arbol_id": 1093,
    "Folio": 0,
    "Usuario_id": "usuario2382",
    "Fecha_plantado": "",
    "Especie": "Chinese Tallow",
    "Fecha_registro": "2013-07-12",
    "Municipio": "Monterrey",
    "Direccion": "José Vasconcelos 238-S, Casco Urbano, 66230 NL, México",
    "lon": -99.1811218,
    "lat": 19.4127007,
    "id": "541a2cac908e69c4ed6fbae4"
  },
  {
    "Arbol_id": 1094,
    "Folio": 0,
    "Usuario_id": "usuario2382",
    "Fecha_plantado": "",
    "Especie": "Chinese Tallow",
    "Fecha_registro": "2013-07-12",
    "Municipio": "Monterrey",
    "Direccion": "José Vasconcelos 562, Casco Urbano, 66230 NL, México",
    "lon": -99.1783066,
    "lat": 19.4180508,
    "id": "541a2cac908e69c4ed6fbae5"
  },
  {
    "Arbol_id": 1096,
    "Folio": 0,
    "Usuario_id": "usuario2382",
    "Fecha_plantado": "",
    "Especie": "Chinese Tallow",
    "Fecha_registro": "2013-07-12",
    "Municipio": "Monterrey",
    "Direccion": "José Vasconcelos 564, Casco Urbano, 66230 NL, México",
    "lon": -99.1783066,
    "lat": 19.4180508,
    "id": "541a2cac908e69c4ed6fbae7"
  },
  {
    "Arbol_id": 1128,
    "Folio": 0,
    "Usuario_id": "usuario1573",
    "Fecha_plantado": "",
    "Especie": "Chinese Tallow",
    "Fecha_registro": "2013-07-02",
    "Municipio": "Monterrey",
    "Direccion": "Calle Pablo Moncayo 11 154, Colinas de San Jerónimo 11O. Sector, Monterrey, NL, México",
    "lon": -100.3590927,
    "lat": 25.6832809,
    "id": "541a2cac908e69c4ed6fbb00"
  },
  {
    "Arbol_id": 1180,
    "Folio": 0,
    "Usuario_id": "usuario472",
    "Fecha_plantado": "",
    "Especie": "Chinese Tallow",
    "Fecha_registro": "2013-07-04",
    "Municipio": "Monterrey",
    "Direccion": "Playa Hornos 3149, Narvarte, 64833 Monterrey, Nuevo Leon, Mexico",
    "lon": -100.2827301,
    "lat": 25.6491508,
    "id": "541a2cac908e69c4ed6fbb26"
  },
  {
    "Arbol_id": 1517,
    "Folio": 0,
    "Usuario_id": "usuario153",
    "Fecha_plantado": "",
    "Especie": "Chinese Tallow",
    "Fecha_registro": "2013-07-11",
    "Municipio": "Monterrey",
    "Direccion": "Del Sabino 209, Privada Villalta, 64978 Monterrey, NL, México",
    "lon": -100.2744675,
    "lat": 25.5682602,
    "id": "541a2cac908e69c4ed6fbc34"
  },
  {
    "Arbol_id": 1573,
    "Folio": 0,
    "Usuario_id": "usuario2382",
    "Fecha_plantado": "",
    "Especie": "Chinese Tallow",
    "Fecha_registro": "2013-07-16",
    "Municipio": "Monterrey",
    "Direccion": "José Vasconcelos 689, Casco Urbano, 66230 NL, México",
    "lon": -99.1783066,
    "lat": 19.4180508,
    "id": "541a2cac908e69c4ed6fbc58"
  },
  {
    "Arbol_id": 1574,
    "Folio": 0,
    "Usuario_id": "usuario2382",
    "Fecha_plantado": "",
    "Especie": "Chinese Tallow",
    "Fecha_registro": "2013-07-16",
    "Municipio": "Monterrey",
    "Direccion": "José Vasconcelos 728, Casco Urbano, 66230 San Pedro Garza García, NL, México",
    "lon": -100.39785,
    "lat": 25.6605301,
    "id": "541a2cac908e69c4ed6fbc59"
  },
  {
    "Arbol_id": 1577,
    "Folio": 0,
    "Usuario_id": "usuario2382",
    "Fecha_plantado": "",
    "Especie": "Chinese Tallow",
    "Fecha_registro": "2013-07-16",
    "Municipio": "Monterrey",
    "Direccion": "José Vasconcelos 812, Casco Urbano, 66230 NL, México",
    "lon": -99.1783066,
    "lat": 19.4180508,
    "id": "541a2cac908e69c4ed6fbc5c"
  },
  {
    "Arbol_id": 1579,
    "Folio": 0,
    "Usuario_id": "usuario2382",
    "Fecha_plantado": "",
    "Especie": "Chinese Tallow",
    "Fecha_registro": "2013-07-16",
    "Municipio": "Monterrey",
    "Direccion": "José Vasconcelos 811, Casco Urbano, 66230 NL, México",
    "lon": -99.1783066,
    "lat": 19.4180508,
    "id": "541a2cac908e69c4ed6fbc5e"
  },
  {
    "Arbol_id": 1585,
    "Folio": 0,
    "Usuario_id": "usuario2382",
    "Fecha_plantado": "",
    "Especie": "Chinese Tallow",
    "Fecha_registro": "2013-07-16",
    "Municipio": "Monterrey",
    "Direccion": "José Vasconcelos 860, Casco Urbano, 66230 NL, México",
    "lon": "",
    "lat": "",
    "id": "541a2cac908e69c4ed6fbc64"
  },
  {
    "Arbol_id": 1586,
    "Folio": 0,
    "Usuario_id": "usuario2382",
    "Fecha_plantado": "",
    "Especie": "Chinese Tallow",
    "Fecha_registro": "2013-07-16",
    "Municipio": "Monterrey",
    "Direccion": "José Vasconcelos 103, Casco Urbano, 66230 NL, México",
    "lon": -99.1771927,
    "lat": 19.4197235,
    "id": "541a2cac908e69c4ed6fbc65"
  },
  {
    "Arbol_id": 1587,
    "Folio": 0,
    "Usuario_id": "usuario2382",
    "Fecha_plantado": "",
    "Especie": "Chinese Tallow",
    "Fecha_registro": "2013-07-16",
    "Municipio": "Monterrey",
    "Direccion": "José Vasconcelos 1008, Casco Urbano, 66230 NL, México",
    "lon": -99.1783066,
    "lat": 19.4180508,
    "id": "541a2cac908e69c4ed6fbc66"
  },
  {
    "Arbol_id": 1588,
    "Folio": 0,
    "Usuario_id": "usuario2382",
    "Fecha_plantado": "",
    "Especie": "Chinese Tallow",
    "Fecha_registro": "2013-07-16",
    "Municipio": "Monterrey",
    "Direccion": "José Vasconcelos 1040A, Casco Urbano, 66230 NL, México",
    "lon": -99.1783066,
    "lat": 19.4180508,
    "id": "541a2cac908e69c4ed6fbc67"
  },
  {
    "Arbol_id": 1590,
    "Folio": 0,
    "Usuario_id": "usuario2382",
    "Fecha_plantado": "",
    "Especie": "Chinese Tallow",
    "Fecha_registro": "2013-07-16",
    "Municipio": "Monterrey",
    "Direccion": "José Vasconcelos 1222, Palo Blanco, 66236 San Pedro Garza García, NL, México",
    "lon": -100.390831,
    "lat": 25.6578007,
    "id": "541a2cac908e69c4ed6fbc69"
  },
  {
    "Arbol_id": 1591,
    "Folio": 0,
    "Usuario_id": "usuario2382",
    "Fecha_plantado": "",
    "Especie": "Chinese Tallow",
    "Fecha_registro": "2013-07-16",
    "Municipio": "Monterrey",
    "Direccion": "José Vasconcelos 1338, Casco Urbano, NL, México",
    "lon": "",
    "lat": "",
    "id": "541a2cac908e69c4ed6fbc6a"
  },
  {
    "Arbol_id": 1599,
    "Folio": 0,
    "Usuario_id": "usuario2382",
    "Fecha_plantado": "",
    "Especie": "Chinese Tallow",
    "Fecha_registro": "2013-07-16",
    "Municipio": "Monterrey",
    "Direccion": "José Vasconcelos 1515-1539, Los Sabinos, 66226 NL, México",
    "lon": -102.9170837,
    "lat": 20.7789993,
    "id": "541a2cac908e69c4ed6fbc71"
  },
  {
    "Arbol_id": 1606,
    "Folio": 0,
    "Usuario_id": "usuario2382",
    "Fecha_plantado": "",
    "Especie": "Chinese Tallow",
    "Fecha_registro": "2013-07-16",
    "Municipio": "Monterrey",
    "Direccion": "José Vasconcelos 1539, Los Sabinos, 66226 NL, México",
    "lon": -102.9170837,
    "lat": 20.7789993,
    "id": "541a2cac908e69c4ed6fbc78"
  },
  {
    "Arbol_id": 1610,
    "Folio": 0,
    "Usuario_id": "usuario2382",
    "Fecha_plantado": "",
    "Especie": "Chinese Tallow",
    "Fecha_registro": "2013-07-16",
    "Municipio": "Monterrey",
    "Direccion": "José Vasconcelos 735_6, Los Sabinos, 66226 NL, México",
    "lon": -102.9170837,
    "lat": 20.7789993,
    "id": "541a2cac908e69c4ed6fbc7c"
  },
  {
    "Arbol_id": 1657,
    "Folio": 8,
    "Usuario_id": "usuario2934",
    "Fecha_plantado": "",
    "Especie": "Chinese Tallow",
    "Fecha_registro": "2013-07-25",
    "Municipio": "Monterrey",
    "Direccion": "Llavale 3101, Valle del Mirador, 64750 Monterrey, NL, México",
    "lon": -100.312088,
    "lat": 25.6399193,
    "id": "541a2cac908e69c4ed6fbca0"
  },
  {
    "Arbol_id": 1664,
    "Folio": 15,
    "Usuario_id": "usuario2934",
    "Fecha_plantado": "",
    "Especie": "Chinese Tallow",
    "Fecha_registro": "2013-07-25",
    "Municipio": "Monterrey",
    "Direccion": "Llavale 3101, Valle del Mirador, 64750 Monterrey, NL, México",
    "lon": -100.312088,
    "lat": 25.6399193,
    "id": "541a2cac908e69c4ed6fbca7"
  },
  {
    "Arbol_id": 1673,
    "Folio": 25,
    "Usuario_id": "usuario2934",
    "Fecha_plantado": "",
    "Especie": "Chinese Tallow",
    "Fecha_registro": "2013-07-25",
    "Municipio": "Monterrey",
    "Direccion": "Llavale 3201, Valle del Mirador, 64750 Monterrey, NL, México",
    "lon": -100.312088,
    "lat": 25.6394005,
    "id": "541a2cac908e69c4ed6fbcb0"
  },
  {
    "Arbol_id": 1674,
    "Folio": 26,
    "Usuario_id": "usuario2934",
    "Fecha_plantado": "",
    "Especie": "Chinese Tallow",
    "Fecha_registro": "2013-07-25",
    "Municipio": "Monterrey",
    "Direccion": "Llavale 3201, Valle del Mirador, 64750 Monterrey, NL, México",
    "lon": -100.312088,
    "lat": 25.6394005,
    "id": "541a2cac908e69c4ed6fbcb1"
  },
  {
    "Arbol_id": 1675,
    "Folio": 27,
    "Usuario_id": "usuario2934",
    "Fecha_plantado": "",
    "Especie": "Chinese Tallow",
    "Fecha_registro": "2013-07-25",
    "Municipio": "Monterrey",
    "Direccion": "Llavale 3201, Valle del Mirador, 64750 Monterrey, NL, México",
    "lon": -100.312088,
    "lat": 25.6394005,
    "id": "541a2cac908e69c4ed6fbcb2"
  },
  {
    "Arbol_id": 1741,
    "Folio": 0,
    "Usuario_id": "usuario2382",
    "Fecha_plantado": "",
    "Especie": "Chinese Tallow",
    "Fecha_registro": "2013-08-13",
    "Municipio": "San Pedro Garza García",
    "Direccion": "José Vasconcelos 1555, Los Sabinos, NL, México",
    "lon": -102.9170837,
    "lat": 20.7789993,
    "id": "541a2cac908e69c4ed6fbcf1"
  },
  {
    "Arbol_id": 1823,
    "Folio": 7,
    "Usuario_id": "usuario375",
    "Fecha_plantado": "",
    "Especie": "Chinese Tallow",
    "Fecha_registro": "2013-09-10",
    "Municipio": "Monterrey",
    "Direccion": "Hamburgo 2840, Rincón de Alta Vista, 67855 Monterrey, Nuevo Leon, Mexico",
    "lon": -100.2829285,
    "lat": 25.6470203,
    "id": "541a2cac908e69c4ed6fbd37"
  },
  {
    "Arbol_id": 1825,
    "Folio": 9,
    "Usuario_id": "usuario375",
    "Fecha_plantado": "",
    "Especie": "Chinese Tallow",
    "Fecha_registro": "2013-09-10",
    "Municipio": "Monterrey",
    "Direccion": "Hamburgo 2832, Rincón de Alta Vista, 64844 Monterrey, Nuevo Leon, Mexico",
    "lon": -100.2831726,
    "lat": 25.6470203,
    "id": "541a2cac908e69c4ed6fbd39"
  },
  {
    "Arbol_id": 1826,
    "Folio": 10,
    "Usuario_id": "usuario375",
    "Fecha_plantado": "",
    "Especie": "Chinese Tallow",
    "Fecha_registro": "2013-09-10",
    "Municipio": "Monterrey",
    "Direccion": "Hamburgo 2816, Rincón de Alta Vista, 64844 Monterrey, Nuevo Leon, Mexico",
    "lon": -100.2836533,
    "lat": 25.6470699,
    "id": "541a2cac908e69c4ed6fbd3a"
  },
  {
    "Arbol_id": 1827,
    "Folio": 11,
    "Usuario_id": "usuario375",
    "Fecha_plantado": "",
    "Especie": "Chinese Tallow",
    "Fecha_registro": "2013-09-10",
    "Municipio": "Monterrey",
    "Direccion": "Hamburgo 2816, Rincón de Alta Vista, 64844 Monterrey, Nuevo Leon, Mexico",
    "lon": -100.2836533,
    "lat": 25.6470699,
    "id": "541a2cac908e69c4ed6fbd3b"
  },
  {
    "Arbol_id": 1830,
    "Folio": 14,
    "Usuario_id": "usuario375",
    "Fecha_plantado": "",
    "Especie": "Chinese Tallow",
    "Fecha_registro": "2013-09-10",
    "Municipio": "Monterrey",
    "Direccion": "Junco De La Vega 435, Rincón de Alta Vista, 64844 Monterrey, Nuevo Leon, Mexico",
    "lon": -100.2837296,
    "lat": 25.6464901,
    "id": "541a2cac908e69c4ed6fbd3d"
  },
  {
    "Arbol_id": 1831,
    "Folio": 15,
    "Usuario_id": "usuario375",
    "Fecha_plantado": "",
    "Especie": "Chinese Tallow",
    "Fecha_registro": "2013-09-10",
    "Municipio": "Monterrey",
    "Direccion": "Bavaria 2828, Rincón de Alta Vista, 64844 Monterrey, Nuevo Leon, Mexico",
    "lon": -100.2834473,
    "lat": 25.6463223,
    "id": "541a2cac908e69c4ed6fbd3e"
  },
  {
    "Arbol_id": 1841,
    "Folio": 0,
    "Usuario_id": "usuario919",
    "Fecha_plantado": "",
    "Especie": "Chinese Tallow",
    "Fecha_registro": "2013-09-11",
    "Municipio": "Monterrey",
    "Direccion": "Bahía de Las Islas, Rincon De La Primavera, 64835 Monterrey, NL, México",
    "lon": -100.2716599,
    "lat": 25.6491604,
    "id": "541a2cac908e69c4ed6fbd45"
  },
  {
    "Arbol_id": 1859,
    "Folio": 0,
    "Usuario_id": "usuario2382",
    "Fecha_plantado": "",
    "Especie": "Chinese Tallow",
    "Fecha_registro": "2013-09-20",
    "Municipio": "San Pedro",
    "Direccion": "José Vasconcelos 501_3, Tampiquito, 66220 NL, México",
    "lon": -100.3806992,
    "lat": 25.6535206,
    "id": "541a2cac908e69c4ed6fbd52"
  },
  {
    "Arbol_id": 1861,
    "Folio": 0,
    "Usuario_id": "usuario2382",
    "Fecha_plantado": "",
    "Especie": "Chinese Tallow",
    "Fecha_registro": "2013-09-20",
    "Municipio": "San Pedro",
    "Direccion": "José Vasconcelos 196, Tampiquito, 66240 NL, México",
    "lon": -100.3830795,
    "lat": 25.6545067,
    "id": "541a2cac908e69c4ed6fbd54"
  },
  {
    "Arbol_id": 1862,
    "Folio": 0,
    "Usuario_id": "usuario2382",
    "Fecha_plantado": "",
    "Especie": "Chinese Tallow",
    "Fecha_registro": "2013-09-20",
    "Municipio": "San Pedro",
    "Direccion": "José Vasconcelos 300-C AUTOS VALLE, Zona Tampiquito, 66240 NL, México",
    "lon": "",
    "lat": "",
    "id": "541a2cac908e69c4ed6fbd55"
  },
  {
    "Arbol_id": 1865,
    "Folio": 0,
    "Usuario_id": "usuario2382",
    "Fecha_plantado": "",
    "Especie": "Chinese Tallow",
    "Fecha_registro": "2013-09-20",
    "Municipio": "San Pedro",
    "Direccion": "José Vasconcelos 350, Bosques del Valle 1er Sector, 66250 NL, México",
    "lon": -100.3777084,
    "lat": 25.65205,
    "id": "541a2cac908e69c4ed6fbd58"
  },
  {
    "Arbol_id": 2024,
    "Folio": 0,
    "Usuario_id": "usuario2274",
    "Fecha_plantado": "",
    "Especie": "Chinese Tallow",
    "Fecha_registro": "2013-10-03",
    "Municipio": "Monterrey",
    "Direccion": "Felipe Villanueva 185, Colinas de San Jerónimo 11O. Sector, Monterrey, Nuevo Leon, Mexico",
    "lon": -100.3216705,
    "lat": 25.7403107,
    "id": "541a2cac908e69c4ed6fbde3"
  },
  {
    "Arbol_id": 2128,
    "Folio": 0,
    "Usuario_id": "usuario1850",
    "Fecha_plantado": "",
    "Especie": "Chinese Tallow",
    "Fecha_registro": "2013-10-09",
    "Municipio": "Escobedo",
    "Direccion": "Manuel Doblado 263, Casco Urbano, 66230 NL, México",
    "lon": "",
    "lat": "",
    "id": "541a2cac908e69c4ed6fbe40"
  },
  {
    "Arbol_id": 2130,
    "Folio": 0,
    "Usuario_id": "usuario1436",
    "Fecha_plantado": "",
    "Especie": "Chinese Tallow",
    "Fecha_registro": "2013-10-09",
    "Municipio": "San Pedro",
    "Direccion": "Río Guadalquivir 121, Del Valle, 66220 Monterrey, Nuevo Leon, Mexico",
    "lon": -100.3665543,
    "lat": 25.6615505,
    "id": "541a2cac908e69c4ed6fbe42"
  },
  {
    "Arbol_id": 2131,
    "Folio": 0,
    "Usuario_id": "usuario1436",
    "Fecha_plantado": "",
    "Especie": "Chinese Tallow",
    "Fecha_registro": "2013-10-09",
    "Municipio": "San Pedro",
    "Direccion": "Río Guadalquivir 110, Del Valle, 66220 Monterrey, Nuevo Leon, Mexico",
    "lon": -100.36689,
    "lat": 25.6613674,
    "id": "541a2cac908e69c4ed6fbe43"
  },
  {
    "Arbol_id": 2216,
    "Folio": 0,
    "Usuario_id": "usuario1165",
    "Fecha_plantado": "",
    "Especie": "Chinese Tallow",
    "Fecha_registro": "2013-10-10",
    "Municipio": "San Pedro",
    "Direccion": "Bosque del Olivo 400, Bosques del Valle 2o Sector, 66250 Nuevo Leon, Mexico",
    "lon": -100.3742065,
    "lat": 25.6458302,
    "id": "541a2cac908e69c4ed6fbe91"
  },
  {
    "Arbol_id": 2612,
    "Folio": 0,
    "Usuario_id": "usuario919",
    "Fecha_plantado": "",
    "Especie": "Chinese Tallow",
    "Fecha_registro": "2013-11-01",
    "Municipio": "Monterrey",
    "Direccion": "Bahía del Geógrafo, Rincon De La Primavera, 64835 Monterrey, NL, México",
    "lon": -100.2732773,
    "lat": 25.6501999,
    "id": "541a2cac908e69c4ed6fc003"
  },
  {
    "Arbol_id": 2614,
    "Folio": 0,
    "Usuario_id": "usuario919",
    "Fecha_plantado": "",
    "Especie": "Chinese Tallow",
    "Fecha_registro": "2013-11-01",
    "Municipio": "Monterrey",
    "Direccion": "Bahía de Las Islas, Rincon De La Primavera, 64835 Monterrey, NL, México",
    "lon": -100.2716599,
    "lat": 25.6491604,
    "id": "541a2cac908e69c4ed6fc005"
  },
  {
    "Arbol_id": 2632,
    "Folio": 0,
    "Usuario_id": "usuario1165",
    "Fecha_plantado": "",
    "Especie": "Chinese Tallow",
    "Fecha_registro": "2013-11-01",
    "Municipio": "San Pedro",
    "Direccion": "Mirador del Valle 103, Lomas del Valle, 66256 Monterrey, Nuevo Leon, Mexico",
    "lon": -100.3773575,
    "lat": 25.6412506,
    "id": "541a2cac908e69c4ed6fc016"
  },
  {
    "Arbol_id": 2635,
    "Folio": 0,
    "Usuario_id": "usuario1165",
    "Fecha_plantado": "",
    "Especie": "Chinese Tallow",
    "Fecha_registro": "2013-11-01",
    "Municipio": "San Pedro",
    "Direccion": "Mirador del Valle 103, Lomas del Valle, 66256 Monterrey, Nuevo Leon, Mexico",
    "lon": -100.3773575,
    "lat": 25.6412506,
    "id": "541a2cac908e69c4ed6fc019"
  },
  {
    "Arbol_id": 2718,
    "Folio": 0,
    "Usuario_id": "usuario1436",
    "Fecha_plantado": "",
    "Especie": "Chinese Tallow",
    "Fecha_registro": "2013-11-03",
    "Municipio": "San Pedro",
    "Direccion": "Río Guadalquivir 203-213, Del Valle, 66220 Monterrey, Nuevo Leon, Mexico",
    "lon": -100.3641586,
    "lat": 25.6608315,
    "id": "541a2cac908e69c4ed6fc069"
  },
  {
    "Arbol_id": 2893,
    "Folio": 432,
    "Usuario_id": "usuario637",
    "Fecha_plantado": "",
    "Especie": "Chinese Tallow",
    "Fecha_registro": "2013-11-09",
    "Municipio": "Monterrey",
    "Direccion": "Físicos 310, Tecnológico, 64700 Monterrey, NL, México",
    "lon": -100.2955933,
    "lat": 25.6499195,
    "id": "541a2cac908e69c4ed6fc10d"
  },
  {
    "Arbol_id": 2912,
    "Folio": 454,
    "Usuario_id": "usuario637",
    "Fecha_plantado": "",
    "Especie": "Chinese Tallow",
    "Fecha_registro": "2013-11-09",
    "Municipio": "Monterrey",
    "Direccion": "Físicos, Tecnológico, 64700 Monterrey, NL, México",
    "lon": -100.2948074,
    "lat": 25.6504993,
    "id": "541a2cac908e69c4ed6fc11d"
  },
  {
    "Arbol_id": 2916,
    "Folio": 210,
    "Usuario_id": "usuario637",
    "Fecha_plantado": "",
    "Especie": "Chinese Tallow",
    "Fecha_registro": "2013-11-09",
    "Municipio": "Monterrey",
    "Direccion": "Río Pánuco 2722, Tecnológico, 64700 Monterrey, NL, México",
    "lon": -100.2940445,
    "lat": 25.6456966,
    "id": "541a2cac908e69c4ed6fc121"
  },
  {
    "Arbol_id": 2926,
    "Folio": 133,
    "Usuario_id": "usuario1757",
    "Fecha_plantado": "",
    "Especie": "Chinese Tallow",
    "Fecha_registro": "2013-11-09",
    "Municipio": "Monterrey",
    "Direccion": "Juan Ignacio Ramón 123, Centro, 64000 Monterrey, Nuevo Leon, Mexico",
    "lon": -100.3147354,
    "lat": 25.671442,
    "id": "541a2cac908e69c4ed6fc128"
  },
  {
    "Arbol_id": 2931,
    "Folio": 133,
    "Usuario_id": "usuario1757",
    "Fecha_plantado": "",
    "Especie": "Chinese Tallow",
    "Fecha_registro": "2013-11-09",
    "Municipio": "Monterrey",
    "Direccion": "Julián Villagrán 545, Centro, 64000 Monterrey, Nuevo Leon, Mexico",
    "lon": -100.3235168,
    "lat": 25.6722107,
    "id": "541a2cac908e69c4ed6fc12b"
  },
  {
    "Arbol_id": 3003,
    "Folio": 29,
    "Usuario_id": "usuario637",
    "Fecha_plantado": "",
    "Especie": "Chinese Tallow",
    "Fecha_registro": "2013-11-17",
    "Municipio": "Monterrey",
    "Direccion": "Físicos 350, Tecnológico, 64700 Monterrey, NL, México",
    "lon": -100.2960815,
    "lat": 25.6496029,
    "id": "541a2cac908e69c4ed6fc169"
  },
  {
    "Arbol_id": 3028,
    "Folio": 126,
    "Usuario_id": "usuario637",
    "Fecha_plantado": "",
    "Especie": "Chinese Tallow",
    "Fecha_registro": "2013-11-17",
    "Municipio": "Monterrey",
    "Direccion": "Contadores 339, Tecnológico, 64700 Monterrey, NL, México",
    "lon": -100.2964478,
    "lat": 25.6496296,
    "id": "541a2cac908e69c4ed6fc181"
  },
  {
    "Arbol_id": 3029,
    "Folio": 312,
    "Usuario_id": "usuario637",
    "Fecha_plantado": "",
    "Especie": "Chinese Tallow",
    "Fecha_registro": "2013-11-17",
    "Municipio": "Monterrey",
    "Direccion": "Químicos 223_7, Tecnológico, 64700 Monterrey, NL, México",
    "lon": -100.2943115,
    "lat": 25.6490593,
    "id": "541a2cac908e69c4ed6fc182"
  },
  {
    "Arbol_id": 3030,
    "Folio": 127,
    "Usuario_id": "usuario637",
    "Fecha_plantado": "",
    "Especie": "Chinese Tallow",
    "Fecha_registro": "2013-11-17",
    "Municipio": "Monterrey",
    "Direccion": "Contadores 339, Tecnológico, 64700 Monterrey, NL, México",
    "lon": -100.2964478,
    "lat": 25.6496296,
    "id": "541a2cac908e69c4ed6fc183"
  },
  {
    "Arbol_id": 3031,
    "Folio": 313,
    "Usuario_id": "usuario637",
    "Fecha_plantado": "",
    "Especie": "Chinese Tallow",
    "Fecha_registro": "2013-11-17",
    "Municipio": "Monterrey",
    "Direccion": "Químicos 223_6, Tecnológico, 64700 Monterrey, NL, México",
    "lon": -100.2943115,
    "lat": 25.6490593,
    "id": "541a2cac908e69c4ed6fc184"
  },
  {
    "Arbol_id": 3160,
    "Folio": 0,
    "Usuario_id": "usuario2450",
    "Fecha_plantado": "",
    "Especie": "Chinese Tallow",
    "Fecha_registro": "2013-11-21",
    "Municipio": "San Nicolás",
    "Direccion": "Calle San Juan de La Cruz 501, Anáhuac, 66450 NL, México",
    "lon": -100.3084564,
    "lat": 25.7363796,
    "id": "541a2cac908e69c4ed6fc201"
  },
  {
    "Arbol_id": 3164,
    "Folio": 0,
    "Usuario_id": "usuario2450",
    "Fecha_plantado": "",
    "Especie": "Chinese Tallow",
    "Fecha_registro": "2013-11-21",
    "Municipio": "San Nicolás",
    "Direccion": "Calle José Santos Chocano 577, Anáhuac, 66450 NL, México",
    "lon": -100.3093872,
    "lat": 25.73592,
    "id": "541a2cac908e69c4ed6fc203"
  },
  {
    "Arbol_id": 3246,
    "Folio": 334,
    "Usuario_id": "usuario2382",
    "Fecha_plantado": "",
    "Especie": "Chinese Tallow",
    "Fecha_registro": "2013-11-23",
    "Municipio": "Monterrey",
    "Direccion": "Contadores 230, Tecnológico, 64700 Monterrey, NL, México",
    "lon": -100.2951279,
    "lat": 25.6509094,
    "id": "541a2cac908e69c4ed6fc252"
  },
  {
    "Arbol_id": 3250,
    "Folio": 342,
    "Usuario_id": "usuario2382",
    "Fecha_plantado": "",
    "Especie": "Chinese Tallow",
    "Fecha_registro": "2013-11-23",
    "Municipio": "Monterrey",
    "Direccion": "Contadores 230, Tecnológico, 64700 Monterrey, NL, México",
    "lon": -100.2951279,
    "lat": 25.6509094,
    "id": "541a2cac908e69c4ed6fc256"
  },
  {
    "Arbol_id": 3263,
    "Folio": 153,
    "Usuario_id": "usuario637",
    "Fecha_plantado": "",
    "Especie": "Chinese Tallow",
    "Fecha_registro": "2013-11-23",
    "Municipio": "Monterrey",
    "Direccion": "Bachilleres 105_7, Tecnológico, 64700 Monterrey, NL, México",
    "lon": -100.2938614,
    "lat": 25.6476402,
    "id": "541a2cac908e69c4ed6fc263"
  },
  {
    "Arbol_id": 3264,
    "Folio": 152,
    "Usuario_id": "usuario637",
    "Fecha_plantado": "",
    "Especie": "Chinese Tallow",
    "Fecha_registro": "2013-11-23",
    "Municipio": "Monterrey",
    "Direccion": "Bachilleres 105_6, Tecnológico, 64700 Monterrey, NL, México",
    "lon": -100.2938614,
    "lat": 25.6476402,
    "id": "541a2cac908e69c4ed6fc264"
  },
  {
    "Arbol_id": 3294,
    "Folio": 30,
    "Usuario_id": "usuario637",
    "Fecha_plantado": "",
    "Especie": "Chinese Tallow",
    "Fecha_registro": "2013-11-23",
    "Municipio": "Monterrey",
    "Direccion": "Físicos 350, Tecnológico, 64700 Monterrey, NL, México",
    "lon": -100.2960815,
    "lat": 25.6496029,
    "id": "541a2cac908e69c4ed6fc282"
  },
  {
    "Arbol_id": 3381,
    "Folio": 12,
    "Usuario_id": "usuario637",
    "Fecha_plantado": "",
    "Especie": "Chinese Tallow",
    "Fecha_registro": "2013-12-01",
    "Municipio": "Monterrey",
    "Direccion": "Técnicos 215B, Tecnológico, 64700 Monterrey, NL, México",
    "lon": -100.2930832,
    "lat": 25.6463909,
    "id": "541a2cac908e69c4ed6fc2d8"
  },
  {
    "Arbol_id": 3391,
    "Folio": 22,
    "Usuario_id": "usuario637",
    "Fecha_plantado": "",
    "Especie": "Chinese Tallow",
    "Fecha_registro": "2013-12-01",
    "Municipio": "Monterrey",
    "Direccion": "Técnicos 227, Tecnológico, 64700 Monterrey, NL, México",
    "lon": -100.2935715,
    "lat": 25.6460094,
    "id": "541a2cac908e69c4ed6fc2e2"
  },
  {
    "Arbol_id": 3392,
    "Folio": 23,
    "Usuario_id": "usuario637",
    "Fecha_plantado": "",
    "Especie": "Chinese Tallow",
    "Fecha_registro": "2013-12-01",
    "Municipio": "Monterrey",
    "Direccion": "Técnicos 227, Tecnológico, 64700 Monterrey, NL, México",
    "lon": -100.2935715,
    "lat": 25.6460094,
    "id": "541a2cac908e69c4ed6fc2e3"
  },
  {
    "Arbol_id": 3396,
    "Folio": 36,
    "Usuario_id": "usuario637",
    "Fecha_plantado": "",
    "Especie": "Chinese Tallow",
    "Fecha_registro": "2013-12-01",
    "Municipio": "Monterrey",
    "Direccion": "Luis Elizondo 335, Tecnológico, 64849 Monterrey, NL, México",
    "lon": -100.29245,
    "lat": 25.6459904,
    "id": "541a2cac908e69c4ed6fc2e7"
  },
  {
    "Arbol_id": 3436,
    "Folio": 124,
    "Usuario_id": "usuario637",
    "Fecha_plantado": "",
    "Especie": "Chinese Tallow",
    "Fecha_registro": "2013-12-01",
    "Municipio": "Monterrey",
    "Direccion": "Ingenieros 261, Tecnológico, 64700 Monterrey, NL, México",
    "lon": -100.2939682,
    "lat": 25.6466103,
    "id": "541a2cac908e69c4ed6fc30f"
  },
  {
    "Arbol_id": 3440,
    "Folio": 131,
    "Usuario_id": "usuario637",
    "Fecha_plantado": "",
    "Especie": "Chinese Tallow",
    "Fecha_registro": "2013-12-01",
    "Municipio": "Monterrey",
    "Direccion": "Ingenieros 237, Tecnológico, 64700 Monterrey, NL, México",
    "lon": -100.2930908,
    "lat": 25.6471996,
    "id": "541a2cac908e69c4ed6fc313"
  },
  {
    "Arbol_id": 3445,
    "Folio": 137,
    "Usuario_id": "usuario637",
    "Fecha_plantado": "",
    "Especie": "Chinese Tallow",
    "Fecha_registro": "2013-12-01",
    "Municipio": "Monterrey",
    "Direccion": "Ingenieros 221, Tecnológico, 64700 Monterrey, NL, México",
    "lon": -100.2925186,
    "lat": 25.6476307,
    "id": "541a2cac908e69c4ed6fc318"
  },
  {
    "Arbol_id": 3446,
    "Folio": 136,
    "Usuario_id": "usuario637",
    "Fecha_plantado": "",
    "Especie": "Chinese Tallow",
    "Fecha_registro": "2013-12-01",
    "Municipio": "Monterrey",
    "Direccion": "Ingenieros 225, Tecnológico, 64700 Monterrey, NL, México",
    "lon": -100.2926407,
    "lat": 25.6476192,
    "id": "541a2cac908e69c4ed6fc319"
  },
  {
    "Arbol_id": 3454,
    "Folio": 0,
    "Usuario_id": "usuario1757",
    "Fecha_plantado": "",
    "Especie": "Chinese Tallow",
    "Fecha_registro": "2013-12-01",
    "Municipio": "Monterrey",
    "Direccion": "Juan Álvarez 517, Centro, 64000 Monterrey, Nuevo Leon, Mexico",
    "lon": -100.324173,
    "lat": 25.6725006,
    "id": "541a2cac908e69c4ed6fc321"
  },
  {
    "Arbol_id": 3460,
    "Folio": 0,
    "Usuario_id": "usuario1757",
    "Fecha_plantado": "",
    "Especie": "Chinese Tallow",
    "Fecha_registro": "2013-12-01",
    "Municipio": "Monterrey",
    "Direccion": "Miguel Filomeno Martínez 550, Centro, 64000 Monterrey, Nuevo Leon, Mexico",
    "lon": -100.3219986,
    "lat": 25.6733704,
    "id": "541a2cac908e69c4ed6fc327"
  },
  {
    "Arbol_id": 3461,
    "Folio": 0,
    "Usuario_id": "usuario1757",
    "Fecha_plantado": "",
    "Especie": "Chinese Tallow",
    "Fecha_registro": "2013-12-01",
    "Municipio": "Monterrey",
    "Direccion": "Miguel Filomeno Martínez 558A, Centro, 64000 Monterrey, Nuevo Leon, Mexico",
    "lon": -100.3219833,
    "lat": 25.673214,
    "id": "541a2cac908e69c4ed6fc328"
  },
  {
    "Arbol_id": 3497,
    "Folio": 223,
    "Usuario_id": "usuario637",
    "Fecha_plantado": "",
    "Especie": "Chinese Tallow",
    "Fecha_registro": "2013-12-02",
    "Municipio": "Monterrey",
    "Direccion": "Río Pánuco 2490, Tecnológico, 64700 Monterrey, NL, México",
    "lon": -100.2955246,
    "lat": 25.6474075,
    "id": "541a2cac908e69c4ed6fc34c"
  },
  {
    "Arbol_id": 3498,
    "Folio": 222,
    "Usuario_id": "usuario637",
    "Fecha_plantado": "",
    "Especie": "Chinese Tallow",
    "Fecha_registro": "2013-12-02",
    "Municipio": "Monterrey",
    "Direccion": "Río Pánuco 2480, Tecnológico, 64700 Monterrey, NL, México",
    "lon": -100.2955399,
    "lat": 25.6474209,
    "id": "541a2cac908e69c4ed6fc34d"
  },
  {
    "Arbol_id": 3741,
    "Folio": 0,
    "Usuario_id": "usuario1182",
    "Fecha_plantado": "",
    "Especie": "Chinese Tallow",
    "Fecha_registro": "2013-12-22",
    "Municipio": "Monterrey",
    "Direccion": "Calle Angel Martínez Villarreal 2728, Chepevera, 64030 Monterrey, NL, México",
    "lon": -100.3407211,
    "lat": 25.6810398,
    "id": "541a2cac908e69c4ed6fc432"
  },
  {
    "Arbol_id": 3758,
    "Folio": 0,
    "Usuario_id": "usuario1182",
    "Fecha_plantado": "",
    "Especie": "Chinese Tallow",
    "Fecha_registro": "2013-12-22",
    "Municipio": "Monterrey",
    "Direccion": "José F. Muguerza 2680, Lomas, Cheperavera, 64030 Monterrey, NL, México",
    "lon": -100.3390121,
    "lat": 25.6802807,
    "id": "541a2cac908e69c4ed6fc442"
  },
  {
    "Arbol_id": 3762,
    "Folio": 0,
    "Usuario_id": "usuario1182",
    "Fecha_plantado": "",
    "Especie": "Chinese Tallow",
    "Fecha_registro": "2013-12-22",
    "Municipio": "Monterrey",
    "Direccion": "Patricio Milmo 177, Centro, 64000 Monterrey, NL, México",
    "lon": -100.3373108,
    "lat": 25.6804199,
    "id": "541a2cac908e69c4ed6fc446"
  },
  {
    "Arbol_id": 3791,
    "Folio": 239,
    "Usuario_id": "usuario1822",
    "Fecha_plantado": "",
    "Especie": "Chinese Tallow",
    "Fecha_registro": "2013-12-23",
    "Municipio": "San Nicolás",
    "Direccion": "Higuera, Getsemaní, 66425 NL, México",
    "lon": -100.3023911,
    "lat": 25.7592602,
    "id": "541a2cac908e69c4ed6fc462"
  },
  {
    "Arbol_id": 4172,
    "Folio": 0,
    "Usuario_id": "usuario2273",
    "Fecha_plantado": "",
    "Especie": "Chinese Tallow",
    "Fecha_registro": "2014-01-24",
    "Municipio": "Guadalupe",
    "Direccion": "Hipócrates 719-737, Contry La Silla 1er Sector, 67173 NL, México",
    "lon": -100.2667618,
    "lat": 25.6242695,
    "id": "541a2cac908e69c4ed6fc5d1"
  },
  {
    "Arbol_id": 4257,
    "Folio": 0,
    "Usuario_id": "usuario2255",
    "Fecha_plantado": "",
    "Especie": "Chinese Tallow",
    "Fecha_registro": "2014-01-24",
    "Municipio": "Guadalupe",
    "Direccion": "Sócrates 674-682, Contry La Silla 1er Sector, 67173 NL, México",
    "lon": -100.2686691,
    "lat": 25.6251392,
    "id": "541a2cad908e69c4ed6fc622"
  },
  {
    "Arbol_id": 4258,
    "Folio": 0,
    "Usuario_id": "usuario2255",
    "Fecha_plantado": "",
    "Especie": "Chinese Tallow",
    "Fecha_registro": "2014-01-24",
    "Municipio": "Guadalupe",
    "Direccion": "Sócrates 901-913, Contry La Silla 1er Sector, 67173 NL, México",
    "lon": -100.2693634,
    "lat": 25.6248894,
    "id": "541a2cad908e69c4ed6fc623"
  },
  {
    "Arbol_id": 4275,
    "Folio": 0,
    "Usuario_id": "usuario2273",
    "Fecha_plantado": "",
    "Especie": "Chinese Tallow",
    "Fecha_registro": "2014-01-24",
    "Municipio": "Guadalupe",
    "Direccion": "Marco Tulio Cicerón 690, Contry La Silla 1er Sector, 67173 NL, México",
    "lon": -100.2679977,
    "lat": 25.6248798,
    "id": "541a2cad908e69c4ed6fc633"
  },
  {
    "Arbol_id": 4311,
    "Folio": 0,
    "Usuario_id": "usuario2255",
    "Fecha_plantado": "",
    "Especie": "Chinese Tallow",
    "Fecha_registro": "2014-01-24",
    "Municipio": "Guadalupe",
    "Direccion": "Marco Tulio Cicerón 651-654, Contry La Silla 1er Sector, 67173 NL, México",
    "lon": -100.2686462,
    "lat": 25.6245899,
    "id": "541a2cad908e69c4ed6fc656"
  },
  {
    "Arbol_id": 4312,
    "Folio": 0,
    "Usuario_id": "usuario2255",
    "Fecha_plantado": "",
    "Especie": "Chinese Tallow",
    "Fecha_registro": "2014-01-24",
    "Municipio": "Guadalupe",
    "Direccion": "Marco Tulio Cicerón 651-654, Contry La Silla 1er Sector, 67173 NL, México",
    "lon": -100.2686462,
    "lat": 25.6245899,
    "id": "541a2cad908e69c4ed6fc657"
  },
  {
    "Arbol_id": 4313,
    "Folio": 0,
    "Usuario_id": "usuario2255",
    "Fecha_plantado": "",
    "Especie": "Chinese Tallow",
    "Fecha_registro": "2014-01-24",
    "Municipio": "Guadalupe",
    "Direccion": "Marco Tulio Cicerón 651-654, Contry La Silla 1er Sector, 67173 NL, México",
    "lon": -100.2686462,
    "lat": 25.6245899,
    "id": "541a2cad908e69c4ed6fc658"
  },
  {
    "Arbol_id": 4372,
    "Folio": 0,
    "Usuario_id": "usuario2273",
    "Fecha_plantado": "",
    "Especie": "Chinese Tallow",
    "Fecha_registro": "2014-01-27",
    "Municipio": "Guadalupe",
    "Direccion": "John F. Kennedy 3125, Contry La Silla 1er Sector, 67173 NL, México",
    "lon": -100.2712936,
    "lat": 25.62603,
    "id": "541a2cad908e69c4ed6fc693"
  },
  {
    "Arbol_id": 4374,
    "Folio": 0,
    "Usuario_id": "usuario2273",
    "Fecha_plantado": "",
    "Especie": "Chinese Tallow",
    "Fecha_registro": "2014-01-27",
    "Municipio": "Guadalupe",
    "Direccion": "John F. Kennedy 3125, Contry La Silla 1er Sector, 67173 NL, México",
    "lon": -100.2712936,
    "lat": 25.62603,
    "id": "541a2cad908e69c4ed6fc695"
  },
  {
    "Arbol_id": 4376,
    "Folio": 0,
    "Usuario_id": "usuario2273",
    "Fecha_plantado": "",
    "Especie": "Chinese Tallow",
    "Fecha_registro": "2014-01-27",
    "Municipio": "Guadalupe",
    "Direccion": "John F. Kennedy 3125, Contry La Silla 1er Sector, 67173 NL, México",
    "lon": -100.2712936,
    "lat": 25.62603,
    "id": "541a2cad908e69c4ed6fc697"
  },
  {
    "Arbol_id": 4377,
    "Folio": 0,
    "Usuario_id": "usuario2273",
    "Fecha_plantado": "",
    "Especie": "Chinese Tallow",
    "Fecha_registro": "2014-01-27",
    "Municipio": "Guadalupe",
    "Direccion": "Juan Gutenberg 3120, Contry La Silla 1er Sector, 67173 NL, México",
    "lon": -100.2708206,
    "lat": 25.6261406,
    "id": "541a2cad908e69c4ed6fc698"
  },
  {
    "Arbol_id": 4379,
    "Folio": 0,
    "Usuario_id": "usuario2273",
    "Fecha_plantado": "",
    "Especie": "Chinese Tallow",
    "Fecha_registro": "2014-01-27",
    "Municipio": "Guadalupe",
    "Direccion": "Juan Gutenberg 3120, Contry La Silla 1er Sector, 67173 NL, México",
    "lon": -100.2708206,
    "lat": 25.6261406,
    "id": "541a2cad908e69c4ed6fc69a"
  },
  {
    "Arbol_id": 4384,
    "Folio": 0,
    "Usuario_id": "usuario2273",
    "Fecha_plantado": "",
    "Especie": "Chinese Tallow",
    "Fecha_registro": "2014-01-27",
    "Municipio": "Guadalupe",
    "Direccion": "Juan Gutenberg 3120, Contry La Silla 1er Sector, 67173 NL, México",
    "lon": -100.2708206,
    "lat": 25.6261406,
    "id": "541a2cad908e69c4ed6fc69f"
  },
  {
    "Arbol_id": 4385,
    "Folio": 0,
    "Usuario_id": "usuario2273",
    "Fecha_plantado": "",
    "Especie": "Chinese Tallow",
    "Fecha_registro": "2014-01-27",
    "Municipio": "Guadalupe",
    "Direccion": "Juan Gutenberg 3120, Contry La Silla 1er Sector, 67173 NL, México",
    "lon": -100.2708206,
    "lat": 25.6261406,
    "id": "541a2cad908e69c4ed6fc6a0"
  },
  {
    "Arbol_id": 4387,
    "Folio": 0,
    "Usuario_id": "usuario2273",
    "Fecha_plantado": "",
    "Especie": "Chinese Tallow",
    "Fecha_registro": "2014-01-27",
    "Municipio": "Guadalupe",
    "Direccion": "Juan Gutenberg 3120, Contry La Silla 1er Sector, 67173 NL, México",
    "lon": -100.2708206,
    "lat": 25.6261406,
    "id": "541a2cad908e69c4ed6fc6a2"
  },
  {
    "Arbol_id": 4388,
    "Folio": 0,
    "Usuario_id": "usuario2273",
    "Fecha_plantado": "",
    "Especie": "Chinese Tallow",
    "Fecha_registro": "2014-01-27",
    "Municipio": "Guadalupe",
    "Direccion": "Juan Gutenberg 3120-3160, Contry La Silla 1er Sector, 67173 NL, México",
    "lon": -100.2708206,
    "lat": 25.6261406,
    "id": "541a2cad908e69c4ed6fc6a3"
  },
  {
    "Arbol_id": 4529,
    "Folio": 0,
    "Usuario_id": "usuario2273",
    "Fecha_plantado": "",
    "Especie": "Chinese Tallow",
    "Fecha_registro": "2014-01-28",
    "Municipio": "Guadalupe",
    "Direccion": "Hipócrates 799, Contry La Silla 1er Sector, 67173 NL, México",
    "lon": -100.2644501,
    "lat": 25.6229305,
    "id": "541a2cad908e69c4ed6fc72e"
  },
  {
    "Arbol_id": 4560,
    "Folio": 0,
    "Usuario_id": "usuario2273",
    "Fecha_plantado": "",
    "Especie": "Chinese Tallow",
    "Fecha_registro": "2014-01-28",
    "Municipio": "Guadalupe",
    "Direccion": "Aristóteles 776, Contry La Silla 1er Sector, 67173 NL, México",
    "lon": -100.2652664,
    "lat": 25.6240902,
    "id": "541a2cad908e69c4ed6fc74d"
  },
  {
    "Arbol_id": 4589,
    "Folio": 0,
    "Usuario_id": "usuario2273",
    "Fecha_plantado": "",
    "Especie": "Chinese Tallow",
    "Fecha_registro": "2014-01-28",
    "Municipio": "Guadalupe",
    "Direccion": "Evangelina Torricelli 555, Contry La Silla 1er Sector, NL, México",
    "lon": "",
    "lat": "",
    "id": "541a2cad908e69c4ed6fc769"
  },
  {
    "Arbol_id": 4611,
    "Folio": 0,
    "Usuario_id": "usuario2273",
    "Fecha_plantado": "",
    "Especie": "Chinese Tallow",
    "Fecha_registro": "2014-01-28",
    "Municipio": "Guadalupe",
    "Direccion": "Aristóteles 782, Contry La Silla 1er Sector, 67173 NL, México",
    "lon": -100.2645111,
    "lat": 25.6233997,
    "id": "541a2cad908e69c4ed6fc77d"
  },
  {
    "Arbol_id": 4614,
    "Folio": 0,
    "Usuario_id": "usuario2273",
    "Fecha_plantado": "",
    "Especie": "Chinese Tallow",
    "Fecha_registro": "2014-01-28",
    "Municipio": "Guadalupe",
    "Direccion": "Aristóteles 782, Contry La Silla 1er Sector, 67173 NL, México",
    "lon": -100.2645111,
    "lat": 25.6233997,
    "id": "541a2cad908e69c4ed6fc780"
  },
  {
    "Arbol_id": 4632,
    "Folio": 0,
    "Usuario_id": "usuario2273",
    "Fecha_plantado": "",
    "Especie": "Chinese Tallow",
    "Fecha_registro": "2014-01-28",
    "Municipio": "Guadalupe",
    "Direccion": "Aristóteles 760, Contry La Silla 1er Sector, 67173 NL, México",
    "lon": -100.2648163,
    "lat": 25.6238499,
    "id": "541a2cad908e69c4ed6fc792"
  },
  {
    "Arbol_id": 4633,
    "Folio": 0,
    "Usuario_id": "usuario2273",
    "Fecha_plantado": "",
    "Especie": "Chinese Tallow",
    "Fecha_registro": "2014-01-28",
    "Municipio": "Guadalupe",
    "Direccion": "Aristóteles 760, Contry La Silla 1er Sector, 67173 NL, México",
    "lon": -100.2648163,
    "lat": 25.6238499,
    "id": "541a2cad908e69c4ed6fc793"
  },
  {
    "Arbol_id": 4634,
    "Folio": 0,
    "Usuario_id": "usuario2273",
    "Fecha_plantado": "",
    "Especie": "Chinese Tallow",
    "Fecha_registro": "2014-01-28",
    "Municipio": "Guadalupe",
    "Direccion": "Aristóteles 736, Contry La Silla 1er Sector, 67173 NL, México",
    "lon": -100.265419,
    "lat": 25.6241093,
    "id": "541a2cad908e69c4ed6fc794"
  },
  {
    "Arbol_id": 4636,
    "Folio": 0,
    "Usuario_id": "usuario2273",
    "Fecha_plantado": "",
    "Especie": "Chinese Tallow",
    "Fecha_registro": "2014-01-28",
    "Municipio": "Guadalupe",
    "Direccion": "Aristóteles 736, Contry La Silla 1er Sector, 67173 NL, México",
    "lon": -100.265419,
    "lat": 25.6241093,
    "id": "541a2cad908e69c4ed6fc796"
  },
  {
    "Arbol_id": 4692,
    "Folio": 0,
    "Usuario_id": "usuario2273",
    "Fecha_plantado": "",
    "Especie": "Chinese Tallow",
    "Fecha_registro": "2014-01-28",
    "Municipio": "Guadalupe",
    "Direccion": "René Descartes 535, Contry Los Nogales, 67173 Monterrey, NL, México",
    "lon": -100.4031219,
    "lat": 25.7942104,
    "id": "541a2cad908e69c4ed6fc7ce"
  },
  {
    "Arbol_id": 5392,
    "Folio": 0,
    "Usuario_id": "usuario2273",
    "Fecha_plantado": "",
    "Especie": "Chinese Tallow",
    "Fecha_registro": "2014-02-04",
    "Municipio": "Guadalupe",
    "Direccion": "Platón 714, Contry La Silla 1er Sector, 67173 NL, México",
    "lon": -100.266037,
    "lat": 25.6251106,
    "id": "541a2cad908e69c4ed6fca79"
  },
  {
    "Arbol_id": 5396,
    "Folio": 0,
    "Usuario_id": "usuario2273",
    "Fecha_plantado": "",
    "Especie": "Chinese Tallow",
    "Fecha_registro": "2014-02-04",
    "Municipio": "Guadalupe",
    "Direccion": "Platón 714, Contry La Silla 1er Sector, 67173 NL, México",
    "lon": -100.266037,
    "lat": 25.6251106,
    "id": "541a2cad908e69c4ed6fca7d"
  },
  {
    "Arbol_id": 5450,
    "Folio": 0,
    "Usuario_id": "usuario2273",
    "Fecha_plantado": "",
    "Especie": "Chinese Tallow",
    "Fecha_registro": "2014-02-05",
    "Municipio": "Guadalupe",
    "Direccion": "Platón 756, Contry La Silla 1er Sector, 67173 NL, México",
    "lon": -100.2643967,
    "lat": 25.6243305,
    "id": "541a2cad908e69c4ed6fcaad"
  },
  {
    "Arbol_id": 5509,
    "Folio": 0,
    "Usuario_id": "usuario2273",
    "Fecha_plantado": "",
    "Especie": "Chinese Tallow",
    "Fecha_registro": "2014-02-05",
    "Municipio": "Guadalupe",
    "Direccion": "Platón 782, Contry La Silla 1er Sector, 67173 NL, México",
    "lon": -100.2641678,
    "lat": 25.6238594,
    "id": "541a2cad908e69c4ed6fcae8"
  },
  {
    "Arbol_id": 5544,
    "Folio": 0,
    "Usuario_id": "usuario2273",
    "Fecha_plantado": "",
    "Especie": "Chinese Tallow",
    "Fecha_registro": "2014-02-05",
    "Municipio": "Guadalupe",
    "Direccion": "Contry La Silla 1er Sector, NL, México",
    "lon": "",
    "lat": "",
    "id": "541a2cad908e69c4ed6fcb0b"
  },
  {
    "Arbol_id": 5547,
    "Folio": 0,
    "Usuario_id": "usuario2273",
    "Fecha_plantado": "",
    "Especie": "Chinese Tallow",
    "Fecha_registro": "2014-02-05",
    "Municipio": "Guadalupe",
    "Direccion": "Ptolomeo 705, Contry La Escondida, 67173 NL, México",
    "lon": -100.2656479,
    "lat": 25.6274395,
    "id": "541a2cad908e69c4ed6fcb0e"
  },
  {
    "Arbol_id": 5549,
    "Folio": 0,
    "Usuario_id": "usuario2273",
    "Fecha_plantado": "",
    "Especie": "Chinese Tallow",
    "Fecha_registro": "2014-02-05",
    "Municipio": "Guadalupe",
    "Direccion": "Ptolomeo 705, Contry La Escondida, 67173 NL, México",
    "lon": -100.2656479,
    "lat": 25.6274395,
    "id": "541a2cad908e69c4ed6fcb10"
  },
  {
    "Arbol_id": 5554,
    "Folio": 0,
    "Usuario_id": "usuario2273",
    "Fecha_plantado": "",
    "Especie": "Chinese Tallow",
    "Fecha_registro": "2014-02-05",
    "Municipio": "Guadalupe",
    "Direccion": "Ptolomeo 841, Contry La Escondida, 67173 NL, México",
    "lon": -100.2653275,
    "lat": 25.6281796,
    "id": "541a2cad908e69c4ed6fcb15"
  },
  {
    "Arbol_id": 5595,
    "Folio": 0,
    "Usuario_id": "usuario2273",
    "Fecha_plantado": "",
    "Especie": "Chinese Tallow",
    "Fecha_registro": "2014-02-06",
    "Municipio": "Guadalupe",
    "Direccion": "Platón 799, Contry La Silla 1er Sector, 67173 NL, México",
    "lon": -100.2638016,
    "lat": 25.6239204,
    "id": "541a2cad908e69c4ed6fcb3e"
  },
  {
    "Arbol_id": 5598,
    "Folio": 0,
    "Usuario_id": "usuario2273",
    "Fecha_plantado": "",
    "Especie": "Chinese Tallow",
    "Fecha_registro": "2014-02-06",
    "Municipio": "Guadalupe",
    "Direccion": "Ptolomeo 813, Contry La Escondida, 67173 NL, México",
    "lon": -100.2656784,
    "lat": 25.6268997,
    "id": "541a2cad908e69c4ed6fcb41"
  },
  {
    "Arbol_id": 5601,
    "Folio": 0,
    "Usuario_id": "usuario2273",
    "Fecha_plantado": "",
    "Especie": "Chinese Tallow",
    "Fecha_registro": "2014-02-06",
    "Municipio": "Guadalupe",
    "Direccion": "Ptolomeo 809, Contry La Escondida, 67173 NL, México",
    "lon": -100.2657166,
    "lat": 25.6271191,
    "id": "541a2cad908e69c4ed6fcb44"
  },
  {
    "Arbol_id": 5606,
    "Folio": 0,
    "Usuario_id": "usuario2273",
    "Fecha_plantado": "",
    "Especie": "Chinese Tallow",
    "Fecha_registro": "2014-02-06",
    "Municipio": "Guadalupe",
    "Direccion": "Ptolomeo 805, Contry La Escondida, 67173 NL, México",
    "lon": -100.2657089,
    "lat": 25.6271992,
    "id": "541a2cad908e69c4ed6fcb49"
  },
  {
    "Arbol_id": 5727,
    "Folio": 0,
    "Usuario_id": "usuario2273",
    "Fecha_plantado": "",
    "Especie": "Chinese Tallow",
    "Fecha_registro": "2014-02-06",
    "Municipio": "Guadalupe",
    "Direccion": "Platón 755, Contry La Silla 1er Sector, 67173 NL, México",
    "lon": -100.2649231,
    "lat": 25.62467,
    "id": "541a2cad908e69c4ed6fcbc2"
  },
  {
    "Arbol_id": 5962,
    "Folio": 0,
    "Usuario_id": "usuario2273",
    "Fecha_plantado": "",
    "Especie": "Chinese Tallow",
    "Fecha_registro": "2014-02-07",
    "Municipio": "Guadalupe",
    "Direccion": "Ptolomeo 826, Contry La Escondida, 67173 NL, México",
    "lon": -100.2655106,
    "lat": 25.6280499,
    "id": "541a2cad908e69c4ed6fccab"
  },
  {
    "Arbol_id": 5971,
    "Folio": 0,
    "Usuario_id": "usuario2273",
    "Fecha_plantado": "",
    "Especie": "Chinese Tallow",
    "Fecha_registro": "2014-02-07",
    "Municipio": "Guadalupe",
    "Direccion": "Ptolomeo 826, Contry La Escondida, 67173 NL, México",
    "lon": -100.2655106,
    "lat": 25.6280499,
    "id": "541a2cad908e69c4ed6fccb4"
  },
  {
    "Arbol_id": 5976,
    "Folio": 0,
    "Usuario_id": "usuario2273",
    "Fecha_plantado": "",
    "Especie": "Chinese Tallow",
    "Fecha_registro": "2014-02-07",
    "Municipio": "Guadalupe",
    "Direccion": "Ptolomeo 842, Contry La Escondida, 67173 NL, México",
    "lon": -100.2651215,
    "lat": 25.6286201,
    "id": "541a2cad908e69c4ed6fccb9"
  },
  {
    "Arbol_id": 6190,
    "Folio": 0,
    "Usuario_id": "usuario2273",
    "Fecha_plantado": "",
    "Especie": "Chinese Tallow",
    "Fecha_registro": "2014-02-10",
    "Municipio": "Guadalupe",
    "Direccion": "Alejandro Volta 785, Sin Nombre de Colonia 53, NL, México",
    "lon": "",
    "lat": "",
    "id": "541a2cad908e69c4ed6fcd8e"
  },
  {
    "Arbol_id": 6477,
    "Folio": 0,
    "Usuario_id": "usuario2273",
    "Fecha_plantado": "",
    "Especie": "Chinese Tallow",
    "Fecha_registro": "2014-02-11",
    "Municipio": "Guadalupe",
    "Direccion": "Marejada 3407, Riberas del Río, 67160 NL, México",
    "lon": -100.2193298,
    "lat": 25.6776905,
    "id": "541a2cad908e69c4ed6fceab"
  },
  {
    "Arbol_id": 6759,
    "Folio": 0,
    "Usuario_id": "usuario2273",
    "Fecha_plantado": "",
    "Especie": "Chinese Tallow",
    "Fecha_registro": "2014-02-12",
    "Municipio": "Guadalupe",
    "Direccion": "Pleamar 3398, Riberas del Río, 67160 NL, México",
    "lon": -100.2192612,
    "lat": 25.6791706,
    "id": "541a2cad908e69c4ed6fcfc3"
  },
  {
    "Arbol_id": 7475,
    "Folio": 1000050,
    "Usuario_id": "usuario2101",
    "Fecha_plantado": "",
    "Especie": "Chinese Tallow",
    "Fecha_registro": "2014-02-14",
    "Municipio": "San Pedro",
    "Direccion": "Niños Heroes 103B, Casco Urbano, 66230 NL, México",
    "lon": "",
    "lat": "",
    "id": "541a2cad908e69c4ed6fd283"
  },
  {
    "Arbol_id": 8283,
    "Folio": 0,
    "Usuario_id": "usuario2273",
    "Fecha_plantado": "",
    "Especie": "Chinese Tallow",
    "Fecha_registro": "2014-02-19",
    "Municipio": "Guadalupe",
    "Direccion": "Paseo de las Americas 2841, Contry La Silla 4o Sector, 67173 NL, México",
    "lon": -100.2687912,
    "lat": 25.6324005,
    "id": "541a2cae908e69c4ed6fd5a7"
  },
  {
    "Arbol_id": 8335,
    "Folio": 0,
    "Usuario_id": "usuario2273",
    "Fecha_plantado": "",
    "Especie": "Chinese Tallow",
    "Fecha_registro": "2014-02-19",
    "Municipio": "Guadalupe",
    "Direccion": "Benjamín Franklin 888, Contry La Silla 1er Sector, 67173 NL, México",
    "lon": -100.2668381,
    "lat": 25.6258202,
    "id": "541a2cae908e69c4ed6fd5db"
  },
  {
    "Arbol_id": 8357,
    "Folio": 0,
    "Usuario_id": "usuario2273",
    "Fecha_plantado": "",
    "Especie": "Chinese Tallow",
    "Fecha_registro": "2014-02-19",
    "Municipio": "Guadalupe",
    "Direccion": "Benjamín Franklin 888, Contry La Silla 1er Sector, 67173 NL, México",
    "lon": -100.2668381,
    "lat": 25.6258202,
    "id": "541a2cae908e69c4ed6fd5f1"
  },
  {
    "Arbol_id": 8671,
    "Folio": 0,
    "Usuario_id": "usuario2273",
    "Fecha_plantado": "",
    "Especie": "Chinese Tallow",
    "Fecha_registro": "2014-02-20",
    "Municipio": "Guadalupe",
    "Direccion": "Paseo de las Americas 2702, Contry La Silla 4o Sector, 67173 Guadalupe, NL, México",
    "lon": -100.2680817,
    "lat": 25.6359806,
    "id": "541a2cae908e69c4ed6fd722"
  },
  {
    "Arbol_id": 8734,
    "Folio": 0,
    "Usuario_id": "usuario2273",
    "Fecha_plantado": "",
    "Especie": "Chinese Tallow",
    "Fecha_registro": "2014-02-20",
    "Municipio": "Guadalupe",
    "Direccion": "Einstein 2701, Contry La Silla 4o Sector, 67173 NL, México",
    "lon": -100.2673111,
    "lat": 25.6361103,
    "id": "541a2cae908e69c4ed6fd761"
  },
  {
    "Arbol_id": 8737,
    "Folio": 0,
    "Usuario_id": "usuario2273",
    "Fecha_plantado": "",
    "Especie": "Chinese Tallow",
    "Fecha_registro": "2014-02-20",
    "Municipio": "Guadalupe",
    "Direccion": "Einstein 2701, Contry La Silla 4o Sector, 67173 NL, México",
    "lon": -100.2673111,
    "lat": 25.6361103,
    "id": "541a2cae908e69c4ed6fd764"
  },
  {
    "Arbol_id": 8738,
    "Folio": 0,
    "Usuario_id": "usuario2273",
    "Fecha_plantado": "",
    "Especie": "Chinese Tallow",
    "Fecha_registro": "2014-02-20",
    "Municipio": "Guadalupe",
    "Direccion": "Einstein 2701, Contry La Silla 4o Sector, 67173 NL, México",
    "lon": -100.2673111,
    "lat": 25.6361103,
    "id": "541a2cae908e69c4ed6fd765"
  },
  {
    "Arbol_id": 8805,
    "Folio": 0,
    "Usuario_id": "usuario2273",
    "Fecha_plantado": "",
    "Especie": "Chinese Tallow",
    "Fecha_registro": "2014-02-20",
    "Municipio": "Guadalupe",
    "Direccion": "Albert Einstein 700, Contry La Silla 4o Sector, 67173 NL, México",
    "lon": -100.2667084,
    "lat": 25.6358395,
    "id": "541a2cae908e69c4ed6fd7a8"
  },
  {
    "Arbol_id": 8851,
    "Folio": 0,
    "Usuario_id": "usuario2273",
    "Fecha_plantado": "",
    "Especie": "Chinese Tallow",
    "Fecha_registro": "2014-02-21",
    "Municipio": "Guadalupe",
    "Direccion": "William Shakespeare 741, Contry La Silla 4o Sector, 67173 NL, México",
    "lon": -100.2671814,
    "lat": 25.6364708,
    "id": "541a2cae908e69c4ed6fd7d3"
  },
  {
    "Arbol_id": 8863,
    "Folio": 0,
    "Usuario_id": "usuario2273",
    "Fecha_plantado": "",
    "Especie": "Chinese Tallow",
    "Fecha_registro": "2014-02-21",
    "Municipio": "Guadalupe",
    "Direccion": "William Shakespeare 367, Contry La Silla 4o Sector, 67173 NL, México",
    "lon": -100.2670822,
    "lat": 25.6357994,
    "id": "541a2cae908e69c4ed6fd7dd"
  },
  {
    "Arbol_id": 8877,
    "Folio": 0,
    "Usuario_id": "usuario2273",
    "Fecha_plantado": "",
    "Especie": "Chinese Tallow",
    "Fecha_registro": "2014-02-21",
    "Municipio": "Guadalupe",
    "Direccion": "Albert Einstein 2648, Contry La Silla 4o Sector, 67173 NL, México",
    "lon": -100.2659836,
    "lat": 25.6368599,
    "id": "541a2cae908e69c4ed6fd7ea"
  },
  {
    "Arbol_id": 8938,
    "Folio": 0,
    "Usuario_id": "usuario2273",
    "Fecha_plantado": "",
    "Especie": "Chinese Tallow",
    "Fecha_registro": "2014-02-21",
    "Municipio": "Guadalupe",
    "Direccion": "Pedro Calderón de La Barça 2747-2771, Contry La Silla 4o Sector, 67173 NL, México",
    "lon": -100.2677383,
    "lat": 25.6350594,
    "id": "541a2cae908e69c4ed6fd827"
  },
  {
    "Arbol_id": 8940,
    "Folio": 0,
    "Usuario_id": "usuario2273",
    "Fecha_plantado": "",
    "Especie": "Chinese Tallow",
    "Fecha_registro": "2014-02-21",
    "Municipio": "Guadalupe",
    "Direccion": "Pedro Calderón de La Barça 2747-2771, Contry La Silla 4o Sector, 67173 NL, México",
    "lon": -100.2677383,
    "lat": 25.6350594,
    "id": "541a2cae908e69c4ed6fd829"
  },
  {
    "Arbol_id": 8942,
    "Folio": 0,
    "Usuario_id": "usuario2273",
    "Fecha_plantado": "",
    "Especie": "Chinese Tallow",
    "Fecha_registro": "2014-02-21",
    "Municipio": "Guadalupe",
    "Direccion": "Pedro Calderón de La Barça 2747-2771, Contry La Silla 4o Sector, 67173 NL, México",
    "lon": -100.2677383,
    "lat": 25.6350594,
    "id": "541a2cae908e69c4ed6fd82b"
  },
  {
    "Arbol_id": 8948,
    "Folio": 0,
    "Usuario_id": "usuario2273",
    "Fecha_plantado": "",
    "Especie": "Chinese Tallow",
    "Fecha_registro": "2014-02-21",
    "Municipio": "Guadalupe",
    "Direccion": "Pedro Calderón de La Barça 2771-2780, Contry La Silla 4o Sector, 67173 NL, México",
    "lon": -100.2675018,
    "lat": 25.6345806,
    "id": "541a2cae908e69c4ed6fd831"
  },
  {
    "Arbol_id": 8970,
    "Folio": 0,
    "Usuario_id": "usuario2273",
    "Fecha_plantado": "",
    "Especie": "Chinese Tallow",
    "Fecha_registro": "2014-02-21",
    "Municipio": "Guadalupe",
    "Direccion": "José Vasconcelos 795, Contry La Silla 4o Sector, 67173 Guadalupe, NL, México",
    "lon": -100.266449,
    "lat": 25.6367512,
    "id": "541a2cae908e69c4ed6fd847"
  },
  {
    "Arbol_id": 8971,
    "Folio": 0,
    "Usuario_id": "usuario2273",
    "Fecha_plantado": "",
    "Especie": "Chinese Tallow",
    "Fecha_registro": "2014-02-21",
    "Municipio": "Guadalupe",
    "Direccion": "José Vasconcelos 795, Contry La Silla 4o Sector, 67173 Guadalupe, NL, México",
    "lon": -100.266449,
    "lat": 25.6367512,
    "id": "541a2cae908e69c4ed6fd848"
  },
  {
    "Arbol_id": 9007,
    "Folio": 0,
    "Usuario_id": "usuario2273",
    "Fecha_plantado": "",
    "Especie": "Chinese Tallow",
    "Fecha_registro": "2014-02-21",
    "Municipio": "Guadalupe",
    "Direccion": "Miguel de Cervantes Saavedra 756, Contry La Silla 4o Sector, 67173 NL, México",
    "lon": -100.2666626,
    "lat": 25.6372108,
    "id": "541a2cae908e69c4ed6fd86c"
  },
  {
    "Arbol_id": 9010,
    "Folio": 0,
    "Usuario_id": "usuario2273",
    "Fecha_plantado": "",
    "Especie": "Chinese Tallow",
    "Fecha_registro": "2014-02-21",
    "Municipio": "Guadalupe",
    "Direccion": "Miguel de Cervantes Saavedra 777-793, Contry La Silla 4o Sector, 67173 NL, México",
    "lon": -100.2663422,
    "lat": 25.6371002,
    "id": "541a2cae908e69c4ed6fd86f"
  },
  {
    "Arbol_id": 9029,
    "Folio": 0,
    "Usuario_id": "usuario2273",
    "Fecha_plantado": "",
    "Especie": "Chinese Tallow",
    "Fecha_registro": "2014-02-21",
    "Municipio": "Guadalupe",
    "Direccion": "Miguel de Cervantes Saavedra 717, Contry La Silla 4o Sector, 67173 NL, México",
    "lon": -100.2673874,
    "lat": 25.6376419,
    "id": "541a2cae908e69c4ed6fd882"
  },
  {
    "Arbol_id": 9031,
    "Folio": 0,
    "Usuario_id": "usuario2273",
    "Fecha_plantado": "",
    "Especie": "Chinese Tallow",
    "Fecha_registro": "2014-02-21",
    "Municipio": "Guadalupe",
    "Direccion": "José Vasconcelos 795, Contry La Silla 4o Sector, 67173 Guadalupe, NL, México",
    "lon": -100.266449,
    "lat": 25.6367512,
    "id": "541a2cae908e69c4ed6fd884"
  },
  {
    "Arbol_id": 9034,
    "Folio": 0,
    "Usuario_id": "usuario2273",
    "Fecha_plantado": "",
    "Especie": "Chinese Tallow",
    "Fecha_registro": "2014-02-21",
    "Municipio": "Guadalupe",
    "Direccion": "José Vasconcelos 795, Contry La Silla 4o Sector, 67173 Guadalupe, NL, México",
    "lon": -100.266449,
    "lat": 25.6367512,
    "id": "541a2cae908e69c4ed6fd887"
  },
  {
    "Arbol_id": 9035,
    "Folio": 0,
    "Usuario_id": "usuario2273",
    "Fecha_plantado": "",
    "Especie": "Chinese Tallow",
    "Fecha_registro": "2014-02-21",
    "Municipio": "Guadalupe",
    "Direccion": "Albert Einstein 2690, Contry La Silla 4o Sector, 67173 NL, México",
    "lon": -100.2665176,
    "lat": 25.6360798,
    "id": "541a2cae908e69c4ed6fd888"
  },
  {
    "Arbol_id": 9037,
    "Folio": 0,
    "Usuario_id": "usuario2273",
    "Fecha_plantado": "",
    "Especie": "Chinese Tallow",
    "Fecha_registro": "2014-02-21",
    "Municipio": "Guadalupe",
    "Direccion": "José Vasconcelos 795, Contry La Silla 4o Sector, 67173 Guadalupe, NL, México",
    "lon": -100.266449,
    "lat": 25.6367512,
    "id": "541a2cae908e69c4ed6fd88a"
  },
  {
    "Arbol_id": 9040,
    "Folio": 0,
    "Usuario_id": "usuario2273",
    "Fecha_plantado": "",
    "Especie": "Chinese Tallow",
    "Fecha_registro": "2014-02-21",
    "Municipio": "Guadalupe",
    "Direccion": "Miguel de Cervantes Saavedra 717, Contry La Silla 4o Sector, 67173 NL, México",
    "lon": -100.2673874,
    "lat": 25.6376419,
    "id": "541a2cae908e69c4ed6fd88d"
  },
  {
    "Arbol_id": 9454,
    "Folio": 0,
    "Usuario_id": "usuario2273",
    "Fecha_plantado": "",
    "Especie": "Chinese Tallow",
    "Fecha_registro": "2014-02-26",
    "Municipio": "Guadalupe",
    "Direccion": "Ensenada 3471, Riberas del Río, 67160 NL, México",
    "lon": -100.218071,
    "lat": 25.6820602,
    "id": "541a2cae908e69c4ed6fda29"
  },
  {
    "Arbol_id": 9458,
    "Folio": 0,
    "Usuario_id": "usuario2273",
    "Fecha_plantado": "",
    "Especie": "Chinese Tallow",
    "Fecha_registro": "2014-02-26",
    "Municipio": "Guadalupe",
    "Direccion": "Ensenada 3471, Riberas del Río, 67160 NL, México",
    "lon": -100.218071,
    "lat": 25.6820602,
    "id": "541a2cae908e69c4ed6fda2d"
  },
  {
    "Arbol_id": 9465,
    "Folio": 0,
    "Usuario_id": "usuario2273",
    "Fecha_plantado": "",
    "Especie": "Chinese Tallow",
    "Fecha_registro": "2014-02-26",
    "Municipio": "Guadalupe",
    "Direccion": "Ensenada 3471, Riberas del Río, 67160 NL, México",
    "lon": -100.218071,
    "lat": 25.6820602,
    "id": "541a2cae908e69c4ed6fda34"
  },
  {
    "Arbol_id": 9476,
    "Folio": 0,
    "Usuario_id": "usuario2273",
    "Fecha_plantado": "",
    "Especie": "Chinese Tallow",
    "Fecha_registro": "2014-02-26",
    "Municipio": "Guadalupe",
    "Direccion": "El Salto 3431, Riberas del Río, 67160 NL, México",
    "lon": -100.2185593,
    "lat": 25.6807404,
    "id": "541a2cae908e69c4ed6fda3f"
  },
  {
    "Arbol_id": 10281,
    "Folio": 0,
    "Usuario_id": "usuario2273",
    "Fecha_plantado": "",
    "Especie": "Chinese Tallow",
    "Fecha_registro": "2014-02-28",
    "Municipio": "Guadalupe",
    "Direccion": "El Salto 3225-3227, Riberas del Río, 67160 NL, México",
    "lon": -100.2205276,
    "lat": 25.6810894,
    "id": "541a2cae908e69c4ed6fdd55"
  },
  {
    "Arbol_id": 12050,
    "Folio": 0,
    "Usuario_id": "usuario2273",
    "Fecha_plantado": "",
    "Especie": "Chinese Tallow",
    "Fecha_registro": "2014-03-07",
    "Municipio": "Guadalupe",
    "Direccion": "Arrecife 3313, Riberas del Río, 67160 NL, México",
    "lon": -100.2192917,
    "lat": 25.6835098,
    "id": "541a2caf908e69c4ed6fe41e"
  },
  {
    "Arbol_id": 12434,
    "Folio": 0,
    "Usuario_id": "usuario1202",
    "Fecha_plantado": "",
    "Especie": "Chinese Tallow",
    "Fecha_registro": "2014-03-09",
    "Municipio": "San Nicolás",
    "Direccion": "Ojo de Agua 433, Residencial Potrero de Anáhuac, 66635 Chandra's Test City [don't deny], NL, México",
    "lon": "",
    "lat": "",
    "id": "541a2caf908e69c4ed6fe59b"
  },
  {
    "Arbol_id": 12864,
    "Folio": 0,
    "Usuario_id": "usuario307",
    "Fecha_plantado": "",
    "Especie": "Chinese Tallow",
    "Fecha_registro": "2014-03-11",
    "Municipio": "San Nicolás",
    "Direccion": "Décima 3a. 233, Residencial Anáhuac 1er Sector, 66457 Nuevo Leon, Mexico",
    "lon": "",
    "lat": "",
    "id": "541a2caf908e69c4ed6fe740"
  },
  {
    "Arbol_id": 12878,
    "Folio": 0,
    "Usuario_id": "usuario1202",
    "Fecha_plantado": "",
    "Especie": "Chinese Tallow",
    "Fecha_registro": "2014-03-11",
    "Municipio": "Monterrey",
    "Direccion": "Independiente 2721, Estadio, 64830 Monterrey, NL, México",
    "lon": -100.2804871,
    "lat": 25.6531506,
    "id": "541a2caf908e69c4ed6fe74c"
  },
  {
    "Arbol_id": 12920,
    "Folio": 0,
    "Usuario_id": "usuario2273",
    "Fecha_plantado": "",
    "Especie": "Chinese Tallow",
    "Fecha_registro": "2014-03-12",
    "Municipio": "Guadalupe",
    "Direccion": "Paseo de Los Lirios 3225-3227, Riberas del Río, 67160 NL, México",
    "lon": -100.220253,
    "lat": 25.681881,
    "id": "541a2caf908e69c4ed6fe775"
  },
  {
    "Arbol_id": 12922,
    "Folio": 0,
    "Usuario_id": "usuario2273",
    "Fecha_plantado": "",
    "Especie": "Chinese Tallow",
    "Fecha_registro": "2014-03-12",
    "Municipio": "Guadalupe",
    "Direccion": "Paseo de Los Lirios 3231, Riberas del Río, 67160 NL, México",
    "lon": -100.2208328,
    "lat": 25.6820736,
    "id": "541a2caf908e69c4ed6fe777"
  },
  {
    "Arbol_id": 13799,
    "Folio": 0,
    "Usuario_id": "usuario2273",
    "Fecha_plantado": "",
    "Especie": "Chinese Tallow",
    "Fecha_registro": "2014-03-20",
    "Municipio": "Guadalupe",
    "Direccion": "Tajamar 3035, Riberas del Río, 67160 NL, México",
    "lon": -100.2250595,
    "lat": 25.6798706,
    "id": "541a2caf908e69c4ed6feadc"
  },
  {
    "Arbol_id": 13820,
    "Folio": 0,
    "Usuario_id": "usuario2273",
    "Fecha_plantado": "",
    "Especie": "Chinese Tallow",
    "Fecha_registro": "2014-03-20",
    "Municipio": "Guadalupe",
    "Direccion": "Ortega Y. Gasset 2811, Contry La Silla 4o Sector, 67173 NL, México",
    "lon": -100.2676468,
    "lat": 25.6332798,
    "id": "541a2caf908e69c4ed6feaf1"
  },
  {
    "Arbol_id": 13843,
    "Folio": 0,
    "Usuario_id": "usuario2273",
    "Fecha_plantado": "",
    "Especie": "Chinese Tallow",
    "Fecha_registro": "2014-03-20",
    "Municipio": "Guadalupe",
    "Direccion": "Ortega Y. Gasset 2831, Contry La Silla 4o Sector, 67173 NL, México",
    "lon": -100.2676163,
    "lat": 25.6330891,
    "id": "541a2caf908e69c4ed6feb08"
  },
  {
    "Arbol_id": 13861,
    "Folio": 0,
    "Usuario_id": "usuario2273",
    "Fecha_plantado": "",
    "Especie": "Chinese Tallow",
    "Fecha_registro": "2014-03-20",
    "Municipio": "Guadalupe",
    "Direccion": "Ortega Y. Gasset 2831, Contry La Silla 4o Sector, 67173 NL, México",
    "lon": -100.2676163,
    "lat": 25.6330891,
    "id": "541a2caf908e69c4ed6feb1a"
  },
  {
    "Arbol_id": 13934,
    "Folio": 0,
    "Usuario_id": "usuario2273",
    "Fecha_plantado": "",
    "Especie": "Chinese Tallow",
    "Fecha_registro": "2014-03-20",
    "Municipio": "Guadalupe",
    "Direccion": "Rambla 3036, Riberas del Río, 67160 NL, México",
    "lon": -100.2248611,
    "lat": 25.6801701,
    "id": "541a2caf908e69c4ed6feb63"
  },
  {
    "Arbol_id": 14310,
    "Folio": 0,
    "Usuario_id": "usuario2273",
    "Fecha_plantado": "",
    "Especie": "Chinese Tallow",
    "Fecha_registro": "2014-03-24",
    "Municipio": "Guadalupe",
    "Direccion": "Dante Alighieri 2828, Contry La Silla 4o Sector, 67173 Guadalupe, NL, México",
    "lon": -100.2682877,
    "lat": 25.6330395,
    "id": "541a2caf908e69c4ed6fecd6"
  },
  {
    "Arbol_id": 14312,
    "Folio": 0,
    "Usuario_id": "usuario2273",
    "Fecha_plantado": "",
    "Especie": "Chinese Tallow",
    "Fecha_registro": "2014-03-24",
    "Municipio": "Guadalupe",
    "Direccion": "Dante Alighieri 2838-2871, Contry La Silla 4o Sector, 67173 NL, México",
    "lon": -100.2682724,
    "lat": 25.6329002,
    "id": "541a2caf908e69c4ed6fecd8"
  },
  {
    "Arbol_id": 14319,
    "Folio": 0,
    "Usuario_id": "usuario2273",
    "Fecha_plantado": "",
    "Especie": "Chinese Tallow",
    "Fecha_registro": "2014-03-24",
    "Municipio": "Guadalupe",
    "Direccion": "Escollera 3110, Riberas del Río, 67160 NL, México",
    "lon": -100.2232208,
    "lat": 25.6816502,
    "id": "541a2caf908e69c4ed6fecde"
  },
  {
    "Arbol_id": 14320,
    "Folio": 0,
    "Usuario_id": "usuario2273",
    "Fecha_plantado": "",
    "Especie": "Chinese Tallow",
    "Fecha_registro": "2014-03-24",
    "Municipio": "Guadalupe",
    "Direccion": "Dante Alighieri 2838-2871, Contry La Silla 4o Sector, 67173 NL, México",
    "lon": -100.2682724,
    "lat": 25.6329002,
    "id": "541a2caf908e69c4ed6fecdf"
  },
  {
    "Arbol_id": 14325,
    "Folio": 0,
    "Usuario_id": "usuario2273",
    "Fecha_plantado": "",
    "Especie": "Chinese Tallow",
    "Fecha_registro": "2014-03-24",
    "Municipio": "Guadalupe",
    "Direccion": "Dante Alighieri 2871, Contry La Silla 4o Sector, 67173 NL, México",
    "lon": -100.2683716,
    "lat": 25.6323605,
    "id": "541a2caf908e69c4ed6fece4"
  },
  {
    "Arbol_id": 14330,
    "Folio": 0,
    "Usuario_id": "usuario2273",
    "Fecha_plantado": "",
    "Especie": "Chinese Tallow",
    "Fecha_registro": "2014-03-24",
    "Municipio": "Guadalupe",
    "Direccion": "Dante Alighieri 2871, Contry La Silla 4o Sector, 67173 NL, México",
    "lon": -100.2683716,
    "lat": 25.6323605,
    "id": "541a2caf908e69c4ed6fece9"
  },
  {
    "Arbol_id": 14424,
    "Folio": 0,
    "Usuario_id": "usuario2273",
    "Fecha_plantado": "",
    "Especie": "Chinese Tallow",
    "Fecha_registro": "2014-03-24",
    "Municipio": "Guadalupe",
    "Direccion": "Dante Alighieri 3848, Contry La Silla 4o Sector, 67173 NL, México",
    "lon": -100.2682877,
    "lat": 25.6327,
    "id": "541a2caf908e69c4ed6fed45"
  },
  {
    "Arbol_id": 14576,
    "Folio": 0,
    "Usuario_id": "usuario2273",
    "Fecha_plantado": "",
    "Especie": "Chinese Tallow",
    "Fecha_registro": "2014-03-25",
    "Municipio": "Guadalupe",
    "Direccion": "Gral. Plutarco Elías Calles 3104, Sin Nombre de Colonia 21, 67160 NL, México",
    "lon": "",
    "lat": "",
    "id": "541a2caf908e69c4ed6feddb"
  },
  {
    "Arbol_id": 15683,
    "Folio": 0,
    "Usuario_id": "usuario2273",
    "Fecha_plantado": "",
    "Especie": "Chinese Tallow",
    "Fecha_registro": "2014-04-01",
    "Municipio": "Guadalupe",
    "Direccion": "Eje Metropolitano 410, Contry La Silla 9o Sector, 67173 NL, México",
    "lon": "",
    "lat": "",
    "id": "541a2cb0908e69c4ed6ff209"
  },
  {
    "Arbol_id": 16942,
    "Folio": 0,
    "Usuario_id": "usuario2273",
    "Fecha_plantado": "",
    "Especie": "Chinese Tallow",
    "Fecha_registro": "2014-04-07",
    "Municipio": "Guadalupe",
    "Direccion": "La Boquilla 3059, Riberas del Río, 67160 NL, México",
    "lon": -100.2252045,
    "lat": 25.6826725,
    "id": "541a2cb0908e69c4ed6ff6f3"
  },
  {
    "Arbol_id": 17100,
    "Folio": 0,
    "Usuario_id": "usuario1202",
    "Fecha_plantado": "",
    "Especie": "Chinese Tallow",
    "Fecha_registro": "2014-04-08",
    "Municipio": "Monterrey",
    "Direccion": "Ricardo Covarrubias 1924, Estadio, 64830 Monterrey, NL, México",
    "lon": -100.2817001,
    "lat": 25.6524906,
    "id": "541a2cb0908e69c4ed6ff769"
  },
  {
    "Arbol_id": 18559,
    "Folio": 0,
    "Usuario_id": "usuario2248",
    "Fecha_plantado": "",
    "Especie": "Chinese Tallow",
    "Fecha_registro": "2014-04-12",
    "Municipio": "Escobedo",
    "Direccion": "V. de Uruguay 207, Roble Nuevo, 66055 Escobedo, NL, México",
    "lon": -100.3145065,
    "lat": 25.7837296,
    "id": "541a2cb1908e69c4ed6ffcdc"
  },
  {
    "Arbol_id": 18564,
    "Folio": 0,
    "Usuario_id": "usuario2248",
    "Fecha_plantado": "",
    "Especie": "Chinese Tallow",
    "Fecha_registro": "2014-04-12",
    "Municipio": "Escobedo",
    "Direccion": "V. de Uruguay 137, Roble Nuevo, 66055 Escobedo, NL, México",
    "lon": -100.3145218,
    "lat": 25.7840099,
    "id": "541a2cb1908e69c4ed6ffcdf"
  },
  {
    "Arbol_id": 18634,
    "Folio": 0,
    "Usuario_id": "usuario1295",
    "Fecha_plantado": "",
    "Especie": "Chinese Tallow",
    "Fecha_registro": "2014-04-13",
    "Municipio": "Guadalupe",
    "Direccion": "Pino, Bosques del Contry Sector A-1, 67176 Nuevo Leon, Mexico",
    "lon": -100.2467117,
    "lat": 25.6617699,
    "id": "541a2cb1908e69c4ed6ffd19"
  },
  {
    "Arbol_id": 18636,
    "Folio": 0,
    "Usuario_id": "usuario1295",
    "Fecha_plantado": "",
    "Especie": "Chinese Tallow",
    "Fecha_registro": "2014-04-13",
    "Municipio": "Guadalupe",
    "Direccion": "Pino, Bosques del Contry Sector A-1, 67176 Nuevo Leon, Mexico",
    "lon": -100.2467117,
    "lat": 25.6617699,
    "id": "541a2cb1908e69c4ed6ffd1a"
  },
  {
    "Arbol_id": 18637,
    "Folio": 0,
    "Usuario_id": "usuario1295",
    "Fecha_plantado": "",
    "Especie": "Chinese Tallow",
    "Fecha_registro": "2014-04-13",
    "Municipio": "Guadalupe",
    "Direccion": "Pino, Bosques del Contry Sector A-1, 67176 Nuevo Leon, Mexico",
    "lon": "",
    "lat": "",
    "id": "541a2cb1908e69c4ed6ffd1b"
  },
  {
    "Arbol_id": 18638,
    "Folio": 0,
    "Usuario_id": "usuario1295",
    "Fecha_plantado": "",
    "Especie": "Chinese Tallow",
    "Fecha_registro": "2014-04-13",
    "Municipio": "Guadalupe",
    "Direccion": "Pino, Bosques del Contry Sector A-1, 67176 Nuevo Leon, Mexico",
    "lon": -100.2467117,
    "lat": 25.6617699,
    "id": "541a2cb1908e69c4ed6ffd1c"
  },
  {
    "Arbol_id": 18640,
    "Folio": 0,
    "Usuario_id": "usuario1295",
    "Fecha_plantado": "",
    "Especie": "Chinese Tallow",
    "Fecha_registro": "2014-04-13",
    "Municipio": "Guadalupe",
    "Direccion": "Pino, Bosques del Contry Sector A-1, 67176 Nuevo Leon, Mexico",
    "lon": "",
    "lat": "",
    "id": "541a2cb1908e69c4ed6ffd1e"
  },
  {
    "Arbol_id": 18641,
    "Folio": 0,
    "Usuario_id": "usuario1295",
    "Fecha_plantado": "",
    "Especie": "Chinese Tallow",
    "Fecha_registro": "2014-04-13",
    "Municipio": "Guadalupe",
    "Direccion": "Pino, Bosques del Contry Sector A-1, 67176 Nuevo Leon, Mexico",
    "lon": -100.2467117,
    "lat": 25.6617699,
    "id": "541a2cb1908e69c4ed6ffd1f"
  },
  {
    "Arbol_id": 18642,
    "Folio": 0,
    "Usuario_id": "usuario1295",
    "Fecha_plantado": "",
    "Especie": "Chinese Tallow",
    "Fecha_registro": "2014-04-13",
    "Municipio": "Guadalupe",
    "Direccion": "Alamo 2941, Bosques del Contry Sector A-1, 67176 Guadalupe, Nuevo Leon, Mexico",
    "lon": -100.2475281,
    "lat": 25.6583099,
    "id": "541a2cb1908e69c4ed6ffd20"
  },
  {
    "Arbol_id": 18646,
    "Folio": 0,
    "Usuario_id": "usuario1295",
    "Fecha_plantado": "",
    "Especie": "Chinese Tallow",
    "Fecha_registro": "2014-04-13",
    "Municipio": "Guadalupe",
    "Direccion": "Pino, Bosques del Contry Sector A-1, 67176 Nuevo Leon, Mexico",
    "lon": -100.2467117,
    "lat": 25.6617699,
    "id": "541a2cb1908e69c4ed6ffd24"
  },
  {
    "Arbol_id": 18647,
    "Folio": 0,
    "Usuario_id": "usuario1295",
    "Fecha_plantado": "",
    "Especie": "Chinese Tallow",
    "Fecha_registro": "2014-04-13",
    "Municipio": "Guadalupe",
    "Direccion": "Nogal 2939, Bosques del Contry Sector A-1, 67176 Nuevo Leon, Mexico",
    "lon": -100.2469101,
    "lat": 25.6622295,
    "id": "541a2cb1908e69c4ed6ffd25"
  },
  {
    "Arbol_id": 18648,
    "Folio": 0,
    "Usuario_id": "usuario1295",
    "Fecha_plantado": "",
    "Especie": "Chinese Tallow",
    "Fecha_registro": "2014-04-13",
    "Municipio": "Guadalupe",
    "Direccion": "Roble 2949, Bosques del Contry Sector A-1, 67176 Guadalupe, Nuevo Leon, Mexico",
    "lon": -100.2468414,
    "lat": 25.6629601,
    "id": "541a2cb1908e69c4ed6ffd26"
  },
  {
    "Arbol_id": 18649,
    "Folio": 0,
    "Usuario_id": "usuario1295",
    "Fecha_plantado": "",
    "Especie": "Chinese Tallow",
    "Fecha_registro": "2014-04-13",
    "Municipio": "Guadalupe",
    "Direccion": "Roble 2949, Bosques del Contry Sector A-1, 67176 Guadalupe, Nuevo Leon, Mexico",
    "lon": -100.2468414,
    "lat": 25.6629601,
    "id": "541a2cb1908e69c4ed6ffd27"
  },
  {
    "Arbol_id": 18655,
    "Folio": 0,
    "Usuario_id": "usuario2248",
    "Fecha_plantado": "",
    "Especie": "Chinese Tallow",
    "Fecha_registro": "2014-04-13",
    "Municipio": "Escobedo",
    "Direccion": "V. de Uruguay 137, Roble Nuevo, 66055 Escobedo, NL, México",
    "lon": -100.3145218,
    "lat": 25.7840099,
    "id": "541a2cb1908e69c4ed6ffd2d"
  },
  {
    "Arbol_id": 21225,
    "Folio": 0,
    "Usuario_id": "usuario2273",
    "Fecha_plantado": "",
    "Especie": "Chinese Tallow",
    "Fecha_registro": "2014-04-30",
    "Municipio": "Guadalupe",
    "Direccion": "Tula 905, Infonavit La Joya, 67160 Monterrey, NL, México",
    "lon": -100.2150192,
    "lat": 25.6819496,
    "id": "541a2cb1908e69c4ed700723"
  },
  {
    "Arbol_id": 24426,
    "Folio": 0,
    "Usuario_id": "usuario2273",
    "Fecha_plantado": "",
    "Especie": "Chinese Tallow",
    "Fecha_registro": "2014-05-16",
    "Municipio": "Guadalupe",
    "Direccion": "Tepaneca 501, Azteca, 67150 NL, México",
    "lon": -100.2347488,
    "lat": 25.6842442,
    "id": "541a2cb2908e69c4ed70138f"
  },
  {
    "Arbol_id": 24458,
    "Folio": 0,
    "Usuario_id": "usuario2273",
    "Fecha_plantado": "",
    "Especie": "Chinese Tallow",
    "Fecha_registro": "2014-05-16",
    "Municipio": "Guadalupe",
    "Direccion": "Chichimeca 509, Azteca, 67150 NL, México",
    "lon": -100.2348938,
    "lat": 25.6832008,
    "id": "541a2cb2908e69c4ed7013ab"
  },
  {
    "Arbol_id": 25322,
    "Folio": 0,
    "Usuario_id": "usuario2273",
    "Fecha_plantado": "",
    "Especie": "Chinese Tallow",
    "Fecha_registro": "2014-05-20",
    "Municipio": "Guadalupe",
    "Direccion": "Los Encinos 610, El Sabino, 67150 NL, México",
    "lon": -100.2313461,
    "lat": 25.681776,
    "id": "541a2cb2908e69c4ed701706"
  },
  {
    "Arbol_id": 25493,
    "Folio": 0,
    "Usuario_id": "usuario2273",
    "Fecha_plantado": "",
    "Especie": "Chinese Tallow",
    "Fecha_registro": "2014-05-20",
    "Municipio": "Guadalupe",
    "Direccion": "Iztacalco 409, Residencial Azteca, 67150 NL, México",
    "lon": -100.2318726,
    "lat": 25.6838894,
    "id": "541a2cb2908e69c4ed7017b1"
  },
  {
    "Arbol_id": 25503,
    "Folio": 0,
    "Usuario_id": "usuario2273",
    "Fecha_plantado": "",
    "Especie": "Chinese Tallow",
    "Fecha_registro": "2014-05-20",
    "Municipio": "Guadalupe",
    "Direccion": "Los Alamos 230, El Sabino, 67150 NL, México",
    "lon": -100.2318726,
    "lat": 25.6805801,
    "id": "541a2cb3908e69c4ed7017bb"
  },
  {
    "Arbol_id": 25606,
    "Folio": 0,
    "Usuario_id": "usuario2273",
    "Fecha_plantado": "",
    "Especie": "Chinese Tallow",
    "Fecha_registro": "2014-05-21",
    "Municipio": "Guadalupe",
    "Direccion": "Los Cedros 506, El Sabino, 67150 NL, México",
    "lon": -100.2319336,
    "lat": 25.6808224,
    "id": "541a2cb3908e69c4ed701822"
  },
  {
    "Arbol_id": 26135,
    "Folio": 0,
    "Usuario_id": "usuario2273",
    "Fecha_plantado": "",
    "Especie": "Chinese Tallow",
    "Fecha_registro": "2014-05-22",
    "Municipio": "Guadalupe",
    "Direccion": "Matachines 415, Azteca, 67150 NL, México",
    "lon": -100.2327728,
    "lat": 25.6842403,
    "id": "541a2cb3908e69c4ed701a2c"
  },
  {
    "Arbol_id": 26205,
    "Folio": 0,
    "Usuario_id": "usuario2273",
    "Fecha_plantado": "",
    "Especie": "Chinese Tallow",
    "Fecha_registro": "2014-05-22",
    "Municipio": "Guadalupe",
    "Direccion": "Quiché 516, Azteca, 67150 NL, México",
    "lon": -100.2344971,
    "lat": 25.6847095,
    "id": "541a2cb3908e69c4ed701a72"
  },
  {
    "Arbol_id": 26206,
    "Folio": 0,
    "Usuario_id": "usuario2273",
    "Fecha_plantado": "",
    "Especie": "Chinese Tallow",
    "Fecha_registro": "2014-05-22",
    "Municipio": "Guadalupe",
    "Direccion": "Quiché 514, Azteca, 67150 NL, México",
    "lon": -100.234581,
    "lat": 25.6847095,
    "id": "541a2cb3908e69c4ed701a73"
  },
  {
    "Arbol_id": 26211,
    "Folio": 0,
    "Usuario_id": "usuario2273",
    "Fecha_plantado": "",
    "Especie": "Chinese Tallow",
    "Fecha_registro": "2014-05-22",
    "Municipio": "Guadalupe",
    "Direccion": "Pipiles 510, Azteca, 67150 NL, México",
    "lon": -100.2349319,
    "lat": 25.6846104,
    "id": "541a2cb3908e69c4ed701a78"
  },
  {
    "Arbol_id": 26637,
    "Folio": 0,
    "Usuario_id": "usuario2536",
    "Fecha_plantado": "",
    "Especie": "Chinese Tallow",
    "Fecha_registro": "2014-05-25",
    "Municipio": "Santa Catarina",
    "Direccion": "19 Ote. 108, Adolfo López Mateos Infonavit, 66360 NL, México",
    "lon": -100.4427795,
    "lat": 25.690834,
    "id": "541a2cb3908e69c4ed701c13"
  },
  {
    "Arbol_id": 28652,
    "Folio": 0,
    "Usuario_id": "usuario2273",
    "Fecha_plantado": "",
    "Especie": "Chinese Tallow",
    "Fecha_registro": "2014-05-29",
    "Municipio": "Guadalupe",
    "Direccion": "Framboyanes 1406, Jardines de San Rafael, 67110 NL, México",
    "lon": -100.2152176,
    "lat": 25.69561,
    "id": "541a2cb3908e69c4ed7023cb"
  },
  {
    "Arbol_id": 29377,
    "Folio": 0,
    "Usuario_id": "usuario2273",
    "Fecha_plantado": "",
    "Especie": "Chinese Tallow",
    "Fecha_registro": "2014-06-02",
    "Municipio": "Guadalupe",
    "Direccion": "Encino, Jardines de San Rafael, 67110 NL, México",
    "lon": -100.2149506,
    "lat": 25.6949997,
    "id": "541a2cb4908e69c4ed70269f"
  },
  {
    "Arbol_id": 30296,
    "Folio": 0,
    "Usuario_id": "usuario2273",
    "Fecha_plantado": "",
    "Especie": "Chinese Tallow",
    "Fecha_registro": "2014-06-04",
    "Municipio": "Guadalupe",
    "Direccion": "León Tolstoi 738, Contry La Silla 4o Sector, 67173 NL, México",
    "lon": -100.2667694,
    "lat": 25.6383095,
    "id": "541a2cb4908e69c4ed702a30"
  },
  {
    "Arbol_id": 30307,
    "Folio": 0,
    "Usuario_id": "usuario2273",
    "Fecha_plantado": "",
    "Especie": "Chinese Tallow",
    "Fecha_registro": "2014-06-04",
    "Municipio": "Guadalupe",
    "Direccion": "León Tolstoi 738, Contry La Silla 4o Sector, 67173 NL, México",
    "lon": -100.2667694,
    "lat": 25.6383095,
    "id": "541a2cb4908e69c4ed702a3b"
  },
  {
    "Arbol_id": 30350,
    "Folio": 0,
    "Usuario_id": "usuario2273",
    "Fecha_plantado": "",
    "Especie": "Chinese Tallow",
    "Fecha_registro": "2014-06-04",
    "Municipio": "Guadalupe",
    "Direccion": "León Tolstoi 700, Contry La Silla 4o Sector, 67173 NL, México",
    "lon": -100.2675476,
    "lat": 25.6384602,
    "id": "541a2cb4908e69c4ed702a66"
  },
  {
    "Arbol_id": 30538,
    "Folio": 0,
    "Usuario_id": "usuario2273",
    "Fecha_plantado": "",
    "Especie": "Chinese Tallow",
    "Fecha_registro": "2014-06-05",
    "Municipio": "Guadalupe",
    "Direccion": "El Greco 709, Contry La Silla 5o Sector, 67173 NL, México",
    "lon": -100.267601,
    "lat": 25.6417904,
    "id": "541a2cb4908e69c4ed702b21"
  },
  {
    "Arbol_id": 30549,
    "Folio": 0,
    "Usuario_id": "usuario2273",
    "Fecha_plantado": "",
    "Especie": "Chinese Tallow",
    "Fecha_registro": "2014-06-05",
    "Municipio": "Guadalupe",
    "Direccion": "Juan Lorenzo Bernini 2509, Contry La Silla 5o Sector, 67173 NL, México",
    "lon": -100.2674103,
    "lat": 25.6414871,
    "id": "541a2cb4908e69c4ed702b2c"
  },
  {
    "Arbol_id": 30563,
    "Folio": 0,
    "Usuario_id": "usuario2273",
    "Fecha_plantado": "",
    "Especie": "Chinese Tallow",
    "Fecha_registro": "2014-06-05",
    "Municipio": "Guadalupe",
    "Direccion": "Juan Lorenzo Bernini 2525-2529, Contry La Silla 5o Sector, 67173 NL, México",
    "lon": -100.2673645,
    "lat": 25.6412697,
    "id": "541a2cb4908e69c4ed702b3a"
  },
  {
    "Arbol_id": 30564,
    "Folio": 0,
    "Usuario_id": "usuario2273",
    "Fecha_plantado": "",
    "Especie": "Chinese Tallow",
    "Fecha_registro": "2014-06-05",
    "Municipio": "Guadalupe",
    "Direccion": "Juan Lorenzo Bernini 2525-2529, Contry La Silla 5o Sector, 67173 NL, México",
    "lon": -100.2673645,
    "lat": 25.6412697,
    "id": "541a2cb4908e69c4ed702b3b"
  },
  {
    "Arbol_id": 30585,
    "Folio": 0,
    "Usuario_id": "usuario2273",
    "Fecha_plantado": "",
    "Especie": "Chinese Tallow",
    "Fecha_registro": "2014-06-05",
    "Municipio": "Guadalupe",
    "Direccion": "Juan Lorenzo Bernini 2525-2529, Contry La Silla 5o Sector, 67173 NL, México",
    "lon": -100.2673645,
    "lat": 25.6412697,
    "id": "541a2cb4908e69c4ed702b50"
  },
  {
    "Arbol_id": 30587,
    "Folio": 0,
    "Usuario_id": "usuario2273",
    "Fecha_plantado": "",
    "Especie": "Chinese Tallow",
    "Fecha_registro": "2014-06-05",
    "Municipio": "Guadalupe",
    "Direccion": "Juan Lorenzo Bernini 2525-2529, Contry La Silla 5o Sector, 67173 NL, México",
    "lon": -100.2673645,
    "lat": 25.6412697,
    "id": "541a2cb4908e69c4ed702b52"
  },
  {
    "Arbol_id": 30590,
    "Folio": 0,
    "Usuario_id": "usuario2273",
    "Fecha_plantado": "",
    "Especie": "Chinese Tallow",
    "Fecha_registro": "2014-06-05",
    "Municipio": "Guadalupe",
    "Direccion": "Giotto Di Bondone 2539, Contry La Silla 5o Sector, 67173 NL, México",
    "lon": -100.265686,
    "lat": 25.6407146,
    "id": "541a2cb4908e69c4ed702b55"
  },
  {
    "Arbol_id": 30633,
    "Folio": 0,
    "Usuario_id": "usuario2273",
    "Fecha_plantado": "",
    "Especie": "Chinese Tallow",
    "Fecha_registro": "2014-06-05",
    "Municipio": "Guadalupe",
    "Direccion": "Giotto Di Bondone 2513, Contry La Silla 5o Sector, 67173 NL, México",
    "lon": -100.2659531,
    "lat": 25.6417503,
    "id": "541a2cb4908e69c4ed702b80"
  },
  {
    "Arbol_id": 30652,
    "Folio": 0,
    "Usuario_id": "usuario2273",
    "Fecha_plantado": "",
    "Especie": "Chinese Tallow",
    "Fecha_registro": "2014-06-05",
    "Municipio": "Guadalupe",
    "Direccion": "El Greco 745, Contry La Silla 5o Sector, 67173 NL, México",
    "lon": -100.2666016,
    "lat": 25.6421509,
    "id": "541a2cb4908e69c4ed702b93"
  },
  {
    "Arbol_id": 30667,
    "Folio": 0,
    "Usuario_id": "usuario2273",
    "Fecha_plantado": "",
    "Especie": "Chinese Tallow",
    "Fecha_registro": "2014-06-05",
    "Municipio": "Guadalupe",
    "Direccion": "El Greco 767, Contry La Silla 5o Sector, 67173 NL, México",
    "lon": -100.2655334,
    "lat": 25.6425705,
    "id": "541a2cb4908e69c4ed702ba2"
  },
  {
    "Arbol_id": 30743,
    "Folio": 0,
    "Usuario_id": "usuario2273",
    "Fecha_plantado": "",
    "Especie": "Chinese Tallow",
    "Fecha_registro": "2014-06-05",
    "Municipio": "Guadalupe",
    "Direccion": "Mariano Boticeli 714, Contry La Silla 5o Sector, 67173 NL, México",
    "lon": "",
    "lat": "",
    "id": "541a2cb4908e69c4ed702bee"
  },
  {
    "Arbol_id": 30755,
    "Folio": 0,
    "Usuario_id": "usuario2273",
    "Fecha_plantado": "",
    "Especie": "Chinese Tallow",
    "Fecha_registro": "2014-06-05",
    "Municipio": "Guadalupe",
    "Direccion": "Mariano Boticeli 714, Contry La Silla 5o Sector, 67173 NL, México",
    "lon": "",
    "lat": "",
    "id": "541a2cb4908e69c4ed702bfa"
  },
  {
    "Arbol_id": 30758,
    "Folio": 0,
    "Usuario_id": "usuario2273",
    "Fecha_plantado": "",
    "Especie": "Chinese Tallow",
    "Fecha_registro": "2014-06-05",
    "Municipio": "Guadalupe",
    "Direccion": "Mariano Boticeli 714, Contry La Silla 5o Sector, 67173 NL, México",
    "lon": "",
    "lat": "",
    "id": "541a2cb4908e69c4ed702bfd"
  },
  {
    "Arbol_id": 30764,
    "Folio": 0,
    "Usuario_id": "usuario2273",
    "Fecha_plantado": "",
    "Especie": "Chinese Tallow",
    "Fecha_registro": "2014-06-05",
    "Municipio": "Guadalupe",
    "Direccion": "Mariano Boticeli 714, Contry La Silla 5o Sector, 67173 NL, México",
    "lon": "",
    "lat": "",
    "id": "541a2cb4908e69c4ed702c03"
  },
  {
    "Arbol_id": 30765,
    "Folio": 0,
    "Usuario_id": "usuario2273",
    "Fecha_plantado": "",
    "Especie": "Chinese Tallow",
    "Fecha_registro": "2014-06-05",
    "Municipio": "Guadalupe",
    "Direccion": "Francisco Goya y Lucientes 2532, Contry La Silla 5o Sector, 67173 NL, México",
    "lon": -100.26548,
    "lat": 25.6413441,
    "id": "541a2cb4908e69c4ed702c04"
  },
  {
    "Arbol_id": 30767,
    "Folio": 0,
    "Usuario_id": "usuario2273",
    "Fecha_plantado": "",
    "Especie": "Chinese Tallow",
    "Fecha_registro": "2014-06-05",
    "Municipio": "Guadalupe",
    "Direccion": "Mariano Boticeli 2508-2509, Contry La Silla 5o Sector, 67173 NL, México",
    "lon": "",
    "lat": "",
    "id": "541a2cb4908e69c4ed702c06"
  },
  {
    "Arbol_id": 30769,
    "Folio": 0,
    "Usuario_id": "usuario2273",
    "Fecha_plantado": "",
    "Especie": "Chinese Tallow",
    "Fecha_registro": "2014-06-05",
    "Municipio": "Guadalupe",
    "Direccion": "Mariano Boticeli 2508-2509, Contry La Silla 5o Sector, 67173 NL, México",
    "lon": "",
    "lat": "",
    "id": "541a2cb4908e69c4ed702c08"
  },
  {
    "Arbol_id": 30771,
    "Folio": 0,
    "Usuario_id": "usuario2273",
    "Fecha_plantado": "",
    "Especie": "Chinese Tallow",
    "Fecha_registro": "2014-06-05",
    "Municipio": "Guadalupe",
    "Direccion": "Francisco Goya y Lucientes 2545, Contry La Silla 5o Sector, 67173 Guadalupe, NL, México",
    "lon": -100.2652283,
    "lat": 25.6407604,
    "id": "541a2cb4908e69c4ed702c0a"
  },
  {
    "Arbol_id": 30773,
    "Folio": 0,
    "Usuario_id": "usuario2273",
    "Fecha_plantado": "",
    "Especie": "Chinese Tallow",
    "Fecha_registro": "2014-06-05",
    "Municipio": "Guadalupe",
    "Direccion": "Francisco Goya y Lucientes 2545, Contry La Silla 5o Sector, 67173 Guadalupe, NL, México",
    "lon": -100.2652283,
    "lat": 25.6407604,
    "id": "541a2cb4908e69c4ed702c0c"
  },
  {
    "Arbol_id": 30775,
    "Folio": 0,
    "Usuario_id": "usuario2273",
    "Fecha_plantado": "",
    "Especie": "Chinese Tallow",
    "Fecha_registro": "2014-06-05",
    "Municipio": "Guadalupe",
    "Direccion": "Francisco Goya y Lucientes 2545, Contry La Silla 5o Sector, 67173 Guadalupe, NL, México",
    "lon": -100.2652283,
    "lat": 25.6407604,
    "id": "541a2cb4908e69c4ed702c0e"
  },
  {
    "Arbol_id": 30858,
    "Folio": 0,
    "Usuario_id": "usuario2273",
    "Fecha_plantado": "",
    "Especie": "Chinese Tallow",
    "Fecha_registro": "2014-06-06",
    "Municipio": "Guadalupe",
    "Direccion": "Durero 724, Contry La Silla 5o Sector, 67173 NL, México",
    "lon": "",
    "lat": "",
    "id": "541a2cb4908e69c4ed702c61"
  },
  {
    "Arbol_id": 30871,
    "Folio": 0,
    "Usuario_id": "usuario2273",
    "Fecha_plantado": "",
    "Especie": "Chinese Tallow",
    "Fecha_registro": "2014-06-06",
    "Municipio": "Guadalupe",
    "Direccion": "Albert Einstein 2867, Contry La Silla 5o Sector, 67173 NL, México",
    "lon": -100.2668228,
    "lat": 25.6301193,
    "id": "541a2cb4908e69c4ed702c6e"
  },
  {
    "Arbol_id": 30873,
    "Folio": 0,
    "Usuario_id": "usuario2273",
    "Fecha_plantado": "",
    "Especie": "Chinese Tallow",
    "Fecha_registro": "2014-06-06",
    "Municipio": "Guadalupe",
    "Direccion": "Albert Einstein 2867, Contry La Silla 5o Sector, 67173 NL, México",
    "lon": -100.2668228,
    "lat": 25.6301193,
    "id": "541a2cb4908e69c4ed702c70"
  },
  {
    "Arbol_id": 30874,
    "Folio": 0,
    "Usuario_id": "usuario2273",
    "Fecha_plantado": "",
    "Especie": "Chinese Tallow",
    "Fecha_registro": "2014-06-06",
    "Municipio": "Guadalupe",
    "Direccion": "Albert Einstein 2867, Contry La Silla 5o Sector, 67173 NL, México",
    "lon": -100.2668228,
    "lat": 25.6301193,
    "id": "541a2cb4908e69c4ed702c71"
  },
  {
    "Arbol_id": 30879,
    "Folio": 0,
    "Usuario_id": "usuario2273",
    "Fecha_plantado": "",
    "Especie": "Chinese Tallow",
    "Fecha_registro": "2014-06-06",
    "Municipio": "Guadalupe",
    "Direccion": "Durero 2517, Contry La Silla 5o Sector, 67173 NL, México",
    "lon": -100.2664032,
    "lat": 25.6413708,
    "id": "541a2cb4908e69c4ed702c76"
  },
  {
    "Arbol_id": 30881,
    "Folio": 0,
    "Usuario_id": "usuario2273",
    "Fecha_plantado": "",
    "Especie": "Chinese Tallow",
    "Fecha_registro": "2014-06-06",
    "Municipio": "Guadalupe",
    "Direccion": "Durero 2517, Contry La Silla 5o Sector, 67173 NL, México",
    "lon": -100.2664032,
    "lat": 25.6413708,
    "id": "541a2cb4908e69c4ed702c78"
  },
  {
    "Arbol_id": 30882,
    "Folio": 0,
    "Usuario_id": "usuario2273",
    "Fecha_plantado": "",
    "Especie": "Chinese Tallow",
    "Fecha_registro": "2014-06-06",
    "Municipio": "Guadalupe",
    "Direccion": "Albert Einstein 2564, Contry La Silla 5o Sector, 67173 NL, México",
    "lon": -100.2650452,
    "lat": 25.639801,
    "id": "541a2cb4908e69c4ed702c79"
  },
  {
    "Arbol_id": 30885,
    "Folio": 0,
    "Usuario_id": "usuario2273",
    "Fecha_plantado": "",
    "Especie": "Chinese Tallow",
    "Fecha_registro": "2014-06-06",
    "Municipio": "Guadalupe",
    "Direccion": "Albert Einstein 2549, Contry La Silla 5o Sector, 67173 NL, México",
    "lon": -100.2646103,
    "lat": 25.6405544,
    "id": "541a2cb4908e69c4ed702c7c"
  },
  {
    "Arbol_id": 30888,
    "Folio": 0,
    "Usuario_id": "usuario2273",
    "Fecha_plantado": "",
    "Especie": "Chinese Tallow",
    "Fecha_registro": "2014-06-06",
    "Municipio": "Guadalupe",
    "Direccion": "Pedro Brueghel 725, Contry La Silla 5o Sector, 67173 NL, México",
    "lon": -100.2665482,
    "lat": 25.6410198,
    "id": "541a2cb4908e69c4ed702c7f"
  },
  {
    "Arbol_id": 30899,
    "Folio": 0,
    "Usuario_id": "usuario2273",
    "Fecha_plantado": "",
    "Especie": "Chinese Tallow",
    "Fecha_registro": "2014-06-06",
    "Municipio": "Guadalupe",
    "Direccion": "Vicente Van Gogh 2532, Contry La Silla 5o Sector, 67173 Guadalupe, NL, México",
    "lon": -100.2633591,
    "lat": 25.64114,
    "id": "541a2cb4908e69c4ed702c8a"
  },
  {
    "Arbol_id": 30921,
    "Folio": 0,
    "Usuario_id": "usuario2273",
    "Fecha_plantado": "",
    "Especie": "Chinese Tallow",
    "Fecha_registro": "2014-06-06",
    "Municipio": "Guadalupe",
    "Direccion": "Durero 2549, Contry La Silla 5o Sector, 67173 NL, México",
    "lon": -100.2661743,
    "lat": 25.6406002,
    "id": "541a2cb4908e69c4ed702ca0"
  },
  {
    "Arbol_id": 31421,
    "Folio": 0,
    "Usuario_id": "usuario2273",
    "Fecha_plantado": "",
    "Especie": "Chinese Tallow",
    "Fecha_registro": "2014-06-09",
    "Municipio": "Guadalupe",
    "Direccion": "Pablo Cruz Picasso 836, Contry La Silla 5o Sector, 67173 NL, México",
    "lon": -100.26297,
    "lat": 25.6387196,
    "id": "541a2cb4908e69c4ed702e90"
  },
  {
    "Arbol_id": 31445,
    "Folio": 0,
    "Usuario_id": "usuario2273",
    "Fecha_plantado": "",
    "Especie": "Chinese Tallow",
    "Fecha_registro": "2014-06-09",
    "Municipio": "Guadalupe",
    "Direccion": "Pablo Cruz Picasso 257-823, Contry La Silla 5o Sector, 67173 NL, México",
    "lon": -100.2634735,
    "lat": 25.6387405,
    "id": "541a2cb4908e69c4ed702ea8"
  },
  {
    "Arbol_id": 31558,
    "Folio": 0,
    "Usuario_id": "usuario2273",
    "Fecha_plantado": "",
    "Especie": "Chinese Tallow",
    "Fecha_registro": "2014-06-10",
    "Municipio": "Guadalupe",
    "Direccion": "Miguel Angel Buonarotti 2595, Contry La Silla 5o Sector, 67173 NL, México",
    "lon": -100.2642059,
    "lat": 25.6394768,
    "id": "541a2cb4908e69c4ed702f19"
  },
  {
    "Arbol_id": 31564,
    "Folio": 1,
    "Usuario_id": "usuario2840",
    "Fecha_plantado": "",
    "Especie": "Chinese Tallow",
    "Fecha_registro": "2014-06-10",
    "Municipio": "San Nicolás",
    "Direccion": "Consentida 324, Bosques del Roble 1er Sector, 66413 NL, México",
    "lon": "",
    "lat": "",
    "id": "541a2cb4908e69c4ed702f1f"
  },
  {
    "Arbol_id": 31609,
    "Folio": 0,
    "Usuario_id": "usuario2273",
    "Fecha_plantado": "",
    "Especie": "Chinese Tallow",
    "Fecha_registro": "2014-06-10",
    "Municipio": "Guadalupe",
    "Direccion": "Miguel Angel Buonarotti 2535, Contry La Silla 5o Sector, 67173 NL, México",
    "lon": -100.2641525,
    "lat": 25.6409302,
    "id": "541a2cb4908e69c4ed702f4c"
  },
  {
    "Arbol_id": 31611,
    "Folio": 0,
    "Usuario_id": "usuario2273",
    "Fecha_plantado": "",
    "Especie": "Chinese Tallow",
    "Fecha_registro": "2014-06-10",
    "Municipio": "Guadalupe",
    "Direccion": "Miguel Angel Buonarotti 2535, Contry La Silla 5o Sector, 67173 NL, México",
    "lon": -100.2641525,
    "lat": 25.6409302,
    "id": "541a2cb4908e69c4ed702f4e"
  },
  {
    "Arbol_id": 31613,
    "Folio": 0,
    "Usuario_id": "usuario2273",
    "Fecha_plantado": "",
    "Especie": "Chinese Tallow",
    "Fecha_registro": "2014-06-10",
    "Municipio": "Guadalupe",
    "Direccion": "Miguel Angel Buonarotti 2535, Contry La Silla 5o Sector, 67173 NL, México",
    "lon": -100.2641525,
    "lat": 25.6409302,
    "id": "541a2cb4908e69c4ed702f50"
  },
  {
    "Arbol_id": 31616,
    "Folio": 0,
    "Usuario_id": "usuario2273",
    "Fecha_plantado": "",
    "Especie": "Chinese Tallow",
    "Fecha_registro": "2014-06-10",
    "Municipio": "Guadalupe",
    "Direccion": "Tiziano Viccelio 820, Contry La Silla 5o Sector, 67173 NL, México",
    "lon": -100.2639923,
    "lat": 25.6407108,
    "id": "541a2cb4908e69c4ed702f53"
  },
  {
    "Arbol_id": 31617,
    "Folio": 0,
    "Usuario_id": "usuario2273",
    "Fecha_plantado": "",
    "Especie": "Chinese Tallow",
    "Fecha_registro": "2014-06-10",
    "Municipio": "Guadalupe",
    "Direccion": "Tiziano Viccelio 820, Contry La Silla 5o Sector, 67173 NL, México",
    "lon": -100.2639923,
    "lat": 25.6407108,
    "id": "541a2cb4908e69c4ed702f54"
  },
  {
    "Arbol_id": 31620,
    "Folio": 0,
    "Usuario_id": "usuario2273",
    "Fecha_plantado": "",
    "Especie": "Chinese Tallow",
    "Fecha_registro": "2014-06-10",
    "Municipio": "Guadalupe",
    "Direccion": "Tiziano Viccelio 820, Contry La Silla 5o Sector, 67173 NL, México",
    "lon": -100.2639923,
    "lat": 25.6407108,
    "id": "541a2cb4908e69c4ed702f57"
  },
  {
    "Arbol_id": 31624,
    "Folio": 0,
    "Usuario_id": "usuario2273",
    "Fecha_plantado": "",
    "Especie": "Chinese Tallow",
    "Fecha_registro": "2014-06-10",
    "Municipio": "Guadalupe",
    "Direccion": "Tiziano Viccelio 820, Contry La Silla 5o Sector, 67173 NL, México",
    "lon": -100.2639923,
    "lat": 25.6407108,
    "id": "541a2cb4908e69c4ed702f5b"
  },
  {
    "Arbol_id": 31627,
    "Folio": 0,
    "Usuario_id": "usuario2273",
    "Fecha_plantado": "",
    "Especie": "Chinese Tallow",
    "Fecha_registro": "2014-06-10",
    "Municipio": "Guadalupe",
    "Direccion": "Tiziano Viccelio 820, Contry La Silla 5o Sector, 67173 NL, México",
    "lon": -100.2639923,
    "lat": 25.6407108,
    "id": "541a2cb4908e69c4ed702f5e"
  },
  {
    "Arbol_id": 31659,
    "Folio": 0,
    "Usuario_id": "usuario2273",
    "Fecha_plantado": "",
    "Especie": "Chinese Tallow",
    "Fecha_registro": "2014-06-10",
    "Municipio": "Guadalupe",
    "Direccion": "Tiziano Viccelio 827, Contry La Silla 5o Sector, 67173 NL, México",
    "lon": -100.2634811,
    "lat": 25.6408176,
    "id": "541a2cb4908e69c4ed702f7e"
  },
  {
    "Arbol_id": 31660,
    "Folio": 0,
    "Usuario_id": "usuario2273",
    "Fecha_plantado": "",
    "Especie": "Chinese Tallow",
    "Fecha_registro": "2014-06-10",
    "Municipio": "Guadalupe",
    "Direccion": "Tiziano Viccelio 827, Contry La Silla 5o Sector, 67173 NL, México",
    "lon": -100.2634811,
    "lat": 25.6408176,
    "id": "541a2cb4908e69c4ed702f7f"
  },
  {
    "Arbol_id": 31662,
    "Folio": 0,
    "Usuario_id": "usuario2273",
    "Fecha_plantado": "",
    "Especie": "Chinese Tallow",
    "Fecha_registro": "2014-06-10",
    "Municipio": "Guadalupe",
    "Direccion": "Tiziano Viccelio 827, Contry La Silla 5o Sector, 67173 NL, México",
    "lon": -100.2634811,
    "lat": 25.6408176,
    "id": "541a2cb4908e69c4ed702f81"
  },
  {
    "Arbol_id": 31687,
    "Folio": 0,
    "Usuario_id": "usuario2273",
    "Fecha_plantado": "",
    "Especie": "Chinese Tallow",
    "Fecha_registro": "2014-06-10",
    "Municipio": "Guadalupe",
    "Direccion": "Tiziano Viccelio 843, Contry La Silla 5o Sector, 67173 NL, México",
    "lon": -100.2630768,
    "lat": 25.6406803,
    "id": "541a2cb4908e69c4ed702f9a"
  },
  {
    "Arbol_id": 31688,
    "Folio": 0,
    "Usuario_id": "usuario2273",
    "Fecha_plantado": "",
    "Especie": "Chinese Tallow",
    "Fecha_registro": "2014-06-10",
    "Municipio": "Guadalupe",
    "Direccion": "Tiziano Viccelio 843, Contry La Silla 5o Sector, 67173 NL, México",
    "lon": -100.2630768,
    "lat": 25.6406803,
    "id": "541a2cb4908e69c4ed702f9b"
  },
  {
    "Arbol_id": 31691,
    "Folio": 0,
    "Usuario_id": "usuario2273",
    "Fecha_plantado": "",
    "Especie": "Chinese Tallow",
    "Fecha_registro": "2014-06-10",
    "Municipio": "Guadalupe",
    "Direccion": "Tiziano Viccelio 843, Contry La Silla 5o Sector, 67173 NL, México",
    "lon": -100.2630768,
    "lat": 25.6406803,
    "id": "541a2cb4908e69c4ed702f9e"
  },