[
  {
    "Arbol_id": 641,
    "Folio": 0,
    "Usuario_id": "usuario2715",
    "Fecha_plantado": "",
    "Especie": "Ciprés",
    "Fecha_registro": "2013-06-20",
    "Municipio": "Monterrey",
    "Direccion": "Esparta 3025-3224, Valle Primavera, 64833 Monterrey, Nuevo Leon, Mexico",
    "lon": -100.2844086,
    "lat": 25.6484909,
    "id": "541a2cac908e69c4ed6fb93c"
  },
  {
    "Arbol_id": 644,
    "Folio": 0,
    "Usuario_id": "usuario2715",
    "Fecha_plantado": "",
    "Especie": "Ciprés",
    "Fecha_registro": "2013-06-20",
    "Municipio": "Monterrey",
    "Direccion": "Esparta 3228, Valle Primavera, 64833 Monterrey, Nuevo Leon, Mexico",
    "lon": -100.281868,
    "lat": 25.6487999,
    "id": "541a2cac908e69c4ed6fb93f"
  },
  {
    "Arbol_id": 645,
    "Folio": 0,
    "Usuario_id": "usuario2715",
    "Fecha_plantado": "",
    "Especie": "Ciprés",
    "Fecha_registro": "2013-06-20",
    "Municipio": "Monterrey",
    "Direccion": "Esparta 3228, Valle Primavera, 64833 Monterrey, Nuevo Leon, Mexico",
    "lon": -100.281868,
    "lat": 25.6487999,
    "id": "541a2cac908e69c4ed6fb940"
  },
  {
    "Arbol_id": 1969,
    "Folio": 0,
    "Usuario_id": "usuario919",
    "Fecha_plantado": "",
    "Especie": "Ciprés",
    "Fecha_registro": "2013-09-28",
    "Municipio": "Monterrey",
    "Direccion": "Bahía del Geógrafo, Rincon De La Primavera, 64835 Monterrey, NL, México",
    "lon": -100.2732773,
    "lat": 25.6501999,
    "id": "541a2cac908e69c4ed6fbdb5"
  },
  {
    "Arbol_id": 1970,
    "Folio": 0,
    "Usuario_id": "usuario919",
    "Fecha_plantado": "",
    "Especie": "Ciprés",
    "Fecha_registro": "2013-09-28",
    "Municipio": "Monterrey",
    "Direccion": "Bahía del Geógrafo, Rincon De La Primavera, 64835 Monterrey, NL, México",
    "lon": -100.2732773,
    "lat": 25.6501999,
    "id": "541a2cac908e69c4ed6fbdb6"
  },
  {
    "Arbol_id": 1971,
    "Folio": 0,
    "Usuario_id": "usuario919",
    "Fecha_plantado": "",
    "Especie": "Ciprés",
    "Fecha_registro": "2013-09-28",
    "Municipio": "Monterrey",
    "Direccion": "Bahía del Geógrafo, Rincon De La Primavera, 64835 Monterrey, NL, México",
    "lon": -100.2732773,
    "lat": 25.6501999,
    "id": "541a2cac908e69c4ed6fbdb7"
  },
  {
    "Arbol_id": 1972,
    "Folio": 0,
    "Usuario_id": "usuario919",
    "Fecha_plantado": "",
    "Especie": "Ciprés",
    "Fecha_registro": "2013-09-28",
    "Municipio": "Monterrey",
    "Direccion": "Bahía del Geógrafo, Rincon De La Primavera, 64835 Monterrey, NL, México",
    "lon": -100.2732773,
    "lat": 25.6501999,
    "id": "541a2cac908e69c4ed6fbdb8"
  },
  {
    "Arbol_id": 1973,
    "Folio": 0,
    "Usuario_id": "usuario919",
    "Fecha_plantado": "",
    "Especie": "Ciprés",
    "Fecha_registro": "2013-09-28",
    "Municipio": "Monterrey",
    "Direccion": "Bahía del Geógrafo, Rincon De La Primavera, 64835 Monterrey, NL, México",
    "lon": -100.2732773,
    "lat": 25.6501999,
    "id": "541a2cac908e69c4ed6fbdb9"
  },
  {
    "Arbol_id": 1974,
    "Folio": 0,
    "Usuario_id": "usuario919",
    "Fecha_plantado": "",
    "Especie": "Ciprés",
    "Fecha_registro": "2013-09-28",
    "Municipio": "Monterrey",
    "Direccion": "Bahía del Geógrafo, Rincon De La Primavera, 64835 Monterrey, NL, México",
    "lon": -100.2732773,
    "lat": 25.6501999,
    "id": "541a2cac908e69c4ed6fbdba"
  },
  {
    "Arbol_id": 1975,
    "Folio": 0,
    "Usuario_id": "usuario919",
    "Fecha_plantado": "",
    "Especie": "Ciprés",
    "Fecha_registro": "2013-09-28",
    "Municipio": "Monterrey",
    "Direccion": "Bahía del Geógrafo, Rincon De La Primavera, 64835 Monterrey, NL, México",
    "lon": -100.2732773,
    "lat": 25.6501999,
    "id": "541a2cac908e69c4ed6fbdbb"
  },
  {
    "Arbol_id": 1976,
    "Folio": 0,
    "Usuario_id": "usuario919",
    "Fecha_plantado": "",
    "Especie": "Ciprés",
    "Fecha_registro": "2013-09-28",
    "Municipio": "Monterrey",
    "Direccion": "Bahía del Geógrafo, Rincon De La Primavera, 64835 Monterrey, NL, México",
    "lon": -100.2732773,
    "lat": 25.6501999,
    "id": "541a2cac908e69c4ed6fbdbc"
  },
  {
    "Arbol_id": 1977,
    "Folio": 0,
    "Usuario_id": "usuario919",
    "Fecha_plantado": "",
    "Especie": "Ciprés",
    "Fecha_registro": "2013-09-28",
    "Municipio": "Monterrey",
    "Direccion": "Bahía del Geógrafo, Rincon De La Primavera, 64835 Monterrey, NL, México",
    "lon": -100.2732773,
    "lat": 25.6501999,
    "id": "541a2cac908e69c4ed6fbdbd"
  },
  {
    "Arbol_id": 1978,
    "Folio": 0,
    "Usuario_id": "usuario919",
    "Fecha_plantado": "",
    "Especie": "Ciprés",
    "Fecha_registro": "2013-09-28",
    "Municipio": "Monterrey",
    "Direccion": "Bahía del Geógrafo, Rincon De La Primavera, 64835 Monterrey, NL, México",
    "lon": -100.2732773,
    "lat": 25.6501999,
    "id": "541a2cac908e69c4ed6fbdbe"
  },
  {
    "Arbol_id": 1979,
    "Folio": 0,
    "Usuario_id": "usuario919",
    "Fecha_plantado": "",
    "Especie": "Ciprés",
    "Fecha_registro": "2013-09-28",
    "Municipio": "Monterrey",
    "Direccion": "Bahía del Geógrafo, Rincon De La Primavera, 64835 Monterrey, NL, México",
    "lon": -100.2732773,
    "lat": 25.6501999,
    "id": "541a2cac908e69c4ed6fbdbf"
  },
  {
    "Arbol_id": 1980,
    "Folio": 0,
    "Usuario_id": "usuario919",
    "Fecha_plantado": "",
    "Especie": "Ciprés",
    "Fecha_registro": "2013-09-28",
    "Municipio": "Monterrey",
    "Direccion": "Bahía de Coronado 3748, Rincon De La Primavera, 64834 Monterrey, NL, México",
    "lon": -100.2724228,
    "lat": 25.6511707,
    "id": "541a2cac908e69c4ed6fbdc0"
  },
  {
    "Arbol_id": 1981,
    "Folio": 0,
    "Usuario_id": "usuario919",
    "Fecha_plantado": "",
    "Especie": "Ciprés",
    "Fecha_registro": "2013-09-28",
    "Municipio": "Monterrey",
    "Direccion": "Bahía de Coronado 3748, Rincon De La Primavera, 64834 Monterrey, NL, México",
    "lon": -100.2724228,
    "lat": 25.6511707,
    "id": "541a2cac908e69c4ed6fbdc1"
  },
  {
    "Arbol_id": 1982,
    "Folio": 0,
    "Usuario_id": "usuario919",
    "Fecha_plantado": "",
    "Especie": "Ciprés",
    "Fecha_registro": "2013-09-28",
    "Municipio": "Monterrey",
    "Direccion": "Bahía de Coronado 3748, Rincon De La Primavera, 64834 Monterrey, NL, México",
    "lon": -100.2724228,
    "lat": 25.6511707,
    "id": "541a2cac908e69c4ed6fbdc2"
  },
  {
    "Arbol_id": 1983,
    "Folio": 0,
    "Usuario_id": "usuario919",
    "Fecha_plantado": "",
    "Especie": "Ciprés",
    "Fecha_registro": "2013-09-28",
    "Municipio": "Monterrey",
    "Direccion": "Bahía de Coronado 3748, Rincon De La Primavera, 64834 Monterrey, NL, México",
    "lon": -100.2724228,
    "lat": 25.6511707,
    "id": "541a2cac908e69c4ed6fbdc3"
  },
  {
    "Arbol_id": 1984,
    "Folio": 0,
    "Usuario_id": "usuario919",
    "Fecha_plantado": "",
    "Especie": "Ciprés",
    "Fecha_registro": "2013-09-28",
    "Municipio": "Monterrey",
    "Direccion": "Bahía de Coronado 3748, Rincon De La Primavera, 64834 Monterrey, NL, México",
    "lon": -100.2724228,
    "lat": 25.6511707,
    "id": "541a2cac908e69c4ed6fbdc4"
  },
  {
    "Arbol_id": 1985,
    "Folio": 0,
    "Usuario_id": "usuario919",
    "Fecha_plantado": "",
    "Especie": "Ciprés",
    "Fecha_registro": "2013-09-28",
    "Municipio": "Monterrey",
    "Direccion": "Bahía de Coronado 3748, Rincon De La Primavera, 64834 Monterrey, NL, México",
    "lon": -100.2724228,
    "lat": 25.6511707,
    "id": "541a2cac908e69c4ed6fbdc5"
  },
  {
    "Arbol_id": 1986,
    "Folio": 0,
    "Usuario_id": "usuario919",
    "Fecha_plantado": "",
    "Especie": "Ciprés",
    "Fecha_registro": "2013-09-28",
    "Municipio": "Monterrey",
    "Direccion": "Bahía de Coronado 3748, Rincon De La Primavera, Monterrey, NL, México",
    "lon": -100.2724228,
    "lat": 25.6511707,
    "id": "541a2cac908e69c4ed6fbdc6"
  },
  {
    "Arbol_id": 2102,
    "Folio": 0,
    "Usuario_id": "usuario919",
    "Fecha_plantado": "",
    "Especie": "Ciprés",
    "Fecha_registro": "2013-10-08",
    "Municipio": "Monterrey",
    "Direccion": "Bahía de Coronado 3748, Rincon De La Primavera, 64834 Monterrey, NL, México",
    "lon": -100.2724228,
    "lat": 25.6511707,
    "id": "541a2cac908e69c4ed6fbe29"
  },
  {
    "Arbol_id": 2354,
    "Folio": 0,
    "Usuario_id": "usuario1846",
    "Fecha_plantado": "",
    "Especie": "Ciprés",
    "Fecha_registro": "2013-10-16",
    "Municipio": "San Pedro",
    "Direccion": "San Juan 308, Valle del Seminario 1er Sector, 66218 NL, México",
    "lon": -100.4019775,
    "lat": 25.6736507,
    "id": "541a2cac908e69c4ed6fbf12"
  },
  {
    "Arbol_id": 2355,
    "Folio": 0,
    "Usuario_id": "usuario1846",
    "Fecha_plantado": "",
    "Especie": "Ciprés",
    "Fecha_registro": "2013-10-16",
    "Municipio": "San Pedro",
    "Direccion": "San Juan 308, Valle del Seminario 1er Sector, 66218 NL, México",
    "lon": -100.4019775,
    "lat": 25.6736507,
    "id": "541a2cac908e69c4ed6fbf13"
  },
  {
    "Arbol_id": 2356,
    "Folio": 0,
    "Usuario_id": "usuario1846",
    "Fecha_plantado": "",
    "Especie": "Ciprés",
    "Fecha_registro": "2013-10-16",
    "Municipio": "San Pedro",
    "Direccion": "San Juan 310, Valle del Seminario 1er Sector, 66218 NL, México",
    "lon": -100.4020462,
    "lat": 25.6736507,
    "id": "541a2cac908e69c4ed6fbf14"
  },
  {
    "Arbol_id": 2360,
    "Folio": 0,
    "Usuario_id": "usuario1846",
    "Fecha_plantado": "",
    "Especie": "Ciprés",
    "Fecha_registro": "2013-10-16",
    "Municipio": "San Pedro",
    "Direccion": "San Juan 318, Valle del Seminario 1er Sector, 66218 NL, México",
    "lon": -100.4023132,
    "lat": 25.6736298,
    "id": "541a2cac908e69c4ed6fbf18"
  },
  {
    "Arbol_id": 2361,
    "Folio": 0,
    "Usuario_id": "usuario1846",
    "Fecha_plantado": "",
    "Especie": "Ciprés",
    "Fecha_registro": "2013-10-16",
    "Municipio": "San Pedro",
    "Direccion": "San Juan 318, Valle del Seminario 1er Sector, 66218 NL, México",
    "lon": -100.4023132,
    "lat": 25.6736298,
    "id": "541a2cac908e69c4ed6fbf19"
  },
  {
    "Arbol_id": 2364,
    "Folio": 0,
    "Usuario_id": "usuario1846",
    "Fecha_plantado": "",
    "Especie": "Ciprés",
    "Fecha_registro": "2013-10-18",
    "Municipio": "San Pedro",
    "Direccion": "Avenida Corregidora Norte SN-S SEMINARIO, Valle del Seminario 1er Sector, 66218 NL, México",
    "lon": "",
    "lat": "",
    "id": "541a2cac908e69c4ed6fbf1c"
  },
  {
    "Arbol_id": 2365,
    "Folio": 0,
    "Usuario_id": "usuario1846",
    "Fecha_plantado": "",
    "Especie": "Ciprés",
    "Fecha_registro": "2013-10-18",
    "Municipio": "San Pedro",
    "Direccion": "Avenida Corregidora Norte SN-S SEMINARIO, Valle del Seminario 1er Sector, 66218 NL, México",
    "lon": "",
    "lat": "",
    "id": "541a2cac908e69c4ed6fbf1d"
  },
  {
    "Arbol_id": 2366,
    "Folio": 0,
    "Usuario_id": "usuario1846",
    "Fecha_plantado": "",
    "Especie": "Ciprés",
    "Fecha_registro": "2013-10-18",
    "Municipio": "San Pedro",
    "Direccion": "Avenida Corregidora Norte SN-S SEMINARIO, Valle del Seminario 1er Sector, 66218 NL, México",
    "lon": "",
    "lat": "",
    "id": "541a2cac908e69c4ed6fbf1e"
  },
  {
    "Arbol_id": 2615,
    "Folio": 0,
    "Usuario_id": "usuario919",
    "Fecha_plantado": "",
    "Especie": "Ciprés",
    "Fecha_registro": "2013-11-01",
    "Municipio": "Monterrey",
    "Direccion": "Bahía de Panamá, Rincon De La Primavera, 64835 Monterrey, NL, México",
    "lon": -100.2720184,
    "lat": 25.6504002,
    "id": "541a2cac908e69c4ed6fc006"
  },
  {
    "Arbol_id": 2618,
    "Folio": 0,
    "Usuario_id": "usuario919",
    "Fecha_plantado": "",
    "Especie": "Ciprés",
    "Fecha_registro": "2013-11-01",
    "Municipio": "Monterrey",
    "Direccion": "Bahía de Panamá, Rincon De La Primavera, 64835 Monterrey, NL, México",
    "lon": -100.2720184,
    "lat": 25.6504002,
    "id": "541a2cac908e69c4ed6fc009"
  },
  {
    "Arbol_id": 2620,
    "Folio": 0,
    "Usuario_id": "usuario919",
    "Fecha_plantado": "",
    "Especie": "Ciprés",
    "Fecha_registro": "2013-11-01",
    "Municipio": "Monterrey",
    "Direccion": "Bahía del Geógrafo, Rincon De La Primavera, 64835 Monterrey, NL, México",
    "lon": -100.2732773,
    "lat": 25.6501999,
    "id": "541a2cac908e69c4ed6fc00b"
  },
  {
    "Arbol_id": 2624,
    "Folio": 0,
    "Usuario_id": "usuario919",
    "Fecha_plantado": "",
    "Especie": "Ciprés",
    "Fecha_registro": "2013-11-01",
    "Municipio": "Monterrey",
    "Direccion": "Bahía del Geógrafo, Rincon De La Primavera, 64835 Monterrey, NL, México",
    "lon": -100.2732773,
    "lat": 25.6501999,
    "id": "541a2cac908e69c4ed6fc00f"
  },
  {
    "Arbol_id": 2716,
    "Folio": 0,
    "Usuario_id": "usuario1436",
    "Fecha_plantado": "",
    "Especie": "Ciprés",
    "Fecha_registro": "2013-11-03",
    "Municipio": "San Pedro",
    "Direccion": "Río Guadalquivir 208, Del Valle, 66220 Monterrey, Nuevo Leon, Mexico",
    "lon": -100.3640823,
    "lat": 25.6605282,
    "id": "541a2cac908e69c4ed6fc067"
  },
  {
    "Arbol_id": 2717,
    "Folio": 0,
    "Usuario_id": "usuario1436",
    "Fecha_plantado": "",
    "Especie": "Ciprés",
    "Fecha_registro": "2013-11-03",
    "Municipio": "San Pedro",
    "Direccion": "Río Guadalquivir 208, Del Valle, 66220 Monterrey, Nuevo Leon, Mexico",
    "lon": -100.3640823,
    "lat": 25.6605282,
    "id": "541a2cac908e69c4ed6fc068"
  },
  {
    "Arbol_id": 2886,
    "Folio": 398,
    "Usuario_id": "usuario637",
    "Fecha_plantado": "",
    "Especie": "Ciprés",
    "Fecha_registro": "2013-11-09",
    "Municipio": "Monterrey",
    "Direccion": "Arquitectos 144_2, Tecnológico, 64700 Monterrey, NL, México",
    "lon": -100.294342,
    "lat": 25.6481705,
    "id": "541a2cac908e69c4ed6fc108"
  },
  {
    "Arbol_id": 2899,
    "Folio": 451,
    "Usuario_id": "usuario637",
    "Fecha_plantado": "",
    "Especie": "Ciprés",
    "Fecha_registro": "2013-11-09",
    "Municipio": "Monterrey",
    "Direccion": "Físicos 350, Tecnológico, 64700 Monterrey, NL, México",
    "lon": -100.2960815,
    "lat": 25.6496029,
    "id": "541a2cac908e69c4ed6fc113"
  },
  {
    "Arbol_id": 2903,
    "Folio": 433,
    "Usuario_id": "usuario637",
    "Fecha_plantado": "",
    "Especie": "Ciprés",
    "Fecha_registro": "2013-11-09",
    "Municipio": "Monterrey",
    "Direccion": "Físicos, Tecnológico, 64700 Monterrey, NL, México",
    "lon": -100.2948074,
    "lat": 25.6504993,
    "id": "541a2cac908e69c4ed6fc115"
  },
  {
    "Arbol_id": 3021,
    "Folio": 24,
    "Usuario_id": "usuario637",
    "Fecha_plantado": "",
    "Especie": "Ciprés",
    "Fecha_registro": "2013-11-17",
    "Municipio": "Monterrey",
    "Direccion": "Físicos 360, Tecnológico, 64700 Monterrey, NL, México",
    "lon": -100.2961426,
    "lat": 25.6494503,
    "id": "541a2cac908e69c4ed6fc17a"
  },
  {
    "Arbol_id": 3022,
    "Folio": 25,
    "Usuario_id": "usuario637",
    "Fecha_plantado": "",
    "Especie": "Ciprés",
    "Fecha_registro": "2013-11-17",
    "Municipio": "Monterrey",
    "Direccion": "Físicos 368, Tecnológico, 64700 Monterrey, NL, México",
    "lon": -100.2962112,
    "lat": 25.6494007,
    "id": "541a2cac908e69c4ed6fc17b"
  },
  {
    "Arbol_id": 3024,
    "Folio": 309,
    "Usuario_id": "usuario637",
    "Fecha_plantado": "",
    "Especie": "Ciprés",
    "Fecha_registro": "2013-11-17",
    "Municipio": "Monterrey",
    "Direccion": "Químicos 215_3, Tecnológico, 64700 Monterrey, NL, México",
    "lon": -100.2943115,
    "lat": 25.6490593,
    "id": "541a2cac908e69c4ed6fc17d"
  },
  {
    "Arbol_id": 3026,
    "Folio": 310,
    "Usuario_id": "usuario637",
    "Fecha_plantado": "",
    "Especie": "Ciprés",
    "Fecha_registro": "2013-11-17",
    "Municipio": "Monterrey",
    "Direccion": "Químicos 215_3, Tecnológico, 64700 Monterrey, NL, México",
    "lon": -100.2943115,
    "lat": 25.6490593,
    "id": "541a2cac908e69c4ed6fc17f"
  },
  {
    "Arbol_id": 3258,
    "Folio": 162,
    "Usuario_id": "usuario637",
    "Fecha_plantado": "",
    "Especie": "Ciprés",
    "Fecha_registro": "2013-11-23",
    "Municipio": "Monterrey",
    "Direccion": "Bachilleres 105, Tecnológico, 64700 Monterrey, NL, México",
    "lon": -100.2934265,
    "lat": 25.6478691,
    "id": "541a2cac908e69c4ed6fc25e"
  },
  {
    "Arbol_id": 3259,
    "Folio": 165,
    "Usuario_id": "usuario637",
    "Fecha_plantado": "",
    "Especie": "Ciprés",
    "Fecha_registro": "2013-11-23",
    "Municipio": "Monterrey",
    "Direccion": "Bachilleres 105, Tecnológico, 64700 Monterrey, NL, México",
    "lon": -100.2934265,
    "lat": 25.6478691,
    "id": "541a2cac908e69c4ed6fc25f"
  },
  {
    "Arbol_id": 3260,
    "Folio": 172,
    "Usuario_id": "usuario637",
    "Fecha_plantado": "",
    "Especie": "Ciprés",
    "Fecha_registro": "2013-11-23",
    "Municipio": "Monterrey",
    "Direccion": "Bachilleres 105_13, Tecnológico, 64700 Monterrey, NL, México",
    "lon": -100.2938614,
    "lat": 25.6476402,
    "id": "541a2cac908e69c4ed6fc260"
  },
  {
    "Arbol_id": 3261,
    "Folio": 166,
    "Usuario_id": "usuario637",
    "Fecha_plantado": "",
    "Especie": "Ciprés",
    "Fecha_registro": "2013-11-23",
    "Municipio": "Monterrey",
    "Direccion": "Bachilleres 105_9, Tecnológico, 64700 Monterrey, NL, México",
    "lon": -100.2938614,
    "lat": 25.6476402,
    "id": "541a2cac908e69c4ed6fc261"
  },
  {
    "Arbol_id": 3373,
    "Folio": 4,
    "Usuario_id": "usuario637",
    "Fecha_plantado": "",
    "Especie": "Ciprés",
    "Fecha_registro": "2013-12-01",
    "Municipio": "Monterrey",
    "Direccion": "Agrónomos 204, Tecnológico, 64700 Monterrey, NL, México",
    "lon": -100.2933502,
    "lat": 25.6487122,
    "id": "541a2cac908e69c4ed6fc2d0"
  },
  {
    "Arbol_id": 3424,
    "Folio": 88,
    "Usuario_id": "usuario637",
    "Fecha_plantado": "",
    "Especie": "Ciprés",
    "Fecha_registro": "2013-12-01",
    "Municipio": "Monterrey",
    "Direccion": "Ingenieros 262-264, Tecnológico, 64700 Monterrey, NL, México",
    "lon": -100.2940979,
    "lat": 25.6466408,
    "id": "541a2cac908e69c4ed6fc303"
  },
  {
    "Arbol_id": 3425,
    "Folio": 87,
    "Usuario_id": "usuario637",
    "Fecha_plantado": "",
    "Especie": "Ciprés",
    "Fecha_registro": "2013-12-01",
    "Municipio": "Monterrey",
    "Direccion": "Ingenieros 262-264, Tecnológico, 64700 Monterrey, NL, México",
    "lon": -100.2940979,
    "lat": 25.6466408,
    "id": "541a2cac908e69c4ed6fc304"
  },
  {
    "Arbol_id": 3426,
    "Folio": 86,
    "Usuario_id": "usuario637",
    "Fecha_plantado": "",
    "Especie": "Ciprés",
    "Fecha_registro": "2013-12-01",
    "Municipio": "Monterrey",
    "Direccion": "Ingenieros 261-262, Tecnológico, 64700 Monterrey, NL, México",
    "lon": -100.2939682,
    "lat": 25.6466103,
    "id": "541a2cac908e69c4ed6fc305"
  },
  {
    "Arbol_id": 3458,
    "Folio": 0,
    "Usuario_id": "usuario1757",
    "Fecha_plantado": "",
    "Especie": "Ciprés",
    "Fecha_registro": "2013-12-01",
    "Municipio": "Monterrey",
    "Direccion": "Ignacio López Rayon 454, Centro, 64000 Monterrey, Nuevo Leon, Mexico",
    "lon": -100.3208618,
    "lat": 25.6733093,
    "id": "541a2cac908e69c4ed6fc325"
  },
  {
    "Arbol_id": 3459,
    "Folio": 0,
    "Usuario_id": "usuario1757",
    "Fecha_plantado": "",
    "Especie": "Ciprés",
    "Fecha_registro": "2013-12-01",
    "Municipio": "Monterrey",
    "Direccion": "Ignacio López Rayon 454, Centro, 64000 Monterrey, Nuevo Leon, Mexico",
    "lon": -100.3208618,
    "lat": 25.6733093,
    "id": "541a2cac908e69c4ed6fc326"
  },
  {
    "Arbol_id": 3739,
    "Folio": 0,
    "Usuario_id": "usuario1182",
    "Fecha_plantado": "",
    "Especie": "Ciprés",
    "Fecha_registro": "2013-12-22",
    "Municipio": "Monterrey",
    "Direccion": "Calle Angel Martínez Villarreal 2810, Chepevera, 64030 Monterrey, NL, México",
    "lon": -100.3411407,
    "lat": 25.6810894,
    "id": "541a2cac908e69c4ed6fc430"
  },
  {
    "Arbol_id": 3740,
    "Folio": 0,
    "Usuario_id": "usuario1182",
    "Fecha_plantado": "",
    "Especie": "Ciprés",
    "Fecha_registro": "2013-12-22",
    "Municipio": "Monterrey",
    "Direccion": "Calle Angel Martínez Villarreal 2728, Chepevera, 64030 Monterrey, NL, México",
    "lon": -100.3407211,
    "lat": 25.6810398,
    "id": "541a2cac908e69c4ed6fc431"
  },
  {
    "Arbol_id": 3760,
    "Folio": 0,
    "Usuario_id": "usuario1182",
    "Fecha_plantado": "",
    "Especie": "Ciprés",
    "Fecha_registro": "2013-12-22",
    "Municipio": "Monterrey",
    "Direccion": "José F. Muguerza 2680, Lomas, Monterrey, NL, México",
    "lon": -100.3390121,
    "lat": 25.6802807,
    "id": "541a2cac908e69c4ed6fc444"
  },
  {
    "Arbol_id": 3784,
    "Folio": 232,
    "Usuario_id": "usuario1822",
    "Fecha_plantado": "",
    "Especie": "Ciprés",
    "Fecha_registro": "2013-12-23",
    "Municipio": "San Nicolás",
    "Direccion": "Mandarina, Getsemaní, 66425 NL, México",
    "lon": -100.3025208,
    "lat": 25.7588806,
    "id": "541a2cac908e69c4ed6fc45b"
  },
  {
    "Arbol_id": 3834,
    "Folio": 0,
    "Usuario_id": "usuario1375",
    "Fecha_plantado": "",
    "Especie": "Ciprés",
    "Fecha_registro": "2014-01-09",
    "Municipio": "Santa Catarina",
    "Direccion": "Miguel Hidalgo y Costilla 205, Santa Catarina (Cabecera Municipal), 66350 Nuevo Leon, Mexico",
    "lon": -100.4611282,
    "lat": 25.6758404,
    "id": "541a2cac908e69c4ed6fc48d"
  },
  {
    "Arbol_id": 3836,
    "Folio": 0,
    "Usuario_id": "usuario1375",
    "Fecha_plantado": "",
    "Especie": "Ciprés",
    "Fecha_registro": "2014-01-09",
    "Municipio": "Santa Catarina",
    "Direccion": "General Ignacio Zaragoza 100, Santa Catarina (Cabecera Municipal), 66350 Nuevo Leon, Mexico",
    "lon": -100.4615097,
    "lat": 25.6743011,
    "id": "541a2cac908e69c4ed6fc48f"
  },
  {
    "Arbol_id": 3837,
    "Folio": 0,
    "Usuario_id": "usuario1375",
    "Fecha_plantado": "",
    "Especie": "Ciprés",
    "Fecha_registro": "2014-01-09",
    "Municipio": "Santa Catarina",
    "Direccion": "General Ignacio Zaragoza 100, Santa Catarina (Cabecera Municipal), 66350 Nuevo Leon, Mexico",
    "lon": -100.4615097,
    "lat": 25.6743011,
    "id": "541a2cac908e69c4ed6fc490"
  },
  {
    "Arbol_id": 3922,
    "Folio": 0,
    "Usuario_id": "usuario2273",
    "Fecha_plantado": "",
    "Especie": "Ciprés",
    "Fecha_registro": "2014-01-17",
    "Municipio": "Guadalupe",
    "Direccion": "John F. Kennedy 3145, Contry La Silla 1er Sector, 67173 Guadalupe, NL, México",
    "lon": -100.271431,
    "lat": 25.6258106,
    "id": "541a2cac908e69c4ed6fc4e0"
  },
  {
    "Arbol_id": 3923,
    "Folio": 0,
    "Usuario_id": "usuario2273",
    "Fecha_plantado": "",
    "Especie": "Ciprés",
    "Fecha_registro": "2014-01-17",
    "Municipio": "Guadalupe",
    "Direccion": "John F. Kennedy 3145, Contry La Silla 1er Sector, 67173 Guadalupe, NL, México",
    "lon": -100.271431,
    "lat": 25.6258106,
    "id": "541a2cac908e69c4ed6fc4e1"
  },
  {
    "Arbol_id": 4112,
    "Folio": 0,
    "Usuario_id": "usuario2255",
    "Fecha_plantado": "",
    "Especie": "Ciprés",
    "Fecha_registro": "2014-01-23",
    "Municipio": "Guadalupe",
    "Direccion": "Galileo Galilei 707, Contry La Silla 1er Sector, 67173 NL, México",
    "lon": -100.2660065,
    "lat": 25.6225796,
    "id": "541a2cac908e69c4ed6fc59d"
  },
  {
    "Arbol_id": 4113,
    "Folio": 0,
    "Usuario_id": "usuario2255",
    "Fecha_plantado": "",
    "Especie": "Ciprés",
    "Fecha_registro": "2014-01-23",
    "Municipio": "Guadalupe",
    "Direccion": "Galileo Galilei 707, Contry La Silla 1er Sector, 67173 NL, México",
    "lon": -100.2660065,
    "lat": 25.6225796,
    "id": "541a2cac908e69c4ed6fc59e"
  },
  {
    "Arbol_id": 4116,
    "Folio": 0,
    "Usuario_id": "usuario2255",
    "Fecha_plantado": "",
    "Especie": "Ciprés",
    "Fecha_registro": "2014-01-23",
    "Municipio": "Guadalupe",
    "Direccion": "Galileo Galilei 707, Contry La Silla 1er Sector, 67173 NL, México",
    "lon": -100.2660065,
    "lat": 25.6225796,
    "id": "541a2cac908e69c4ed6fc5a1"
  },
  {
    "Arbol_id": 4120,
    "Folio": 0,
    "Usuario_id": "usuario2255",
    "Fecha_plantado": "",
    "Especie": "Ciprés",
    "Fecha_registro": "2014-01-23",
    "Municipio": "Guadalupe",
    "Direccion": "Galileo Galilei 707, Contry La Silla 1er Sector, 67173 NL, México",
    "lon": -100.2660065,
    "lat": 25.6225796,
    "id": "541a2cac908e69c4ed6fc5a5"
  },
  {
    "Arbol_id": 4121,
    "Folio": 0,
    "Usuario_id": "usuario2255",
    "Fecha_plantado": "",
    "Especie": "Ciprés",
    "Fecha_registro": "2014-01-23",
    "Municipio": "Guadalupe",
    "Direccion": "Galileo Galilei 707, Contry La Silla 1er Sector, 67173 NL, México",
    "lon": -100.2660065,
    "lat": 25.6225796,
    "id": "541a2cac908e69c4ed6fc5a6"
  },
  {
    "Arbol_id": 4122,
    "Folio": 0,
    "Usuario_id": "usuario2255",
    "Fecha_plantado": "",
    "Especie": "Ciprés",
    "Fecha_registro": "2014-01-23",
    "Municipio": "Guadalupe",
    "Direccion": "Galileo Galilei 707, Contry La Silla 1er Sector, 67173 NL, México",
    "lon": -100.2660065,
    "lat": 25.6225796,
    "id": "541a2cac908e69c4ed6fc5a7"
  },
  {
    "Arbol_id": 4123,
    "Folio": 0,
    "Usuario_id": "usuario2255",
    "Fecha_plantado": "",
    "Especie": "Ciprés",
    "Fecha_registro": "2014-01-23",
    "Municipio": "Guadalupe",
    "Direccion": "Galileo Galilei 707, Contry La Silla 1er Sector, 67173 NL, México",
    "lon": -100.2660065,
    "lat": 25.6225796,
    "id": "541a2cac908e69c4ed6fc5a8"
  },
  {
    "Arbol_id": 4125,
    "Folio": 0,
    "Usuario_id": "usuario2255",
    "Fecha_plantado": "",
    "Especie": "Ciprés",
    "Fecha_registro": "2014-01-23",
    "Municipio": "Guadalupe",
    "Direccion": "Galileo Galilei 707, Contry La Silla 1er Sector, 67173 NL, México",
    "lon": -100.2660065,
    "lat": 25.6225796,
    "id": "541a2cac908e69c4ed6fc5aa"
  },
  {
    "Arbol_id": 4126,
    "Folio": 0,
    "Usuario_id": "usuario2255",
    "Fecha_plantado": "",
    "Especie": "Ciprés",
    "Fecha_registro": "2014-01-23",
    "Municipio": "Guadalupe",
    "Direccion": "Hipócrates 700, Contry La Silla 1er Sector, 67173 NL, México",
    "lon": -100.2668686,
    "lat": 25.6242008,
    "id": "541a2cac908e69c4ed6fc5ab"
  },
  {
    "Arbol_id": 4128,
    "Folio": 0,
    "Usuario_id": "usuario2255",
    "Fecha_plantado": "",
    "Especie": "Ciprés",
    "Fecha_registro": "2014-01-23",
    "Municipio": "Guadalupe",
    "Direccion": "Hipócrates 700, Contry La Silla 1er Sector, 67173 Guadalupe, NL, México",
    "lon": -100.2668686,
    "lat": 25.6242008,
    "id": "541a2cac908e69c4ed6fc5ad"
  },
  {
    "Arbol_id": 4129,
    "Folio": 0,
    "Usuario_id": "usuario2255",
    "Fecha_plantado": "",
    "Especie": "Ciprés",
    "Fecha_registro": "2014-01-23",
    "Municipio": "Guadalupe",
    "Direccion": "Hipócrates 700, Contry La Silla 1er Sector, 67173 Guadalupe, NL, México",
    "lon": -100.2668686,
    "lat": 25.6242008,
    "id": "541a2cac908e69c4ed6fc5ae"
  },
  {
    "Arbol_id": 4131,
    "Folio": 0,
    "Usuario_id": "usuario2255",
    "Fecha_plantado": "",
    "Especie": "Ciprés",
    "Fecha_registro": "2014-01-23",
    "Municipio": "Guadalupe",
    "Direccion": "Hipócrates 700, Contry La Silla 1er Sector, 67173 NL, México",
    "lon": -100.2668686,
    "lat": 25.6242008,
    "id": "541a2cac908e69c4ed6fc5b0"
  },
  {
    "Arbol_id": 4133,
    "Folio": 0,
    "Usuario_id": "usuario2255",
    "Fecha_plantado": "",
    "Especie": "Ciprés",
    "Fecha_registro": "2014-01-23",
    "Municipio": "Guadalupe",
    "Direccion": "Hipócrates 700, Contry La Silla 1er Sector, 67173 NL, México",
    "lon": -100.2668686,
    "lat": 25.6242008,
    "id": "541a2cac908e69c4ed6fc5b2"
  },
  {
    "Arbol_id": 4135,
    "Folio": 0,
    "Usuario_id": "usuario2255",
    "Fecha_plantado": "",
    "Especie": "Ciprés",
    "Fecha_registro": "2014-01-23",
    "Municipio": "Guadalupe",
    "Direccion": "Hipócrates 708, Contry La Silla 1er Sector, 67173 NL, México",
    "lon": -100.2666016,
    "lat": 25.6240807,
    "id": "541a2cac908e69c4ed6fc5b4"
  },
  {
    "Arbol_id": 4137,
    "Folio": 0,
    "Usuario_id": "usuario2255",
    "Fecha_plantado": "",
    "Especie": "Ciprés",
    "Fecha_registro": "2014-01-23",
    "Municipio": "Guadalupe",
    "Direccion": "Hipócrates 708, Contry La Silla 1er Sector, 67173 NL, México",
    "lon": -100.2666016,
    "lat": 25.6240807,
    "id": "541a2cac908e69c4ed6fc5b6"
  },
  {
    "Arbol_id": 4166,
    "Folio": 0,
    "Usuario_id": "usuario2273",
    "Fecha_plantado": "",
    "Especie": "Ciprés",
    "Fecha_registro": "2014-01-24",
    "Municipio": "Guadalupe",
    "Direccion": "Galileo Galilei 707, Contry La Silla 1er Sector, 67173 NL, México",
    "lon": -100.2660065,
    "lat": 25.6225796,
    "id": "541a2cac908e69c4ed6fc5cb"
  },
  {
    "Arbol_id": 4180,
    "Folio": 0,
    "Usuario_id": "usuario2273",
    "Fecha_plantado": "",
    "Especie": "Ciprés",
    "Fecha_registro": "2014-01-24",
    "Municipio": "Guadalupe",
    "Direccion": "Galileo Galilei, Contry La Silla 1er Sector, 67173 NL, México",
    "lon": -100.2660065,
    "lat": 25.6225796,
    "id": "541a2cac908e69c4ed6fc5d8"
  },
  {
    "Arbol_id": 4183,
    "Folio": 0,
    "Usuario_id": "usuario2273",
    "Fecha_plantado": "",
    "Especie": "Ciprés",
    "Fecha_registro": "2014-01-24",
    "Municipio": "Guadalupe",
    "Direccion": "Demóstenes 690, Contry La Silla 1er Sector, 67173 NL, México",
    "lon": -100.268898,
    "lat": 25.6257095,
    "id": "541a2cac908e69c4ed6fc5db"
  },
  {
    "Arbol_id": 4190,
    "Folio": 0,
    "Usuario_id": "usuario2273",
    "Fecha_plantado": "",
    "Especie": "Ciprés",
    "Fecha_registro": "2014-01-24",
    "Municipio": "Guadalupe",
    "Direccion": "Demóstenes 690, Contry La Silla 1er Sector, 67173 NL, México",
    "lon": -100.268898,
    "lat": 25.6257095,
    "id": "541a2cac908e69c4ed6fc5e1"
  },
  {
    "Arbol_id": 4192,
    "Folio": 0,
    "Usuario_id": "usuario2273",
    "Fecha_plantado": "",
    "Especie": "Ciprés",
    "Fecha_registro": "2014-01-24",
    "Municipio": "Guadalupe",
    "Direccion": "Galileo Galilei, Contry La Silla 1er Sector, 67173 NL, México",
    "lon": -100.2660065,
    "lat": 25.6225796,
    "id": "541a2cac908e69c4ed6fc5e3"
  },
  {
    "Arbol_id": 4198,
    "Folio": 0,
    "Usuario_id": "usuario2273",
    "Fecha_plantado": "",
    "Especie": "Ciprés",
    "Fecha_registro": "2014-01-24",
    "Municipio": "Guadalupe",
    "Direccion": "Galileo Galilei, Contry La Silla 1er Sector, 67173 NL, México",
    "lon": -100.2660065,
    "lat": 25.6225796,
    "id": "541a2cac908e69c4ed6fc5e9"
  },
  {
    "Arbol_id": 4202,
    "Folio": 0,
    "Usuario_id": "usuario2273",
    "Fecha_plantado": "",
    "Especie": "Ciprés",
    "Fecha_registro": "2014-01-24",
    "Municipio": "Guadalupe",
    "Direccion": "Galileo Galilei 680, Contry La Silla 1er Sector, 67173 Guadalupe, NL, México",
    "lon": -100.2660065,
    "lat": 25.6225796,
    "id": "541a2cac908e69c4ed6fc5ed"
  },
  {
    "Arbol_id": 4211,
    "Folio": 0,
    "Usuario_id": "usuario2273",
    "Fecha_plantado": "",
    "Especie": "Ciprés",
    "Fecha_registro": "2014-01-24",
    "Municipio": "Guadalupe",
    "Direccion": "Galileo Galilei 680, Contry La Silla 1er Sector, 67173 Guadalupe, NL, México",
    "lon": -100.2660065,
    "lat": 25.6225796,
    "id": "541a2cac908e69c4ed6fc5f5"
  },
  {
    "Arbol_id": 4212,
    "Folio": 0,
    "Usuario_id": "usuario2273",
    "Fecha_plantado": "",
    "Especie": "Ciprés",
    "Fecha_registro": "2014-01-24",
    "Municipio": "Guadalupe",
    "Direccion": "Demóstenes 654, Contry La Silla 1er Sector, 67173 NL, México",
    "lon": -100.269371,
    "lat": 25.6254597,
    "id": "541a2cac908e69c4ed6fc5f6"
  },
  {
    "Arbol_id": 4218,
    "Folio": 0,
    "Usuario_id": "usuario2273",
    "Fecha_plantado": "",
    "Especie": "Ciprés",
    "Fecha_registro": "2014-01-24",
    "Municipio": "Guadalupe",
    "Direccion": "Paseo de las Americas 3110, Contry La Silla 1er Sector, 67173 NL, México",
    "lon": -100.2703476,
    "lat": 25.6261902,
    "id": "541a2cac908e69c4ed6fc5fc"
  },
  {
    "Arbol_id": 4225,
    "Folio": 0,
    "Usuario_id": "usuario2273",
    "Fecha_plantado": "",
    "Especie": "Ciprés",
    "Fecha_registro": "2014-01-24",
    "Municipio": "Guadalupe",
    "Direccion": "Sócrates 601-608, Contry La Silla 1er Sector, 67173 NL, México",
    "lon": -100.2699814,
    "lat": 25.6245003,
    "id": "541a2cac908e69c4ed6fc603"
  },
  {
    "Arbol_id": 4227,
    "Folio": 0,
    "Usuario_id": "usuario2273",
    "Fecha_plantado": "",
    "Especie": "Ciprés",
    "Fecha_registro": "2014-01-24",
    "Municipio": "Guadalupe",
    "Direccion": "Sócrates 608, Contry La Silla 1er Sector, 67173 NL, México",
    "lon": -100.2698822,
    "lat": 25.6244793,
    "id": "541a2cac908e69c4ed6fc605"
  },
  {
    "Arbol_id": 4228,
    "Folio": 0,
    "Usuario_id": "usuario2273",
    "Fecha_plantado": "",
    "Especie": "Ciprés",
    "Fecha_registro": "2014-01-24",
    "Municipio": "Guadalupe",
    "Direccion": "Abraham Lincoln 590, Contry La Silla 1er Sector, 67173 NL, México",
    "lon": -100.2713699,
    "lat": 25.6248398,
    "id": "541a2cac908e69c4ed6fc606"
  },
  {
    "Arbol_id": 4234,
    "Folio": 0,
    "Usuario_id": "usuario2273",
    "Fecha_plantado": "",
    "Especie": "Ciprés",
    "Fecha_registro": "2014-01-24",
    "Municipio": "Guadalupe",
    "Direccion": "Copérnico 617, Contry La Silla 1er Sector, 67173 NL, México",
    "lon": "",
    "lat": "",
    "id": "541a2cad908e69c4ed6fc60c"
  },
  {
    "Arbol_id": 4245,
    "Folio": 0,
    "Usuario_id": "usuario2255",
    "Fecha_plantado": "",
    "Especie": "Ciprés",
    "Fecha_registro": "2014-01-24",
    "Municipio": "Guadalupe",
    "Direccion": "Sócrates 925, Contry La Silla 1er Sector, 67173 NL, México",
    "lon": -100.2693634,
    "lat": 25.6248894,
    "id": "541a2cad908e69c4ed6fc617"
  },
  {
    "Arbol_id": 4248,
    "Folio": 0,
    "Usuario_id": "usuario2255",
    "Fecha_plantado": "",
    "Especie": "Ciprés",
    "Fecha_registro": "2014-01-24",
    "Municipio": "Guadalupe",
    "Direccion": "Sócrates 674, Contry La Silla 1er Sector, 67173 NL, México",
    "lon": -100.2686691,
    "lat": 25.6251392,
    "id": "541a2cad908e69c4ed6fc61a"
  },
  {
    "Arbol_id": 4249,
    "Folio": 0,
    "Usuario_id": "usuario2273",
    "Fecha_plantado": "",
    "Especie": "Ciprés",
    "Fecha_registro": "2014-01-24",
    "Municipio": "Guadalupe",
    "Direccion": "Copérnico 617, Contry La Silla 1er Sector, 67173 NL, México",
    "lon": "",
    "lat": "",
    "id": "541a2cad908e69c4ed6fc61b"
  },
  {
    "Arbol_id": 4250,
    "Folio": 0,
    "Usuario_id": "usuario2255",
    "Fecha_plantado": "",
    "Especie": "Ciprés",
    "Fecha_registro": "2014-01-24",
    "Municipio": "Guadalupe",
    "Direccion": "Sócrates 674, Contry La Silla 1er Sector, 67173 NL, México",
    "lon": -100.2686691,
    "lat": 25.6251392,
    "id": "541a2cad908e69c4ed6fc61c"
  },
  {
    "Arbol_id": 4255,
    "Folio": 0,
    "Usuario_id": "usuario2273",
    "Fecha_plantado": "",
    "Especie": "Ciprés",
    "Fecha_registro": "2014-01-24",
    "Municipio": "Guadalupe",
    "Direccion": "Copérnico 617, Contry La Silla 1er Sector, 67173 NL, México",
    "lon": "",
    "lat": "",
    "id": "541a2cad908e69c4ed6fc620"
  },
  {
    "Arbol_id": 4259,
    "Folio": 0,
    "Usuario_id": "usuario2273",
    "Fecha_plantado": "",
    "Especie": "Ciprés",
    "Fecha_registro": "2014-01-24",
    "Municipio": "Guadalupe",
    "Direccion": "Copérnico 619, Contry La Silla 1er Sector, 67173 NL, México",
    "lon": -100.267662,
    "lat": 25.62257,
    "id": "541a2cad908e69c4ed6fc624"
  },
  {
    "Arbol_id": 4262,
    "Folio": 0,
    "Usuario_id": "usuario2273",
    "Fecha_plantado": "",
    "Especie": "Ciprés",
    "Fecha_registro": "2014-01-24",
    "Municipio": "Guadalupe",
    "Direccion": "Plinio 620, Contry La Silla 1er Sector, 67173 NL, México",
    "lon": -100.2680893,
    "lat": 25.6234608,
    "id": "541a2cad908e69c4ed6fc626"
  },
  {
    "Arbol_id": 4268,
    "Folio": 0,
    "Usuario_id": "usuario2273",
    "Fecha_plantado": "",
    "Especie": "Ciprés",
    "Fecha_registro": "2014-01-24",
    "Municipio": "Guadalupe",
    "Direccion": "Galileo Galilei, Contry La Silla 1er Sector, 67173 NL, México",
    "lon": -100.2660065,
    "lat": 25.6225796,
    "id": "541a2cad908e69c4ed6fc62c"
  },
  {
    "Arbol_id": 4269,
    "Folio": 0,
    "Usuario_id": "usuario2273",
    "Fecha_plantado": "",
    "Especie": "Ciprés",
    "Fecha_registro": "2014-01-24",
    "Municipio": "Guadalupe",
    "Direccion": "Galileo Galilei, Contry La Silla 1er Sector, 67173 NL, México",
    "lon": -100.2660065,
    "lat": 25.6225796,
    "id": "541a2cad908e69c4ed6fc62d"
  },
  {
    "Arbol_id": 4270,
    "Folio": 0,
    "Usuario_id": "usuario2273",
    "Fecha_plantado": "",
    "Especie": "Ciprés",
    "Fecha_registro": "2014-01-24",
    "Municipio": "Guadalupe",
    "Direccion": "Galileo Galilei, Contry La Silla 1er Sector, 67173 NL, México",
    "lon": -100.2660065,
    "lat": 25.6225796,
    "id": "541a2cad908e69c4ed6fc62e"
  },
  {
    "Arbol_id": 4273,
    "Folio": 0,
    "Usuario_id": "usuario2273",
    "Fecha_plantado": "",
    "Especie": "Ciprés",
    "Fecha_registro": "2014-01-24",
    "Municipio": "Guadalupe",
    "Direccion": "Marco Tulio Cicerón 680, Contry La Silla 1er Sector, 67173 NL, México",
    "lon": -100.2680511,
    "lat": 25.6247215,
    "id": "541a2cad908e69c4ed6fc631"
  },
  {
    "Arbol_id": 4277,
    "Folio": 0,
    "Usuario_id": "usuario2255",
    "Fecha_plantado": "",
    "Especie": "Ciprés",
    "Fecha_registro": "2014-01-24",
    "Municipio": "Guadalupe",
    "Direccion": "Marco Tulio Cicerón 684, Contry La Silla 1er Sector, 67173 NL, México",
    "lon": -100.2681274,
    "lat": 25.6247997,
    "id": "541a2cad908e69c4ed6fc635"
  },
  {
    "Arbol_id": 4278,
    "Folio": 0,
    "Usuario_id": "usuario2273",
    "Fecha_plantado": "",
    "Especie": "Ciprés",
    "Fecha_registro": "2014-01-24",
    "Municipio": "Guadalupe",
    "Direccion": "Copérnico 619, Contry La Silla 1er Sector, 67173 NL, México",
    "lon": -100.267662,
    "lat": 25.62257,
    "id": "541a2cad908e69c4ed6fc636"
  },
  {
    "Arbol_id": 4281,
    "Folio": 0,
    "Usuario_id": "usuario2273",
    "Fecha_plantado": "",
    "Especie": "Ciprés",
    "Fecha_registro": "2014-01-24",
    "Municipio": "Guadalupe",
    "Direccion": "Copérnico 635, Contry La Silla 1er Sector, 67173 Guadalupe, NL, México",
    "lon": -100.2674866,
    "lat": 25.6226006,
    "id": "541a2cad908e69c4ed6fc638"
  },
  {
    "Arbol_id": 4288,
    "Folio": 0,
    "Usuario_id": "usuario2255",
    "Fecha_plantado": "",
    "Especie": "Ciprés",
    "Fecha_registro": "2014-01-24",
    "Municipio": "Guadalupe",
    "Direccion": "Marco Tulio Cicerón 684, Contry La Silla 1er Sector, 67173 NL, México",
    "lon": -100.2681274,
    "lat": 25.6247997,
    "id": "541a2cad908e69c4ed6fc63f"
  },
  {
    "Arbol_id": 4292,
    "Folio": 0,
    "Usuario_id": "usuario2273",
    "Fecha_plantado": "",
    "Especie": "Ciprés",
    "Fecha_registro": "2014-01-24",
    "Municipio": "Guadalupe",
    "Direccion": "Copérnico 653, Contry La Silla 1er Sector, 67173 NL, México",
    "lon": -100.2672501,
    "lat": 25.6227207,
    "id": "541a2cad908e69c4ed6fc643"
  },
  {
    "Arbol_id": 4296,
    "Folio": 0,
    "Usuario_id": "usuario2255",
    "Fecha_plantado": "",
    "Especie": "Ciprés",
    "Fecha_registro": "2014-01-24",
    "Municipio": "Guadalupe",
    "Direccion": "Marco Tulio Cicerón 669-687, Contry La Silla 1er Sector, 67173 NL, México",
    "lon": -100.268158,
    "lat": 25.6248703,
    "id": "541a2cad908e69c4ed6fc647"
  },
  {
    "Arbol_id": 4298,
    "Folio": 0,
    "Usuario_id": "usuario2255",
    "Fecha_plantado": "",
    "Especie": "Ciprés",
    "Fecha_registro": "2014-01-24",
    "Municipio": "Guadalupe",
    "Direccion": "Marco Tulio Cicerón 669-687, Contry La Silla 1er Sector, 67173 NL, México",
    "lon": -100.268158,
    "lat": 25.6248703,
    "id": "541a2cad908e69c4ed6fc649"
  },
  {
    "Arbol_id": 4301,
    "Folio": 0,
    "Usuario_id": "usuario2273",
    "Fecha_plantado": "",
    "Especie": "Ciprés",
    "Fecha_registro": "2014-01-24",
    "Municipio": "Guadalupe",
    "Direccion": "Copérnico 653, Contry La Silla 1er Sector, 67173 NL, México",
    "lon": -100.2672501,
    "lat": 25.6227207,
    "id": "541a2cad908e69c4ed6fc64c"
  },
  {
    "Arbol_id": 4305,
    "Folio": 0,
    "Usuario_id": "usuario2273",
    "Fecha_plantado": "",
    "Especie": "Ciprés",
    "Fecha_registro": "2014-01-24",
    "Municipio": "Guadalupe",
    "Direccion": "Plinio 600, Contry La Silla 1er Sector, 67173 NL, México",
    "lon": -100.2686081,
    "lat": 25.6232109,
    "id": "541a2cad908e69c4ed6fc650"
  },
  {
    "Arbol_id": 4316,
    "Folio": 0,
    "Usuario_id": "usuario2273",
    "Fecha_plantado": "",
    "Especie": "Ciprés",
    "Fecha_registro": "2014-01-24",
    "Municipio": "Guadalupe",
    "Direccion": "Solón 617, Contry La Silla 1er Sector, 67173 NL, México",
    "lon": -100.2692566,
    "lat": 25.6236725,
    "id": "541a2cad908e69c4ed6fc65b"
  },
  {
    "Arbol_id": 4322,
    "Folio": 0,
    "Usuario_id": "usuario2273",
    "Fecha_plantado": "",
    "Especie": "Ciprés",
    "Fecha_registro": "2014-01-24",
    "Municipio": "Guadalupe",
    "Direccion": "Solón 617, Contry La Silla 1er Sector, 67173 NL, México",
    "lon": -100.2692566,
    "lat": 25.6236725,
    "id": "541a2cad908e69c4ed6fc661"
  },
  {
    "Arbol_id": 4333,
    "Folio": 0,
    "Usuario_id": "usuario2273",
    "Fecha_plantado": "",
    "Especie": "Ciprés",
    "Fecha_registro": "2014-01-24",
    "Municipio": "Guadalupe",
    "Direccion": "Abraham Lincoln 643, Contry La Silla 1er Sector, 67173 NL, México",
    "lon": -100.2691803,
    "lat": 25.6234207,
    "id": "541a2cad908e69c4ed6fc66c"
  },
  {
    "Arbol_id": 4337,
    "Folio": 0,
    "Usuario_id": "usuario2273",
    "Fecha_plantado": "",
    "Especie": "Ciprés",
    "Fecha_registro": "2014-01-24",
    "Municipio": "Guadalupe",
    "Direccion": "Abraham Lincoln 643, Contry La Silla 1er Sector, 67173 NL, México",
    "lon": -100.2691803,
    "lat": 25.6234207,
    "id": "541a2cad908e69c4ed6fc670"
  },
  {
    "Arbol_id": 4357,
    "Folio": 0,
    "Usuario_id": "usuario2152",
    "Fecha_plantado": "",
    "Especie": "Ciprés",
    "Fecha_registro": "2014-01-25",
    "Municipio": "Monterrey",
    "Direccion": "Asturias 707, Cumbres 6o. Sector Sección B, 64619 Monterrey, Nuevo Leon, Mexico",
    "lon": -100.3967133,
    "lat": 25.7235107,
    "id": "541a2cad908e69c4ed6fc684"
  },
  {
    "Arbol_id": 4358,
    "Folio": 0,
    "Usuario_id": "usuario2152",
    "Fecha_plantado": "",
    "Especie": "Ciprés",
    "Fecha_registro": "2014-01-25",
    "Municipio": "Monterrey",
    "Direccion": "Asturias 401, Cumbres 6o. Sector Sección B, 64619 Monterrey, Nuevo Leon, Mexico",
    "lon": -100.3965912,
    "lat": 25.7240486,
    "id": "541a2cad908e69c4ed6fc685"
  },
  {
    "Arbol_id": 4359,
    "Folio": 0,
    "Usuario_id": "usuario2152",
    "Fecha_plantado": "",
    "Especie": "Ciprés",
    "Fecha_registro": "2014-01-25",
    "Municipio": "Monterrey",
    "Direccion": "Asturias 401, Cumbres 6o. Sector Sección B, 64619 Monterrey, Nuevo Leon, Mexico",
    "lon": -100.3965912,
    "lat": 25.7240486,
    "id": "541a2cad908e69c4ed6fc686"
  },
  {
    "Arbol_id": 4360,
    "Folio": 0,
    "Usuario_id": "usuario2152",
    "Fecha_plantado": "",
    "Especie": "Ciprés",
    "Fecha_registro": "2014-01-25",
    "Municipio": "Monterrey",
    "Direccion": "Asturias 409, Cumbres 6o. Sector Sección B, 64619 Monterrey, Nuevo Leon, Mexico",
    "lon": -100.3965607,
    "lat": 25.7239399,
    "id": "541a2cad908e69c4ed6fc687"
  },
  {
    "Arbol_id": 4361,
    "Folio": 0,
    "Usuario_id": "usuario2152",
    "Fecha_plantado": "",
    "Especie": "Ciprés",
    "Fecha_registro": "2014-01-25",
    "Municipio": "Monterrey",
    "Direccion": "Asturias 413, Cumbres 6o. Sector Sección B, 64619 Monterrey, Nuevo Leon, Mexico",
    "lon": -100.3967819,
    "lat": 25.7236786,
    "id": "541a2cad908e69c4ed6fc688"
  },
  {
    "Arbol_id": 4369,
    "Folio": 0,
    "Usuario_id": "usuario2273",
    "Fecha_plantado": "",
    "Especie": "Ciprés",
    "Fecha_registro": "2014-01-27",
    "Municipio": "Guadalupe",
    "Direccion": "Nicolás Copérnico 803, Contry La Silla 1er Sector, 67173 NL, México",
    "lon": -100.2662506,
    "lat": 25.6225109,
    "id": "541a2cad908e69c4ed6fc690"
  },
  {
    "Arbol_id": 4389,
    "Folio": 0,
    "Usuario_id": "usuario2273",
    "Fecha_plantado": "",
    "Especie": "Ciprés",
    "Fecha_registro": "2014-01-27",
    "Municipio": "Guadalupe",
    "Direccion": "Nicolás Copérnico 809, Contry La Silla 1er Sector, 67173 NL, México",
    "lon": -100.2656326,
    "lat": 25.6226692,
    "id": "541a2cad908e69c4ed6fc6a4"
  },
  {
    "Arbol_id": 4390,
    "Folio": 0,
    "Usuario_id": "usuario2273",
    "Fecha_plantado": "",
    "Especie": "Ciprés",
    "Fecha_registro": "2014-01-27",
    "Municipio": "Guadalupe",
    "Direccion": "Juan Gutenberg 3120-3160, Contry La Silla 1er Sector, 67173 NL, México",
    "lon": -100.2708206,
    "lat": 25.6261406,
    "id": "541a2cad908e69c4ed6fc6a5"
  },
  {
    "Arbol_id": 4391,
    "Folio": 0,
    "Usuario_id": "usuario2273",
    "Fecha_plantado": "",
    "Especie": "Ciprés",
    "Fecha_registro": "2014-01-27",
    "Municipio": "Guadalupe",
    "Direccion": "Juan Gutenberg 3120-3160, Contry La Silla 1er Sector, 67173 NL, México",
    "lon": -100.2708206,
    "lat": 25.6261406,
    "id": "541a2cad908e69c4ed6fc6a6"
  },
  {
    "Arbol_id": 4402,
    "Folio": 0,
    "Usuario_id": "usuario2273",
    "Fecha_plantado": "",
    "Especie": "Ciprés",
    "Fecha_registro": "2014-01-27",
    "Municipio": "Guadalupe",
    "Direccion": "Juan Gutenberg 3160, Contry La Silla 1er Sector, 67173 NL, México",
    "lon": -100.2709579,
    "lat": 25.6256104,
    "id": "541a2cad908e69c4ed6fc6b1"
  },
  {
    "Arbol_id": 4406,
    "Folio": 0,
    "Usuario_id": "usuario2273",
    "Fecha_plantado": "",
    "Especie": "Ciprés",
    "Fecha_registro": "2014-01-27",
    "Municipio": "Guadalupe",
    "Direccion": "Juan Gutenberg 3160, Contry La Silla 1er Sector, 67173 NL, México",
    "lon": -100.2709579,
    "lat": 25.6256104,
    "id": "541a2cad908e69c4ed6fc6b5"
  },
  {
    "Arbol_id": 4409,
    "Folio": 0,
    "Usuario_id": "usuario2273",
    "Fecha_plantado": "",
    "Especie": "Ciprés",
    "Fecha_registro": "2014-01-27",
    "Municipio": "Guadalupe",
    "Direccion": "Juan Gutenberg 3160, Contry La Silla 1er Sector, 67173 NL, México",
    "lon": -100.2709579,
    "lat": 25.6256104,
    "id": "541a2cad908e69c4ed6fc6b8"
  },
  {
    "Arbol_id": 4464,
    "Folio": 0,
    "Usuario_id": "usuario2273",
    "Fecha_plantado": "",
    "Especie": "Ciprés",
    "Fecha_registro": "2014-01-27",
    "Municipio": "Guadalupe",
    "Direccion": "Abraham Lincoln 621, Contry La Silla 1er Sector, 67173 NL, México",
    "lon": -100.2695618,
    "lat": 25.623785,
    "id": "541a2cad908e69c4ed6fc6ef"
  },
  {
    "Arbol_id": 4494,
    "Folio": 0,
    "Usuario_id": "usuario2273",
    "Fecha_plantado": "",
    "Especie": "Ciprés",
    "Fecha_registro": "2014-01-27",
    "Municipio": "Guadalupe",
    "Direccion": "Sócrates 601, Contry La Silla 1er Sector, 67173 NL, México",
    "lon": -100.2699814,
    "lat": 25.6245003,
    "id": "541a2cad908e69c4ed6fc70b"
  },
  {
    "Arbol_id": 4501,
    "Folio": 0,
    "Usuario_id": "usuario2273",
    "Fecha_plantado": "",
    "Especie": "Ciprés",
    "Fecha_registro": "2014-01-27",
    "Municipio": "Guadalupe",
    "Direccion": "Abraham Lincoln 618A, Contry La Silla 1er Sector, 67173 NL, México",
    "lon": -100.2703094,
    "lat": 25.6240692,
    "id": "541a2cad908e69c4ed6fc712"
  },
  {
    "Arbol_id": 4502,
    "Folio": 0,
    "Usuario_id": "usuario2273",
    "Fecha_plantado": "",
    "Especie": "Ciprés",
    "Fecha_registro": "2014-01-27",
    "Municipio": "Guadalupe",
    "Direccion": "Abraham Lincoln 609, Contry La Silla 1er Sector, 67173 NL, México",
    "lon": -100.2698746,
    "lat": 25.6240292,
    "id": "541a2cad908e69c4ed6fc713"
  },
  {
    "Arbol_id": 4506,
    "Folio": 0,
    "Usuario_id": "usuario2273",
    "Fecha_plantado": "",
    "Especie": "Ciprés",
    "Fecha_registro": "2014-01-27",
    "Municipio": "Guadalupe",
    "Direccion": "Abraham Lincoln 609, Contry La Silla 1er Sector, 67173 NL, México",
    "lon": -100.2698746,
    "lat": 25.6240292,
    "id": "541a2cad908e69c4ed6fc717"
  },
  {
    "Arbol_id": 4512,
    "Folio": 0,
    "Usuario_id": "usuario2273",
    "Fecha_plantado": "",
    "Especie": "Ciprés",
    "Fecha_registro": "2014-01-27",
    "Municipio": "Guadalupe",
    "Direccion": "Abraham Lincoln 620A, Contry La Silla 1er Sector, 67173 NL, México",
    "lon": -100.2703018,
    "lat": 25.6240807,
    "id": "541a2cad908e69c4ed6fc71d"
  },
  {
    "Arbol_id": 4520,
    "Folio": 0,
    "Usuario_id": "usuario2273",
    "Fecha_plantado": "",
    "Especie": "Ciprés",
    "Fecha_registro": "2014-01-28",
    "Municipio": "Guadalupe",
    "Direccion": "Hipócrates 746, Contry La Silla 1er Sector, 67173 NL, México",
    "lon": -100.2653809,
    "lat": 25.6233826,
    "id": "541a2cad908e69c4ed6fc725"
  },
  {
    "Arbol_id": 4534,
    "Folio": 0,
    "Usuario_id": "usuario2273",
    "Fecha_plantado": "",
    "Especie": "Ciprés",
    "Fecha_registro": "2014-01-28",
    "Municipio": "Guadalupe",
    "Direccion": "Hipócrates 787, Contry La Silla 1er Sector, 67173 NL, México",
    "lon": -100.264473,
    "lat": 25.6232891,
    "id": "541a2cad908e69c4ed6fc733"
  },
  {
    "Arbol_id": 4537,
    "Folio": 0,
    "Usuario_id": "usuario2273",
    "Fecha_plantado": "",
    "Especie": "Ciprés",
    "Fecha_registro": "2014-01-28",
    "Municipio": "Guadalupe",
    "Direccion": "Hipócrates 787, Contry La Silla 1er Sector, 67173 NL, México",
    "lon": -100.264473,
    "lat": 25.6232891,
    "id": "541a2cad908e69c4ed6fc736"
  },
  {
    "Arbol_id": 4538,
    "Folio": 0,
    "Usuario_id": "usuario2273",
    "Fecha_plantado": "",
    "Especie": "Ciprés",
    "Fecha_registro": "2014-01-28",
    "Municipio": "Guadalupe",
    "Direccion": "Denis Diderot 799, Contry La Silla 1er Sector, 67173 NL, México",
    "lon": -100.2645874,
    "lat": 25.6234703,
    "id": "541a2cad908e69c4ed6fc737"
  },
  {
    "Arbol_id": 4540,
    "Folio": 0,
    "Usuario_id": "usuario2273",
    "Fecha_plantado": "",
    "Especie": "Ciprés",
    "Fecha_registro": "2014-01-28",
    "Municipio": "Guadalupe",
    "Direccion": "Denis Diderot 799, Contry La Silla 1er Sector, 67173 NL, México",
    "lon": -100.2645874,
    "lat": 25.6234703,
    "id": "541a2cad908e69c4ed6fc739"
  },
  {
    "Arbol_id": 4543,
    "Folio": 0,
    "Usuario_id": "usuario2273",
    "Fecha_plantado": "",
    "Especie": "Ciprés",
    "Fecha_registro": "2014-01-28",
    "Municipio": "Guadalupe",
    "Direccion": "Denis Diderot 799, Contry La Silla 1er Sector, 67173 NL, México",
    "lon": -100.2645874,
    "lat": 25.6234703,
    "id": "541a2cad908e69c4ed6fc73c"
  },
  {
    "Arbol_id": 4547,
    "Folio": 0,
    "Usuario_id": "usuario2273",
    "Fecha_plantado": "",
    "Especie": "Ciprés",
    "Fecha_registro": "2014-01-28",
    "Municipio": "Guadalupe",
    "Direccion": "Denis Diderot 799, Contry La Silla 1er Sector, 67173 NL, México",
    "lon": -100.2645874,
    "lat": 25.6234703,
    "id": "541a2cad908e69c4ed6fc740"
  },
  {
    "Arbol_id": 4613,
    "Folio": 0,
    "Usuario_id": "usuario2273",
    "Fecha_plantado": "",
    "Especie": "Ciprés",
    "Fecha_registro": "2014-01-28",
    "Municipio": "Guadalupe",
    "Direccion": "René Descartes 570, Contry Los Nogales, 67173 Monterrey, NL, México",
    "lon": -100.4031219,
    "lat": 25.7942104,
    "id": "541a2cad908e69c4ed6fc77f"
  },
  {
    "Arbol_id": 4631,
    "Folio": 0,
    "Usuario_id": "usuario2273",
    "Fecha_plantado": "",
    "Especie": "Ciprés",
    "Fecha_registro": "2014-01-28",
    "Municipio": "Guadalupe",
    "Direccion": "Eje Metropolitano 31, Contry La Silla 1er Sector, 67173 NL, México",
    "lon": "",
    "lat": "",
    "id": "541a2cad908e69c4ed6fc791"
  },
  {
    "Arbol_id": 4637,
    "Folio": 0,
    "Usuario_id": "usuario2273",
    "Fecha_plantado": "",
    "Especie": "Ciprés",
    "Fecha_registro": "2014-01-28",
    "Municipio": "Guadalupe",
    "Direccion": "Aristóteles 736, Contry La Silla 1er Sector, 67173 Guadalupe, NL, México",
    "lon": -100.265419,
    "lat": 25.6241093,
    "id": "541a2cad908e69c4ed6fc797"
  },
  {
    "Arbol_id": 4652,
    "Folio": 0,
    "Usuario_id": "usuario2273",
    "Fecha_plantado": "",
    "Especie": "Ciprés",
    "Fecha_registro": "2014-01-28",
    "Municipio": "Guadalupe",
    "Direccion": "René Descartes 570, Contry Los Nogales, 67173 Monterrey, NL, México",
    "lon": -100.4031219,
    "lat": 25.7942104,
    "id": "541a2cad908e69c4ed6fc7a6"
  },
  {
    "Arbol_id": 4654,
    "Folio": 0,
    "Usuario_id": "usuario2273",
    "Fecha_plantado": "",
    "Especie": "Ciprés",
    "Fecha_registro": "2014-01-28",
    "Municipio": "Guadalupe",
    "Direccion": "René Descartes 570, Contry Los Nogales, 67173 Monterrey, NL, México",
    "lon": -100.4031219,
    "lat": 25.7942104,
    "id": "541a2cad908e69c4ed6fc7a8"
  },
  {
    "Arbol_id": 4656,
    "Folio": 0,
    "Usuario_id": "usuario2273",
    "Fecha_plantado": "",
    "Especie": "Ciprés",
    "Fecha_registro": "2014-01-28",
    "Municipio": "Guadalupe",
    "Direccion": "René Descartes 570, Contry Los Nogales, 67173 Monterrey, NL, México",
    "lon": -100.4031219,
    "lat": 25.7942104,
    "id": "541a2cad908e69c4ed6fc7aa"
  },
  {
    "Arbol_id": 4657,
    "Folio": 0,
    "Usuario_id": "usuario2273",
    "Fecha_plantado": "",
    "Especie": "Ciprés",
    "Fecha_registro": "2014-01-28",
    "Municipio": "Guadalupe",
    "Direccion": "Aristóteles 719, Contry La Silla 1er Sector, 67173 NL, México",
    "lon": -100.2653198,
    "lat": 25.6241608,
    "id": "541a2cad908e69c4ed6fc7ab"
  },
  {
    "Arbol_id": 4658,
    "Folio": 0,
    "Usuario_id": "usuario2273",
    "Fecha_plantado": "",
    "Especie": "Ciprés",
    "Fecha_registro": "2014-01-28",
    "Municipio": "Guadalupe",
    "Direccion": "Paseo Las Americas 111, Contry La Silla 1er Sector, 67173 NL, México",
    "lon": -100.2684631,
    "lat": 25.6352692,
    "id": "541a2cad908e69c4ed6fc7ac"
  },
  {
    "Arbol_id": 4659,
    "Folio": 0,
    "Usuario_id": "usuario2273",
    "Fecha_plantado": "",
    "Especie": "Ciprés",
    "Fecha_registro": "2014-01-28",
    "Municipio": "Guadalupe",
    "Direccion": "Aristóteles 724-728, Contry La Silla 1er Sector, 67173 NL, México",
    "lon": -100.2659225,
    "lat": 25.6243496,
    "id": "541a2cad908e69c4ed6fc7ad"
  },
  {
    "Arbol_id": 4662,
    "Folio": 0,
    "Usuario_id": "usuario2273",
    "Fecha_plantado": "",
    "Especie": "Ciprés",
    "Fecha_registro": "2014-01-28",
    "Municipio": "Guadalupe",
    "Direccion": "Paseo Las Americas 111, Contry La Silla 1er Sector, 67173 NL, México",
    "lon": -100.2684631,
    "lat": 25.6352692,
    "id": "541a2cad908e69c4ed6fc7b0"
  },
  {
    "Arbol_id": 4668,
    "Folio": 0,
    "Usuario_id": "usuario2273",
    "Fecha_plantado": "",
    "Especie": "Ciprés",
    "Fecha_registro": "2014-01-28",
    "Municipio": "Guadalupe",
    "Direccion": "Aristóteles 724, Contry La Silla 1er Sector, 67173 NL, México",
    "lon": -100.2659225,
    "lat": 25.6243496,
    "id": "541a2cad908e69c4ed6fc7b6"
  },
  {
    "Arbol_id": 4670,
    "Folio": 0,
    "Usuario_id": "usuario2273",
    "Fecha_plantado": "",
    "Especie": "Ciprés",
    "Fecha_registro": "2014-01-28",
    "Municipio": "Guadalupe",
    "Direccion": "Aristóteles 724, Contry La Silla 1er Sector, 67173 NL, México",
    "lon": -100.2659225,
    "lat": 25.6243496,
    "id": "541a2cad908e69c4ed6fc7b8"
  },
  {
    "Arbol_id": 4673,
    "Folio": 0,
    "Usuario_id": "usuario2273",
    "Fecha_plantado": "",
    "Especie": "Ciprés",
    "Fecha_registro": "2014-01-28",
    "Municipio": "Guadalupe",
    "Direccion": "Aristóteles 724, Contry La Silla 1er Sector, 67173 NL, México",
    "lon": -100.2659225,
    "lat": 25.6243496,
    "id": "541a2cad908e69c4ed6fc7bb"
  },
  {
    "Arbol_id": 4674,
    "Folio": 0,
    "Usuario_id": "usuario2273",
    "Fecha_plantado": "",
    "Especie": "Ciprés",
    "Fecha_registro": "2014-01-28",
    "Municipio": "Guadalupe",
    "Direccion": "Aristóteles 713, Contry La Silla 1er Sector, 67173 NL, México",
    "lon": -100.265831,
    "lat": 25.6243591,
    "id": "541a2cad908e69c4ed6fc7bc"
  },
  {
    "Arbol_id": 4676,
    "Folio": 0,
    "Usuario_id": "usuario2273",
    "Fecha_plantado": "",
    "Especie": "Ciprés",
    "Fecha_registro": "2014-01-28",
    "Municipio": "Guadalupe",
    "Direccion": "Aristóteles 716-720, Contry La Silla 1er Sector, 67173 NL, México",
    "lon": -100.2661972,
    "lat": 25.6244698,
    "id": "541a2cad908e69c4ed6fc7be"
  },
  {
    "Arbol_id": 4678,
    "Folio": 0,
    "Usuario_id": "usuario2273",
    "Fecha_plantado": "",
    "Especie": "Ciprés",
    "Fecha_registro": "2014-01-28",
    "Municipio": "Guadalupe",
    "Direccion": "Aristóteles 716-720, Contry La Silla 1er Sector, 67173 NL, México",
    "lon": -100.2661972,
    "lat": 25.6244698,
    "id": "541a2cad908e69c4ed6fc7c0"
  },
  {
    "Arbol_id": 4682,
    "Folio": 0,
    "Usuario_id": "usuario2273",
    "Fecha_plantado": "",
    "Especie": "Ciprés",
    "Fecha_registro": "2014-01-28",
    "Municipio": "Guadalupe",
    "Direccion": "Aristóteles 712-716, Contry La Silla 1er Sector, 67173 NL, México",
    "lon": -100.2663422,
    "lat": 25.6245403,
    "id": "541a2cad908e69c4ed6fc7c4"
  },
  {
    "Arbol_id": 4684,
    "Folio": 0,
    "Usuario_id": "usuario2273",
    "Fecha_plantado": "",
    "Especie": "Ciprés",
    "Fecha_registro": "2014-01-28",
    "Municipio": "Guadalupe",
    "Direccion": "Aristóteles 712-716, Contry La Silla 1er Sector, 67173 NL, México",
    "lon": -100.2663422,
    "lat": 25.6245403,
    "id": "541a2cad908e69c4ed6fc7c6"
  },
  {
    "Arbol_id": 4688,
    "Folio": 0,
    "Usuario_id": "usuario2273",
    "Fecha_plantado": "",
    "Especie": "Ciprés",
    "Fecha_registro": "2014-01-28",
    "Municipio": "Guadalupe",
    "Direccion": "Aristóteles 712-716, Contry La Silla 1er Sector, 67173 NL, México",
    "lon": -100.2663422,
    "lat": 25.6245403,
    "id": "541a2cad908e69c4ed6fc7ca"
  },
  {
    "Arbol_id": 4701,
    "Folio": 0,
    "Usuario_id": "usuario2273",
    "Fecha_plantado": "",
    "Especie": "Ciprés",
    "Fecha_registro": "2014-01-28",
    "Municipio": "Guadalupe",
    "Direccion": "Galileo Galilei 680, Contry La Silla 1er Sector, 67173 Guadalupe, NL, México",
    "lon": -100.2660065,
    "lat": 25.6225796,
    "id": "541a2cad908e69c4ed6fc7d5"
  },
  {
    "Arbol_id": 4717,
    "Folio": 0,
    "Usuario_id": "usuario2273",
    "Fecha_plantado": "",
    "Especie": "Ciprés",
    "Fecha_registro": "2014-01-29",
    "Municipio": "Guadalupe",
    "Direccion": "Pitágoras 600, Contry La Silla 1er Sector, 67173 NL, México",
    "lon": -100.2697144,
    "lat": 25.6257324,
    "id": "541a2cad908e69c4ed6fc7e5"
  },
  {
    "Arbol_id": 4734,
    "Folio": 0,
    "Usuario_id": "usuario2273",
    "Fecha_plantado": "",
    "Especie": "Ciprés",
    "Fecha_registro": "2014-01-29",
    "Municipio": "Guadalupe",
    "Direccion": "Pitágoras 600, Contry La Silla 1er Sector, 67173 NL, México",
    "lon": -100.2697144,
    "lat": 25.6257324,
    "id": "541a2cad908e69c4ed6fc7f6"
  },
  {
    "Arbol_id": 4736,
    "Folio": 0,
    "Usuario_id": "usuario2273",
    "Fecha_plantado": "",
    "Especie": "Ciprés",
    "Fecha_registro": "2014-01-29",
    "Municipio": "Guadalupe",
    "Direccion": "Pitágoras 600, Contry La Silla 1er Sector, 67173 NL, México",
    "lon": -100.2697144,
    "lat": 25.6257324,
    "id": "541a2cad908e69c4ed6fc7f8"
  },
  {
    "Arbol_id": 4738,
    "Folio": 0,
    "Usuario_id": "usuario2273",
    "Fecha_plantado": "",
    "Especie": "Ciprés",
    "Fecha_registro": "2014-01-29",
    "Municipio": "Guadalupe",
    "Direccion": "Pitágoras 600, Contry La Silla 1er Sector, 67173 NL, México",
    "lon": -100.2697144,
    "lat": 25.6257324,
    "id": "541a2cad908e69c4ed6fc7fa"
  },
  {
    "Arbol_id": 4739,
    "Folio": 0,
    "Usuario_id": "usuario2273",
    "Fecha_plantado": "",
    "Especie": "Ciprés",
    "Fecha_registro": "2014-01-29",
    "Municipio": "Guadalupe",
    "Direccion": "Pitágoras 600, Contry La Silla 1er Sector, 67173 NL, México",
    "lon": -100.2697144,
    "lat": 25.6257324,
    "id": "541a2cad908e69c4ed6fc7fb"
  },
  {
    "Arbol_id": 4741,
    "Folio": 0,
    "Usuario_id": "usuario2273",
    "Fecha_plantado": "",
    "Especie": "Ciprés",
    "Fecha_registro": "2014-01-29",
    "Municipio": "Guadalupe",
    "Direccion": "Paseo de las Americas 3115, Contry La Silla 1er Sector, 67173 NL, México",
    "lon": -100.2684631,
    "lat": 25.6352692,
    "id": "541a2cad908e69c4ed6fc7fd"
  },
  {
    "Arbol_id": 4743,
    "Folio": 0,
    "Usuario_id": "usuario2273",
    "Fecha_plantado": "",
    "Especie": "Ciprés",
    "Fecha_registro": "2014-01-29",
    "Municipio": "Guadalupe",
    "Direccion": "Paseo de las Americas 3100, Contry La Silla 1er Sector, 67173 NL, México",
    "lon": -100.2701569,
    "lat": 25.6263504,
    "id": "541a2cad908e69c4ed6fc7ff"
  },
  {
    "Arbol_id": 4746,
    "Folio": 0,
    "Usuario_id": "usuario2273",
    "Fecha_plantado": "",
    "Especie": "Ciprés",
    "Fecha_registro": "2014-01-29",
    "Municipio": "Guadalupe",
    "Direccion": "Paseo de las Americas 3100, Contry La Silla 1er Sector, 67173 NL, México",
    "lon": -100.2701569,
    "lat": 25.6263504,
    "id": "541a2cad908e69c4ed6fc802"
  },
  {
    "Arbol_id": 4748,
    "Folio": 0,
    "Usuario_id": "usuario2273",
    "Fecha_plantado": "",
    "Especie": "Ciprés",
    "Fecha_registro": "2014-01-29",
    "Municipio": "Guadalupe",
    "Direccion": "Paseo de las Americas 3100, Contry La Silla 1er Sector, 67173 NL, México",
    "lon": -100.2701569,
    "lat": 25.6263504,
    "id": "541a2cad908e69c4ed6fc804"
  },
  {
    "Arbol_id": 4749,
    "Folio": 0,
    "Usuario_id": "usuario2273",
    "Fecha_plantado": "",
    "Especie": "Ciprés",
    "Fecha_registro": "2014-01-29",
    "Municipio": "Guadalupe",
    "Direccion": "Paseo de las Americas 3100, Contry La Silla 1er Sector, 67173 NL, México",
    "lon": -100.2701569,
    "lat": 25.6263504,
    "id": "541a2cad908e69c4ed6fc805"
  },
  {
    "Arbol_id": 4752,
    "Folio": 0,
    "Usuario_id": "usuario2273",
    "Fecha_plantado": "",
    "Especie": "Ciprés",
    "Fecha_registro": "2014-01-29",
    "Municipio": "Guadalupe",
    "Direccion": "Paseo de las Americas 3100, Contry La Silla 1er Sector, 67173 NL, México",
    "lon": -100.2701569,
    "lat": 25.6263504,
    "id": "541a2cad908e69c4ed6fc808"
  },
  {
    "Arbol_id": 4761,
    "Folio": 0,
    "Usuario_id": "usuario2273",
    "Fecha_plantado": "",
    "Especie": "Ciprés",
    "Fecha_registro": "2014-01-29",
    "Municipio": "Guadalupe",
    "Direccion": "Paseo de las Americas 3100, Contry La Silla 1er Sector, 67173 NL, México",
    "lon": -100.2701569,
    "lat": 25.6263504,
    "id": "541a2cad908e69c4ed6fc811"
  },
  {
    "Arbol_id": 4763,
    "Folio": 0,
    "Usuario_id": "usuario2273",
    "Fecha_plantado": "",
    "Especie": "Ciprés",
    "Fecha_registro": "2014-01-29",
    "Municipio": "Guadalupe",
    "Direccion": "Paseo de las Americas 3100, Contry La Silla 1er Sector, 67173 NL, México",
    "lon": -100.2701569,
    "lat": 25.6263504,
    "id": "541a2cad908e69c4ed6fc813"
  },
  {
    "Arbol_id": 4765,
    "Folio": 0,
    "Usuario_id": "usuario2273",
    "Fecha_plantado": "",
    "Especie": "Ciprés",
    "Fecha_registro": "2014-01-29",
    "Municipio": "Guadalupe",
    "Direccion": "Paseo de las Americas 3100, Contry La Silla 1er Sector, 67173 NL, México",
    "lon": -100.2701569,
    "lat": 25.6263504,
    "id": "541a2cad908e69c4ed6fc815"
  },
  {
    "Arbol_id": 4768,
    "Folio": 0,
    "Usuario_id": "usuario2273",
    "Fecha_plantado": "",
    "Especie": "Ciprés",
    "Fecha_registro": "2014-01-29",
    "Municipio": "Guadalupe",
    "Direccion": "Paseo de las Americas 3100, Contry La Silla 1er Sector, 67173 NL, México",
    "lon": -100.2701569,
    "lat": 25.6263504,
    "id": "541a2cad908e69c4ed6fc818"
  },
  {
    "Arbol_id": 4770,
    "Folio": 0,
    "Usuario_id": "usuario2273",
    "Fecha_plantado": "",
    "Especie": "Ciprés",
    "Fecha_registro": "2014-01-29",
    "Municipio": "Guadalupe",
    "Direccion": "Paseo de las Americas 3100, Contry La Silla 1er Sector, 67173 NL, México",
    "lon": -100.2701569,
    "lat": 25.6263504,
    "id": "541a2cad908e69c4ed6fc81a"
  },
  {
    "Arbol_id": 4774,
    "Folio": 0,
    "Usuario_id": "usuario2273",
    "Fecha_plantado": "",
    "Especie": "Ciprés",
    "Fecha_registro": "2014-01-29",
    "Municipio": "Guadalupe",
    "Direccion": "Paseo de las Americas 3100, Contry La Silla 1er Sector, 67173 NL, México",
    "lon": -100.2701569,
    "lat": 25.6263504,
    "id": "541a2cad908e69c4ed6fc81e"
  },
  {
    "Arbol_id": 4778,
    "Folio": 0,
    "Usuario_id": "usuario2273",
    "Fecha_plantado": "",
    "Especie": "Ciprés",
    "Fecha_registro": "2014-01-29",
    "Municipio": "Guadalupe",
    "Direccion": "Paseo de las Americas 3100, Contry La Silla 1er Sector, 67173 NL, México",
    "lon": -100.2701569,
    "lat": 25.6263504,
    "id": "541a2cad908e69c4ed6fc822"
  },
  {
    "Arbol_id": 4781,
    "Folio": 0,
    "Usuario_id": "usuario2273",
    "Fecha_plantado": "",
    "Especie": "Ciprés",
    "Fecha_registro": "2014-01-29",
    "Municipio": "Guadalupe",
    "Direccion": "Paseo de las Americas 3100, Contry La Silla 1er Sector, 67173 NL, México",
    "lon": -100.2701569,
    "lat": 25.6263504,
    "id": "541a2cad908e69c4ed6fc825"
  },
  {
    "Arbol_id": 4802,
    "Folio": 0,
    "Usuario_id": "usuario2273",
    "Fecha_plantado": "",
    "Especie": "Ciprés",
    "Fecha_registro": "2014-01-29",
    "Municipio": "Guadalupe",
    "Direccion": "Galileo Galilei, Contry La Silla 1er Sector, 67173 NL, México",
    "lon": -100.2660065,
    "lat": 25.6225796,
    "id": "541a2cad908e69c4ed6fc83a"
  },
  {
    "Arbol_id": 4804,
    "Folio": 0,
    "Usuario_id": "usuario2273",
    "Fecha_plantado": "",
    "Especie": "Ciprés",
    "Fecha_registro": "2014-01-29",
    "Municipio": "Guadalupe",
    "Direccion": "Galileo Galilei, Contry La Silla 1er Sector, 67173 NL, México",
    "lon": -100.2660065,
    "lat": 25.6225796,
    "id": "541a2cad908e69c4ed6fc83c"
  },
  {
    "Arbol_id": 4805,
    "Folio": 0,
    "Usuario_id": "usuario2273",
    "Fecha_plantado": "",
    "Especie": "Ciprés",
    "Fecha_registro": "2014-01-29",
    "Municipio": "Guadalupe",
    "Direccion": "Galileo Galilei, Contry La Silla 1er Sector, 67173 NL, México",
    "lon": -100.2660065,
    "lat": 25.6225796,
    "id": "541a2cad908e69c4ed6fc83d"
  },
  {
    "Arbol_id": 4806,
    "Folio": 0,
    "Usuario_id": "usuario2273",
    "Fecha_plantado": "",
    "Especie": "Ciprés",
    "Fecha_registro": "2014-01-29",
    "Municipio": "Guadalupe",
    "Direccion": "Galileo Galilei, Contry La Silla 1er Sector, 67173 NL, México",
    "lon": -100.2660065,
    "lat": 25.6225796,
    "id": "541a2cad908e69c4ed6fc83e"
  },
  {
    "Arbol_id": 4807,
    "Folio": 0,
    "Usuario_id": "usuario2273",
    "Fecha_plantado": "",
    "Especie": "Ciprés",
    "Fecha_registro": "2014-01-29",
    "Municipio": "Guadalupe",
    "Direccion": "Galileo Galilei, Contry La Silla 1er Sector, 67173 NL, México",
    "lon": -100.2660065,
    "lat": 25.6225796,
    "id": "541a2cad908e69c4ed6fc83f"
  },
  {
    "Arbol_id": 4808,
    "Folio": 0,
    "Usuario_id": "usuario2273",
    "Fecha_plantado": "",
    "Especie": "Ciprés",
    "Fecha_registro": "2014-01-29",
    "Municipio": "Guadalupe",
    "Direccion": "Galileo Galilei, Contry La Silla 1er Sector, 67173 NL, México",
    "lon": -100.2660065,
    "lat": 25.6225796,
    "id": "541a2cad908e69c4ed6fc840"
  },
  {
    "Arbol_id": 4809,
    "Folio": 0,
    "Usuario_id": "usuario2273",
    "Fecha_plantado": "",
    "Especie": "Ciprés",
    "Fecha_registro": "2014-01-29",
    "Municipio": "Guadalupe",
    "Direccion": "Galileo Galilei, Contry La Silla 1er Sector, 67173 NL, México",
    "lon": -100.2660065,
    "lat": 25.6225796,
    "id": "541a2cad908e69c4ed6fc841"
  },
  {
    "Arbol_id": 4815,
    "Folio": 0,
    "Usuario_id": "usuario2273",
    "Fecha_plantado": "",
    "Especie": "Ciprés",
    "Fecha_registro": "2014-01-29",
    "Municipio": "Guadalupe",
    "Direccion": "Pitágoras 600, Contry La Silla 1er Sector, 67173 NL, México",
    "lon": -100.2697144,
    "lat": 25.6257324,
    "id": "541a2cad908e69c4ed6fc847"
  },
  {
    "Arbol_id": 4816,
    "Folio": 0,
    "Usuario_id": "usuario2273",
    "Fecha_plantado": "",
    "Especie": "Ciprés",
    "Fecha_registro": "2014-01-29",
    "Municipio": "Guadalupe",
    "Direccion": "Pitágoras 600, Contry La Silla 1er Sector, 67173 NL, México",
    "lon": -100.2697144,
    "lat": 25.6257324,
    "id": "541a2cad908e69c4ed6fc848"
  },
  {
    "Arbol_id": 4831,
    "Folio": 0,
    "Usuario_id": "usuario2273",
    "Fecha_plantado": "",
    "Especie": "Ciprés",
    "Fecha_registro": "2014-01-29",
    "Municipio": "Guadalupe",
    "Direccion": "Pitágoras 600, Contry La Silla 1er Sector, 67173 NL, México",
    "lon": -100.2697144,
    "lat": 25.6257324,
    "id": "541a2cad908e69c4ed6fc857"
  },
  {
    "Arbol_id": 4832,
    "Folio": 0,
    "Usuario_id": "usuario2273",
    "Fecha_plantado": "",
    "Especie": "Ciprés",
    "Fecha_registro": "2014-01-29",
    "Municipio": "Guadalupe",
    "Direccion": "Pitágoras 600, Contry La Silla 1er Sector, 67173 NL, México",
    "lon": -100.2697144,
    "lat": 25.6257324,
    "id": "541a2cad908e69c4ed6fc858"
  },
  {
    "Arbol_id": 4854,
    "Folio": 0,
    "Usuario_id": "usuario2273",
    "Fecha_plantado": "",
    "Especie": "Ciprés",
    "Fecha_registro": "2014-01-29",
    "Municipio": "Guadalupe",
    "Direccion": "John F. Kennedy 3145, Contry La Silla 1er Sector, 67173 NL, México",
    "lon": -100.271431,
    "lat": 25.6258106,
    "id": "541a2cad908e69c4ed6fc86e"
  },
  {
    "Arbol_id": 4856,
    "Folio": 0,
    "Usuario_id": "usuario2273",
    "Fecha_plantado": "",
    "Especie": "Ciprés",
    "Fecha_registro": "2014-01-29",
    "Municipio": "Guadalupe",
    "Direccion": "Anaxágoras 1000, Sin Nombre de Colonia 53, NL, México",
    "lon": "",
    "lat": "",
    "id": "541a2cad908e69c4ed6fc870"
  },
  {
    "Arbol_id": 4858,
    "Folio": 0,
    "Usuario_id": "usuario2273",
    "Fecha_plantado": "",
    "Especie": "Ciprés",
    "Fecha_registro": "2014-01-29",
    "Municipio": "Guadalupe",
    "Direccion": "Anaxágoras 1000, Sin Nombre de Colonia 53, NL, México",
    "lon": "",
    "lat": "",
    "id": "541a2cad908e69c4ed6fc872"
  },
  {
    "Arbol_id": 4873,
    "Folio": 0,
    "Usuario_id": "usuario2273",
    "Fecha_plantado": "",
    "Especie": "Ciprés",
    "Fecha_registro": "2014-01-30",
    "Municipio": "Guadalupe",
    "Direccion": "John F. Kennedy 575, Contry La Silla 1er Sector, 67173 NL, México",
    "lon": -100.2703323,
    "lat": 25.6266994,
    "id": "541a2cad908e69c4ed6fc881"
  },
  {
    "Arbol_id": 4874,
    "Folio": 0,
    "Usuario_id": "usuario2273",
    "Fecha_plantado": "",
    "Especie": "Ciprés",
    "Fecha_registro": "2014-01-30",
    "Municipio": "Guadalupe",
    "Direccion": "John F. Kennedy 561-565, Contry La Silla 1er Sector, 67173 NL, México",
    "lon": -100.270462,
    "lat": 25.6267204,
    "id": "541a2cad908e69c4ed6fc882"
  },
  {
    "Arbol_id": 5168,
    "Folio": 0,
    "Usuario_id": "usuario2273",
    "Fecha_plantado": "",
    "Especie": "Ciprés",
    "Fecha_registro": "2014-01-31",
    "Municipio": "Guadalupe",
    "Direccion": "Muelle, Riberas del Río, 67160 NL, México",
    "lon": -100.2194901,
    "lat": 25.6781292,
    "id": "541a2cad908e69c4ed6fc9a5"
  },
  {
    "Arbol_id": 5324,
    "Folio": 0,
    "Usuario_id": "usuario2273",
    "Fecha_plantado": "",
    "Especie": "Ciprés",
    "Fecha_registro": "2014-02-04",
    "Municipio": "Guadalupe",
    "Direccion": "Caleta 3424, Riberas del Río, 67160 NL, México",
    "lon": -100.2186203,
    "lat": 25.6782703,
    "id": "541a2cad908e69c4ed6fca35"
  },
  {
    "Arbol_id": 5398,
    "Folio": 0,
    "Usuario_id": "usuario2273",
    "Fecha_plantado": "",
    "Especie": "Ciprés",
    "Fecha_registro": "2014-02-04",
    "Municipio": "Guadalupe",
    "Direccion": "Platón 756, Contry La Silla 1er Sector, 67173 NL, México",
    "lon": -100.2643967,
    "lat": 25.6243305,
    "id": "541a2cad908e69c4ed6fca7f"
  },
  {
    "Arbol_id": 5400,
    "Folio": 0,
    "Usuario_id": "usuario2273",
    "Fecha_plantado": "",
    "Especie": "Ciprés",
    "Fecha_registro": "2014-02-04",
    "Municipio": "Guadalupe",
    "Direccion": "Platón 716, Contry La Silla 1er Sector, 67173 NL, México",
    "lon": -100.2656784,
    "lat": 25.6249409,
    "id": "541a2cad908e69c4ed6fca80"
  },
  {
    "Arbol_id": 5429,
    "Folio": 0,
    "Usuario_id": "usuario2273",
    "Fecha_plantado": "",
    "Especie": "Ciprés",
    "Fecha_registro": "2014-02-05",
    "Municipio": "Guadalupe",
    "Direccion": "Platón 756, Contry La Silla 1er Sector, 67173 NL, México",
    "lon": -100.2643967,
    "lat": 25.6243305,
    "id": "541a2cad908e69c4ed6fca99"
  },
  {
    "Arbol_id": 5432,
    "Folio": 0,
    "Usuario_id": "usuario2273",
    "Fecha_plantado": "",
    "Especie": "Ciprés",
    "Fecha_registro": "2014-02-05",
    "Municipio": "Guadalupe",
    "Direccion": "Platón 756, Contry La Silla 1er Sector, 67173 NL, México",
    "lon": -100.2643967,
    "lat": 25.6243305,
    "id": "541a2cad908e69c4ed6fca9c"
  },
  {
    "Arbol_id": 5435,
    "Folio": 0,
    "Usuario_id": "usuario2273",
    "Fecha_plantado": "",
    "Especie": "Ciprés",
    "Fecha_registro": "2014-02-05",
    "Municipio": "Guadalupe",
    "Direccion": "Platón 736, Contry La Silla 1er Sector, 67173 NL, México",
    "lon": -100.2648773,
    "lat": 25.6245594,
    "id": "541a2cad908e69c4ed6fca9e"
  },
  {
    "Arbol_id": 5436,
    "Folio": 0,
    "Usuario_id": "usuario2273",
    "Fecha_plantado": "",
    "Especie": "Ciprés",
    "Fecha_registro": "2014-02-05",
    "Municipio": "Guadalupe",
    "Direccion": "Platón 736, Contry La Silla 1er Sector, 67173 NL, México",
    "lon": -100.2648773,
    "lat": 25.6245594,
    "id": "541a2cad908e69c4ed6fca9f"
  },
  {
    "Arbol_id": 5438,
    "Folio": 0,
    "Usuario_id": "usuario2273",
    "Fecha_plantado": "",
    "Especie": "Ciprés",
    "Fecha_registro": "2014-02-05",
    "Municipio": "Guadalupe",
    "Direccion": "Platón 749, Contry La Silla 1er Sector, 67173 NL, México",
    "lon": -100.2650833,
    "lat": 25.6247501,
    "id": "541a2cad908e69c4ed6fcaa1"
  },
  {
    "Arbol_id": 5439,
    "Folio": 0,
    "Usuario_id": "usuario2273",
    "Fecha_plantado": "",
    "Especie": "Ciprés",
    "Fecha_registro": "2014-02-05",
    "Municipio": "Guadalupe",
    "Direccion": "Platón 749, Contry La Silla 1er Sector, 67173 NL, México",
    "lon": -100.2650833,
    "lat": 25.6247501,
    "id": "541a2cad908e69c4ed6fcaa2"
  },
  {
    "Arbol_id": 5440,
    "Folio": 0,
    "Usuario_id": "usuario2273",
    "Fecha_plantado": "",
    "Especie": "Ciprés",
    "Fecha_registro": "2014-02-05",
    "Municipio": "Guadalupe",
    "Direccion": "Platón 742, Contry La Silla 1er Sector, 67173 NL, México",
    "lon": -100.2647171,
    "lat": 25.6244793,
    "id": "541a2cad908e69c4ed6fcaa3"
  },
  {
    "Arbol_id": 5461,
    "Folio": 0,
    "Usuario_id": "usuario2273",
    "Fecha_plantado": "",
    "Especie": "Ciprés",
    "Fecha_registro": "2014-02-05",
    "Municipio": "Guadalupe",
    "Direccion": "Platón 756, Contry La Silla 1er Sector, 67173 NL, México",
    "lon": -100.2643967,
    "lat": 25.6243305,
    "id": "541a2cad908e69c4ed6fcab8"
  },
  {
    "Arbol_id": 5476,
    "Folio": 0,
    "Usuario_id": "usuario2273",
    "Fecha_plantado": "",
    "Especie": "Ciprés",
    "Fecha_registro": "2014-02-05",
    "Municipio": "Guadalupe",
    "Direccion": "Platón 770, Contry La Silla 1er Sector, 67173 NL, México",
    "lon": -100.2647629,
    "lat": 25.6244602,
    "id": "541a2cad908e69c4ed6fcac7"
  },
  {
    "Arbol_id": 5480,
    "Folio": 0,
    "Usuario_id": "usuario2273",
    "Fecha_plantado": "",
    "Especie": "Ciprés",
    "Fecha_registro": "2014-02-05",
    "Municipio": "Guadalupe",
    "Direccion": "Platón 770, Contry La Silla 1er Sector, 67173 NL, México",
    "lon": -100.2647629,
    "lat": 25.6244602,
    "id": "541a2cad908e69c4ed6fcacb"
  },
  {
    "Arbol_id": 5493,
    "Folio": 0,
    "Usuario_id": "usuario2273",
    "Fecha_plantado": "",
    "Especie": "Ciprés",
    "Fecha_registro": "2014-02-05",
    "Municipio": "Guadalupe",
    "Direccion": "Ptolomeo 701, Contry La Silla 1er Sector, 67173 Monterrey, NL, México",
    "lon": -100.2646179,
    "lat": 25.6290703,
    "id": "541a2cad908e69c4ed6fcad8"
  },
  {
    "Arbol_id": 5510,
    "Folio": 0,
    "Usuario_id": "usuario2273",
    "Fecha_plantado": "",
    "Especie": "Ciprés",
    "Fecha_registro": "2014-02-05",
    "Municipio": "Guadalupe",
    "Direccion": "Platón 792, Contry La Silla 1er Sector, 67173 NL, México",
    "lon": -100.2637711,
    "lat": 25.6238003,
    "id": "541a2cad908e69c4ed6fcae9"
  },
  {
    "Arbol_id": 5511,
    "Folio": 0,
    "Usuario_id": "usuario2273",
    "Fecha_plantado": "",
    "Especie": "Ciprés",
    "Fecha_registro": "2014-02-05",
    "Municipio": "Guadalupe",
    "Direccion": "Platón 779, Contry La Silla 1er Sector, 67173 NL, México",
    "lon": -100.2643204,
    "lat": 25.6243896,
    "id": "541a2cad908e69c4ed6fcaea"
  },
  {
    "Arbol_id": 5512,
    "Folio": 0,
    "Usuario_id": "usuario2273",
    "Fecha_plantado": "",
    "Especie": "Ciprés",
    "Fecha_registro": "2014-02-05",
    "Municipio": "Guadalupe",
    "Direccion": "Demócrito, Contry La Silla 1er Sector, 67173 NL, México",
    "lon": "",
    "lat": "",
    "id": "541a2cad908e69c4ed6fcaeb"
  },
  {
    "Arbol_id": 5516,
    "Folio": 0,
    "Usuario_id": "usuario2273",
    "Fecha_plantado": "",
    "Especie": "Ciprés",
    "Fecha_registro": "2014-02-05",
    "Municipio": "Guadalupe",
    "Direccion": "Demócrito, Contry La Silla 1er Sector, 67173 NL, México",
    "lon": "",
    "lat": "",
    "id": "541a2cad908e69c4ed6fcaef"
  },
  {
    "Arbol_id": 5517,
    "Folio": 0,
    "Usuario_id": "usuario2273",
    "Fecha_plantado": "",
    "Especie": "Ciprés",
    "Fecha_registro": "2014-02-05",
    "Municipio": "Guadalupe",
    "Direccion": "Demócrito, Contry La Silla 1er Sector, 67173 NL, México",
    "lon": "",
    "lat": "",
    "id": "541a2cad908e69c4ed6fcaf0"
  },
  {
    "Arbol_id": 5520,
    "Folio": 0,
    "Usuario_id": "usuario2273",
    "Fecha_plantado": "",
    "Especie": "Ciprés",
    "Fecha_registro": "2014-02-05",
    "Municipio": "Guadalupe",
    "Direccion": "Demócrito, Contry La Silla 1er Sector, 67173 NL, México",
    "lon": "",
    "lat": "",
    "id": "541a2cad908e69c4ed6fcaf3"
  },
  {
    "Arbol_id": 5522,
    "Folio": 0,
    "Usuario_id": "usuario2273",
    "Fecha_plantado": "",
    "Especie": "Ciprés",
    "Fecha_registro": "2014-02-05",
    "Municipio": "Guadalupe",
    "Direccion": "Demócrito, Contry La Silla 1er Sector, 67173 NL, México",
    "lon": "",
    "lat": "",
    "id": "541a2cad908e69c4ed6fcaf5"
  },
  {
    "Arbol_id": 5524,
    "Folio": 0,
    "Usuario_id": "usuario2273",
    "Fecha_plantado": "",
    "Especie": "Ciprés",
    "Fecha_registro": "2014-02-05",
    "Municipio": "Guadalupe",
    "Direccion": "Platón 781, Contry La Silla 1er Sector, 67173 NL, México",
    "lon": -100.2641296,
    "lat": 25.6241207,
    "id": "541a2cad908e69c4ed6fcaf7"
  },
  {
    "Arbol_id": 5535,
    "Folio": 0,
    "Usuario_id": "usuario2273",
    "Fecha_plantado": "",
    "Especie": "Ciprés",
    "Fecha_registro": "2014-02-05",
    "Municipio": "Guadalupe",
    "Direccion": "Platón 791, Contry La Silla 1er Sector, 67173 NL, México",
    "lon": -100.2638092,
    "lat": 25.6240406,
    "id": "541a2cad908e69c4ed6fcb02"
  },
  {
    "Arbol_id": 5537,
    "Folio": 0,
    "Usuario_id": "usuario2273",
    "Fecha_plantado": "",
    "Especie": "Ciprés",
    "Fecha_registro": "2014-02-05",
    "Municipio": "Guadalupe",
    "Direccion": "Platón 791, Contry La Silla 1er Sector, 67173 NL, México",
    "lon": -100.2638092,
    "lat": 25.6240406,
    "id": "541a2cad908e69c4ed6fcb04"
  },
  {
    "Arbol_id": 5538,
    "Folio": 0,
    "Usuario_id": "usuario2273",
    "Fecha_plantado": "",
    "Especie": "Ciprés",
    "Fecha_registro": "2014-02-05",
    "Municipio": "Guadalupe",
    "Direccion": "Platón 795, Contry La Silla 1er Sector, 67173 NL, México",
    "lon": -100.2637482,
    "lat": 25.6239491,
    "id": "541a2cad908e69c4ed6fcb05"
  },
  {
    "Arbol_id": 5539,
    "Folio": 0,
    "Usuario_id": "usuario2273",
    "Fecha_plantado": "",
    "Especie": "Ciprés",
    "Fecha_registro": "2014-02-05",
    "Municipio": "Guadalupe",
    "Direccion": "Platón 795, Contry La Silla 1er Sector, 67173 NL, México",
    "lon": -100.2637482,
    "lat": 25.6239491,
    "id": "541a2cad908e69c4ed6fcb06"
  },
  {
    "Arbol_id": 5541,
    "Folio": 0,
    "Usuario_id": "usuario2273",
    "Fecha_plantado": "",
    "Especie": "Ciprés",
    "Fecha_registro": "2014-02-05",
    "Municipio": "Guadalupe",
    "Direccion": "Platón 795, Contry La Silla 1er Sector, 67173 NL, México",
    "lon": -100.2637482,
    "lat": 25.6239491,
    "id": "541a2cad908e69c4ed6fcb08"
  },
  {
    "Arbol_id": 5545,
    "Folio": 0,
    "Usuario_id": "usuario2273",
    "Fecha_plantado": "",
    "Especie": "Ciprés",
    "Fecha_registro": "2014-02-05",
    "Municipio": "Guadalupe",
    "Direccion": "Platón 799, Contry La Silla 1er Sector, 67173 NL, México",
    "lon": -100.2638016,
    "lat": 25.6239204,
    "id": "541a2cad908e69c4ed6fcb0c"
  },
  {
    "Arbol_id": 5564,
    "Folio": 0,
    "Usuario_id": "usuario2152",
    "Fecha_plantado": "",
    "Especie": "Ciprés",
    "Fecha_registro": "2014-02-05",
    "Municipio": "Monterrey",
    "Direccion": "Ming, Dinastía, Monterrey, Nuevo Leon, Mexico",
    "lon": -100.3757401,
    "lat": 25.7015991,
    "id": "541a2cad908e69c4ed6fcb1f"
  },
  {
    "Arbol_id": 5608,
    "Folio": 0,
    "Usuario_id": "usuario2273",
    "Fecha_plantado": "",
    "Especie": "Ciprés",
    "Fecha_registro": "2014-02-06",
    "Municipio": "Guadalupe",
    "Direccion": "Ptolomeo 703, Contry La Escondida, 67173 NL, México",
    "lon": -100.2656784,
    "lat": 25.6273594,
    "id": "541a2cad908e69c4ed6fcb4b"
  },
  {
    "Arbol_id": 5612,
    "Folio": 0,
    "Usuario_id": "usuario2273",
    "Fecha_plantado": "",
    "Especie": "Ciprés",
    "Fecha_registro": "2014-02-06",
    "Municipio": "Guadalupe",
    "Direccion": "Ptolomeo 805, Contry La Escondida, 67173 NL, México",
    "lon": -100.2657089,
    "lat": 25.6271992,
    "id": "541a2cad908e69c4ed6fcb4f"
  },
  {
    "Arbol_id": 5629,
    "Folio": 0,
    "Usuario_id": "usuario2273",
    "Fecha_plantado": "",
    "Especie": "Ciprés",
    "Fecha_registro": "2014-02-06",
    "Municipio": "Guadalupe",
    "Direccion": "Ptolomeo 813, Contry La Escondida, 67173 NL, México",
    "lon": -100.2656784,
    "lat": 25.6268997,
    "id": "541a2cad908e69c4ed6fcb60"
  },
  {
    "Arbol_id": 5633,
    "Folio": 0,
    "Usuario_id": "usuario2273",
    "Fecha_plantado": "",
    "Especie": "Ciprés",
    "Fecha_registro": "2014-02-06",
    "Municipio": "Guadalupe",
    "Direccion": "Ptolomeo 813, Contry La Escondida, 67173 NL, México",
    "lon": -100.2656784,
    "lat": 25.6268997,
    "id": "541a2cad908e69c4ed6fcb64"
  },
  {
    "Arbol_id": 5650,
    "Folio": 0,
    "Usuario_id": "usuario2273",
    "Fecha_plantado": "",
    "Especie": "Ciprés",
    "Fecha_registro": "2014-02-06",
    "Municipio": "Guadalupe",
    "Direccion": "Demócrito, Contry La Silla 1er Sector, 67173 NL, México",
    "lon": "",
    "lat": "",
    "id": "541a2cad908e69c4ed6fcb75"
  },
  {
    "Arbol_id": 5653,
    "Folio": 0,
    "Usuario_id": "usuario2273",
    "Fecha_plantado": "",
    "Especie": "Ciprés",
    "Fecha_registro": "2014-02-06",
    "Municipio": "Guadalupe",
    "Direccion": "Esopo 778, Contry La Silla 1er Sector, 67173 NL, México",
    "lon": -100.2640762,
    "lat": 25.6247501,
    "id": "541a2cad908e69c4ed6fcb78"
  },
  {
    "Arbol_id": 5655,
    "Folio": 0,
    "Usuario_id": "usuario2273",
    "Fecha_plantado": "",
    "Especie": "Ciprés",
    "Fecha_registro": "2014-02-06",
    "Municipio": "Guadalupe",
    "Direccion": "Demócrito, Contry La Silla 1er Sector, 67173 NL, México",
    "lon": "",
    "lat": "",
    "id": "541a2cad908e69c4ed6fcb7a"
  },
  {
    "Arbol_id": 5658,
    "Folio": 0,
    "Usuario_id": "usuario2273",
    "Fecha_plantado": "",
    "Especie": "Ciprés",
    "Fecha_registro": "2014-02-06",
    "Municipio": "Guadalupe",
    "Direccion": "Demócrito, Contry La Silla 1er Sector, 67173 NL, México",
    "lon": "",
    "lat": "",
    "id": "541a2cad908e69c4ed6fcb7d"
  },
  {
    "Arbol_id": 5661,
    "Folio": 0,
    "Usuario_id": "usuario2273",
    "Fecha_plantado": "",
    "Especie": "Ciprés",
    "Fecha_registro": "2014-02-06",
    "Municipio": "Guadalupe",
    "Direccion": "Demócrito, Contry La Silla 1er Sector, 67173 NL, México",
    "lon": "",
    "lat": "",
    "id": "541a2cad908e69c4ed6fcb80"
  },
  {
    "Arbol_id": 5662,
    "Folio": 0,
    "Usuario_id": "usuario2273",
    "Fecha_plantado": "",
    "Especie": "Ciprés",
    "Fecha_registro": "2014-02-06",
    "Municipio": "Guadalupe",
    "Direccion": "Demócrito, Contry La Silla 1er Sector, 67173 NL, México",
    "lon": "",
    "lat": "",
    "id": "541a2cad908e69c4ed6fcb81"
  },
  {
    "Arbol_id": 5667,
    "Folio": 0,
    "Usuario_id": "usuario2273",
    "Fecha_plantado": "",
    "Especie": "Ciprés",
    "Fecha_registro": "2014-02-06",
    "Municipio": "Guadalupe",
    "Direccion": "Esopo 778, Contry La Silla 1er Sector, 67173 NL, México",
    "lon": -100.2640762,
    "lat": 25.6247501,
    "id": "541a2cad908e69c4ed6fcb86"
  },
  {
    "Arbol_id": 5678,
    "Folio": 0,
    "Usuario_id": "usuario2273",
    "Fecha_plantado": "",
    "Especie": "Ciprés",
    "Fecha_registro": "2014-02-06",
    "Municipio": "Guadalupe",
    "Direccion": "Esopo 778, Contry La Silla 1er Sector, 67173 NL, México",
    "lon": -100.2640762,
    "lat": 25.6247501,
    "id": "541a2cad908e69c4ed6fcb91"
  },
  {
    "Arbol_id": 5679,
    "Folio": 0,
    "Usuario_id": "usuario2273",
    "Fecha_plantado": "",
    "Especie": "Ciprés",
    "Fecha_registro": "2014-02-06",
    "Municipio": "Guadalupe",
    "Direccion": "Albert Einstein 2931, Sin Nombre de Colonia 53, NL, México",
    "lon": "",
    "lat": "",
    "id": "541a2cad908e69c4ed6fcb92"
  },
  {
    "Arbol_id": 5680,
    "Folio": 0,
    "Usuario_id": "usuario2273",
    "Fecha_plantado": "",
    "Especie": "Ciprés",
    "Fecha_registro": "2014-02-06",
    "Municipio": "Guadalupe",
    "Direccion": "Esopo 770, Contry La Silla 1er Sector, 67173 NL, México",
    "lon": -100.2640228,
    "lat": 25.6247997,
    "id": "541a2cad908e69c4ed6fcb93"
  },
  {
    "Arbol_id": 5681,
    "Folio": 0,
    "Usuario_id": "usuario2273",
    "Fecha_plantado": "",
    "Especie": "Ciprés",
    "Fecha_registro": "2014-02-06",
    "Municipio": "Guadalupe",
    "Direccion": "Guillermo Marconi 791, Sin Nombre de Colonia 53, NL, México",
    "lon": -99.2670593,
    "lat": 19.3708401,
    "id": "541a2cad908e69c4ed6fcb94"
  },
  {
    "Arbol_id": 5695,
    "Folio": 0,
    "Usuario_id": "usuario2273",
    "Fecha_plantado": "",
    "Especie": "Ciprés",
    "Fecha_registro": "2014-02-06",
    "Municipio": "Guadalupe",
    "Direccion": "Ptolomeo 841, Contry La Escondida, 67173 NL, México",
    "lon": -100.2653275,
    "lat": 25.6281796,
    "id": "541a2cad908e69c4ed6fcba2"
  },
  {
    "Arbol_id": 5718,
    "Folio": 0,
    "Usuario_id": "usuario2273",
    "Fecha_plantado": "",
    "Especie": "Ciprés",
    "Fecha_registro": "2014-02-06",
    "Municipio": "Guadalupe",
    "Direccion": "Esopo 770, Contry La Silla 1er Sector, 67173 NL, México",
    "lon": -100.2640228,
    "lat": 25.6247997,
    "id": "541a2cad908e69c4ed6fcbb9"
  },
  {
    "Arbol_id": 5721,
    "Folio": 0,
    "Usuario_id": "usuario2273",
    "Fecha_plantado": "",
    "Especie": "Ciprés",
    "Fecha_registro": "2014-02-06",
    "Municipio": "Guadalupe",
    "Direccion": "Esopo 770, Contry La Silla 1er Sector, 67173 NL, México",
    "lon": -100.2640228,
    "lat": 25.6247997,
    "id": "541a2cad908e69c4ed6fcbbc"
  },
  {
    "Arbol_id": 5746,
    "Folio": 0,
    "Usuario_id": "usuario2273",
    "Fecha_plantado": "",
    "Especie": "Ciprés",
    "Fecha_registro": "2014-02-06",
    "Municipio": "Guadalupe",
    "Direccion": "Ptolomeo 705, Contry La Escondida, 67173 NL, México",
    "lon": -100.2656479,
    "lat": 25.6274395,
    "id": "541a2cad908e69c4ed6fcbd4"
  },
  {
    "Arbol_id": 5747,
    "Folio": 0,
    "Usuario_id": "usuario2273",
    "Fecha_plantado": "",
    "Especie": "Ciprés",
    "Fecha_registro": "2014-02-06",
    "Municipio": "Guadalupe",
    "Direccion": "Ptolomeo 705, Contry La Escondida, 67173 NL, México",
    "lon": -100.2656479,
    "lat": 25.6274395,
    "id": "541a2cad908e69c4ed6fcbd5"
  },
  {
    "Arbol_id": 5749,
    "Folio": 0,
    "Usuario_id": "usuario2273",
    "Fecha_plantado": "",
    "Especie": "Ciprés",
    "Fecha_registro": "2014-02-06",
    "Municipio": "Guadalupe",
    "Direccion": "Ptolomeo 705, Contry La Escondida, 67173 NL, México",
    "lon": -100.2656479,
    "lat": 25.6274395,
    "id": "541a2cad908e69c4ed6fcbd7"
  },
  {
    "Arbol_id": 5777,
    "Folio": 0,
    "Usuario_id": "usuario2273",
    "Fecha_plantado": "",
    "Especie": "Ciprés",
    "Fecha_registro": "2014-02-06",
    "Municipio": "Guadalupe",
    "Direccion": "Albert Einstein 1991, Contry La Silla 1er Sector, 67173 NL, México",
    "lon": -100.2667084,
    "lat": 25.6358395,
    "id": "541a2cad908e69c4ed6fcbf3"
  },
  {
    "Arbol_id": 5778,
    "Folio": 0,
    "Usuario_id": "usuario2273",
    "Fecha_plantado": "",
    "Especie": "Ciprés",
    "Fecha_registro": "2014-02-06",
    "Municipio": "Guadalupe",
    "Direccion": "Esopo 770, Contry La Silla 1er Sector, 67173 NL, México",
    "lon": -100.2640228,
    "lat": 25.6247997,
    "id": "541a2cad908e69c4ed6fcbf4"
  },
  {
    "Arbol_id": 5779,
    "Folio": 0,
    "Usuario_id": "usuario2273",
    "Fecha_plantado": "",
    "Especie": "Ciprés",
    "Fecha_registro": "2014-02-06",
    "Municipio": "Guadalupe",
    "Direccion": "Esopo 770, Contry La Silla 1er Sector, 67173 NL, México",
    "lon": -100.2640228,
    "lat": 25.6247997,
    "id": "541a2cad908e69c4ed6fcbf5"
  },
  {
    "Arbol_id": 5781,
    "Folio": 0,
    "Usuario_id": "usuario2273",
    "Fecha_plantado": "",
    "Especie": "Ciprés",
    "Fecha_registro": "2014-02-06",
    "Municipio": "Guadalupe",
    "Direccion": "Esopo 714, Contry La Silla 1er Sector, 67173 NL, México",
    "lon": -100.2656937,
    "lat": 25.6254902,
    "id": "541a2cad908e69c4ed6fcbf7"
  },
  {
    "Arbol_id": 5782,
    "Folio": 0,
    "Usuario_id": "usuario2273",
    "Fecha_plantado": "",
    "Especie": "Ciprés",
    "Fecha_registro": "2014-02-06",
    "Municipio": "Guadalupe",
    "Direccion": "Esopo 770, Contry La Silla 1er Sector, 67173 NL, México",
    "lon": -100.2640228,
    "lat": 25.6247997,
    "id": "541a2cad908e69c4ed6fcbf8"
  },
  {
    "Arbol_id": 5786,
    "Folio": 0,
    "Usuario_id": "usuario2273",
    "Fecha_plantado": "",
    "Especie": "Ciprés",
    "Fecha_registro": "2014-02-06",
    "Municipio": "Guadalupe",
    "Direccion": "Esopo 770, Contry La Silla 1er Sector, 67173 NL, México",
    "lon": -100.2640228,
    "lat": 25.6247997,
    "id": "541a2cad908e69c4ed6fcbfc"
  },
  {
    "Arbol_id": 5798,
    "Folio": 0,
    "Usuario_id": "usuario2273",
    "Fecha_plantado": "",
    "Especie": "Ciprés",
    "Fecha_registro": "2014-02-07",
    "Municipio": "Guadalupe",
    "Direccion": "Ptolomeo 920, Contry La Escondida, 67173 NL, México",
    "lon": -100.2645264,
    "lat": 25.6293507,
    "id": "541a2cad908e69c4ed6fcc07"
  },
  {
    "Arbol_id": 5803,
    "Folio": 0,
    "Usuario_id": "usuario2273",
    "Fecha_plantado": "",
    "Especie": "Ciprés",
    "Fecha_registro": "2014-02-07",
    "Municipio": "Guadalupe",
    "Direccion": "Ptolomeo 920, Contry La Escondida, 67173 NL, México",
    "lon": -100.2645264,
    "lat": 25.6293507,
    "id": "541a2cad908e69c4ed6fcc0c"
  },
  {
    "Arbol_id": 5805,
    "Folio": 0,
    "Usuario_id": "usuario2273",
    "Fecha_plantado": "",
    "Especie": "Ciprés",
    "Fecha_registro": "2014-02-07",
    "Municipio": "Guadalupe",
    "Direccion": "Ptolomeo 920, Contry La Escondida, 67173 NL, México",
    "lon": -100.2645264,
    "lat": 25.6293507,
    "id": "541a2cad908e69c4ed6fcc0e"
  },
  {
    "Arbol_id": 5809,
    "Folio": 0,
    "Usuario_id": "usuario2273",
    "Fecha_plantado": "",
    "Especie": "Ciprés",
    "Fecha_registro": "2014-02-07",
    "Municipio": "Guadalupe",
    "Direccion": "Apolo 907, Contry La Escondida, 67173 NL, México",
    "lon": -100.2646103,
    "lat": 25.6287994,
    "id": "541a2cad908e69c4ed6fcc12"
  },
  {
    "Arbol_id": 5814,
    "Folio": 0,
    "Usuario_id": "usuario2273",
    "Fecha_plantado": "",
    "Especie": "Ciprés",
    "Fecha_registro": "2014-02-07",
    "Municipio": "Guadalupe",
    "Direccion": "Apolo 907, Contry La Escondida, 67173 NL, México",
    "lon": -100.2646103,
    "lat": 25.6287994,
    "id": "541a2cad908e69c4ed6fcc17"
  },
  {
    "Arbol_id": 5820,
    "Folio": 0,
    "Usuario_id": "usuario2273",
    "Fecha_plantado": "",
    "Especie": "Ciprés",
    "Fecha_registro": "2014-02-07",
    "Municipio": "Guadalupe",
    "Direccion": "Cronos 712, Contry La Escondida, 67173 NL, México",
    "lon": -100.2646484,
    "lat": 25.6258545,
    "id": "541a2cad908e69c4ed6fcc1d"
  },
  {
    "Arbol_id": 5822,
    "Folio": 0,
    "Usuario_id": "usuario2273",
    "Fecha_plantado": "",
    "Especie": "Ciprés",
    "Fecha_registro": "2014-02-07",
    "Municipio": "Guadalupe",
    "Direccion": "Cronos 712, Contry La Escondida, 67173 NL, México",
    "lon": -100.2646484,
    "lat": 25.6258545,
    "id": "541a2cad908e69c4ed6fcc1f"
  },
  {
    "Arbol_id": 5825,
    "Folio": 0,
    "Usuario_id": "usuario2273",
    "Fecha_plantado": "",
    "Especie": "Ciprés",
    "Fecha_registro": "2014-02-07",
    "Municipio": "Guadalupe",
    "Direccion": "Cronos 721, Contry La Escondida, 67173 NL, México",
    "lon": -100.2643433,
    "lat": 25.6257191,
    "id": "541a2cad908e69c4ed6fcc22"
  },
  {
    "Arbol_id": 5826,
    "Folio": 0,
    "Usuario_id": "usuario2273",
    "Fecha_plantado": "",
    "Especie": "Ciprés",
    "Fecha_registro": "2014-02-07",
    "Municipio": "Guadalupe",
    "Direccion": "Cronos 745-751, Contry La Escondida, 67173 NL, México",
    "lon": -100.264473,
    "lat": 25.6259308,
    "id": "541a2cad908e69c4ed6fcc23"
  },
  {
    "Arbol_id": 5941,
    "Folio": 0,
    "Usuario_id": "usuario2273",
    "Fecha_plantado": "",
    "Especie": "Ciprés",
    "Fecha_registro": "2014-02-07",
    "Municipio": "Guadalupe",
    "Direccion": "Poseidon 921, Contry La Escondida, 67173 NL, México",
    "lon": -100.2646408,
    "lat": 25.6270103,
    "id": "541a2cad908e69c4ed6fcc96"
  },
  {
    "Arbol_id": 5947,
    "Folio": 0,
    "Usuario_id": "usuario2273",
    "Fecha_plantado": "",
    "Especie": "Ciprés",
    "Fecha_registro": "2014-02-07",
    "Municipio": "Guadalupe",
    "Direccion": "Ptolomeo 705, Contry La Escondida, 67173 NL, México",
    "lon": -100.2656479,
    "lat": 25.6274395,
    "id": "541a2cad908e69c4ed6fcc9c"
  },
  {
    "Arbol_id": 5952,
    "Folio": 0,
    "Usuario_id": "usuario2273",
    "Fecha_plantado": "",
    "Especie": "Ciprés",
    "Fecha_registro": "2014-02-07",
    "Municipio": "Guadalupe",
    "Direccion": "Ptolomeo 845, Contry La Escondida, 67173 NL, México",
    "lon": -100.2651367,
    "lat": 25.6284809,
    "id": "541a2cad908e69c4ed6fcca1"
  },
  {
    "Arbol_id": 5957,
    "Folio": 0,
    "Usuario_id": "usuario2273",
    "Fecha_plantado": "",
    "Especie": "Ciprés",
    "Fecha_registro": "2014-02-07",
    "Municipio": "Guadalupe",
    "Direccion": "Cronos 704, Contry La Escondida, 67173 NL, México",
    "lon": -100.2652512,
    "lat": 25.6261692,
    "id": "541a2cad908e69c4ed6fcca6"
  },
  {
    "Arbol_id": 5960,
    "Folio": 0,
    "Usuario_id": "usuario2273",
    "Fecha_plantado": "",
    "Especie": "Ciprés",
    "Fecha_registro": "2014-02-07",
    "Municipio": "Guadalupe",
    "Direccion": "Ptolomeo 845, Contry La Escondida, 67173 NL, México",
    "lon": -100.2651367,
    "lat": 25.6284809,
    "id": "541a2cad908e69c4ed6fcca9"
  },
  {
    "Arbol_id": 5968,
    "Folio": 0,
    "Usuario_id": "usuario2273",
    "Fecha_plantado": "",
    "Especie": "Ciprés",
    "Fecha_registro": "2014-02-07",
    "Municipio": "Guadalupe",
    "Direccion": "Ptolomeo 845, Contry La Escondida, 67173 NL, México",
    "lon": -100.2651367,
    "lat": 25.6284809,
    "id": "541a2cad908e69c4ed6fccb1"
  },
  {
    "Arbol_id": 5972,
    "Folio": 0,
    "Usuario_id": "usuario2273",
    "Fecha_plantado": "",
    "Especie": "Ciprés",
    "Fecha_registro": "2014-02-07",
    "Municipio": "Guadalupe",
    "Direccion": "Ptolomeo 845, Contry La Escondida, 67173 NL, México",
    "lon": -100.2651367,
    "lat": 25.6284809,
    "id": "541a2cad908e69c4ed6fccb5"
  },
  {
    "Arbol_id": 5983,
    "Folio": 0,
    "Usuario_id": "usuario2273",
    "Fecha_plantado": "",
    "Especie": "Ciprés",
    "Fecha_registro": "2014-02-07",
    "Municipio": "Guadalupe",
    "Direccion": "Ptolomeo 845, Contry La Escondida, 67173 NL, México",
    "lon": -100.2651367,
    "lat": 25.6284809,
    "id": "541a2cad908e69c4ed6fccc0"
  },
  {
    "Arbol_id": 5986,
    "Folio": 0,
    "Usuario_id": "usuario2273",
    "Fecha_plantado": "",
    "Especie": "Ciprés",
    "Fecha_registro": "2014-02-07",
    "Municipio": "Guadalupe",
    "Direccion": "Ptolomeo 845, Contry La Escondida, 67173 NL, México",
    "lon": -100.2651367,
    "lat": 25.6284809,
    "id": "541a2cad908e69c4ed6fccc3"
  },
  {
    "Arbol_id": 5989,
    "Folio": 0,
    "Usuario_id": "usuario2273",
    "Fecha_plantado": "",
    "Especie": "Ciprés",
    "Fecha_registro": "2014-02-07",
    "Municipio": "Guadalupe",
    "Direccion": "Ptolomeo 845, Contry La Escondida, 67173 NL, México",
    "lon": -100.2651367,
    "lat": 25.6284809,
    "id": "541a2cad908e69c4ed6fccc6"
  },
  {
    "Arbol_id": 5992,
    "Folio": 0,
    "Usuario_id": "usuario2273",
    "Fecha_plantado": "",
    "Especie": "Ciprés",
    "Fecha_registro": "2014-02-07",
    "Municipio": "Guadalupe",
    "Direccion": "Ptolomeo 841, Contry La Escondida, 67173 NL, México",
    "lon": -100.2653275,
    "lat": 25.6281796,
    "id": "541a2cad908e69c4ed6fccc9"
  },
  {
    "Arbol_id": 6091,
    "Folio": 0,
    "Usuario_id": "usuario2273",
    "Fecha_plantado": "",
    "Especie": "Ciprés",
    "Fecha_registro": "2014-02-07",
    "Municipio": "Guadalupe",
    "Direccion": "Poseidon 925-5721, Contry La Escondida, 67173 NL, México",
    "lon": -100.2646637,
    "lat": 25.6266403,
    "id": "541a2cad908e69c4ed6fcd2b"
  },
  {
    "Arbol_id": 6092,
    "Folio": 0,
    "Usuario_id": "usuario2273",
    "Fecha_plantado": "",
    "Especie": "Ciprés",
    "Fecha_registro": "2014-02-07",
    "Municipio": "Guadalupe",
    "Direccion": "Poseidon 925-5721, Contry La Escondida, 67173 NL, México",
    "lon": -100.2646637,
    "lat": 25.6266403,
    "id": "541a2cad908e69c4ed6fcd2c"
  },