[
  {
    "Arbol_id": 4010,
    "Folio": 0,
    "Usuario_id": "usuario2322",
    "Fecha_plantado": "",
    "Especie": "Durazno",
    "Fecha_registro": "2014-01-22",
    "Municipio": "Apodaca",
    "Direccion": "Félix Cantú Lozano 413, MX_Loc2_test, Chandra's Test City [don't deny], state, México",
    "lon": "",
    "lat": "",
    "id": "541a2cac908e69c4ed6fc537"
  },
  {
    "Arbol_id": 4124,
    "Folio": 0,
    "Usuario_id": "usuario2273",
    "Fecha_plantado": "",
    "Especie": "Durazno",
    "Fecha_registro": "2014-01-23",
    "Municipio": "Guadalupe",
    "Direccion": "Eje Metropolitano 31, Contry La Silla 1er Sector, 67173 NL, México",
    "lon": "",
    "lat": "",
    "id": "541a2cac908e69c4ed6fc5a9"
  },
  {
    "Arbol_id": 4570,
    "Folio": 0,
    "Usuario_id": "usuario2273",
    "Fecha_plantado": "",
    "Especie": "Durazno",
    "Fecha_registro": "2014-01-28",
    "Municipio": "Guadalupe",
    "Direccion": "Aristóteles 786, Contry La Silla 1er Sector, 67173 Guadalupe, NL, México",
    "lon": -100.2641068,
    "lat": 25.6232395,
    "id": "541a2cad908e69c4ed6fc757"
  },
  {
    "Arbol_id": 4697,
    "Folio": 0,
    "Usuario_id": "usuario2273",
    "Fecha_plantado": "",
    "Especie": "Durazno",
    "Fecha_registro": "2014-01-28",
    "Municipio": "Guadalupe",
    "Direccion": "Anaxágoras 1000, Contry La Silla 1er Sector, 67173 NL, México",
    "lon": -100.2675629,
    "lat": 25.6260891,
    "id": "541a2cad908e69c4ed6fc7d1"
  },
  {
    "Arbol_id": 4972,
    "Folio": 0,
    "Usuario_id": "usuario2273",
    "Fecha_plantado": "",
    "Especie": "Durazno",
    "Fecha_registro": "2014-01-30",
    "Municipio": "Guadalupe",
    "Direccion": "Galileo Galilei, Contry La Silla 1er Sector, 67173 NL, México",
    "lon": -100.2660065,
    "lat": 25.6225796,
    "id": "541a2cad908e69c4ed6fc8e1"
  },
  {
    "Arbol_id": 4976,
    "Folio": 0,
    "Usuario_id": "usuario2273",
    "Fecha_plantado": "",
    "Especie": "Durazno",
    "Fecha_registro": "2014-01-30",
    "Municipio": "Guadalupe",
    "Direccion": "Anaxágoras 1000, Contry La Silla 1er Sector, 67173 NL, México",
    "lon": -100.2675629,
    "lat": 25.6260891,
    "id": "541a2cad908e69c4ed6fc8e5"
  },
  {
    "Arbol_id": 4999,
    "Folio": 236,
    "Usuario_id": "usuario2840",
    "Fecha_plantado": "",
    "Especie": "Durazno",
    "Fecha_registro": "2014-01-30",
    "Municipio": "San Nicolás",
    "Direccion": "Ojo de Agua 415, Residencial Potrero de Anáhuac, 66635 Chandra's Test City [don't deny], state, Mexi",
    "lon": "",
    "lat": "",
    "id": "541a2cad908e69c4ed6fc8fc"
  },
  {
    "Arbol_id": 5768,
    "Folio": 0,
    "Usuario_id": "usuario2273",
    "Fecha_plantado": "",
    "Especie": "Durazno",
    "Fecha_registro": "2014-02-06",
    "Municipio": "Guadalupe",
    "Direccion": "Ptolomeo 735, Contry La Silla 1er Sector, 67173 NL, México",
    "lon": -100.2666397,
    "lat": 25.6250801,
    "id": "541a2cad908e69c4ed6fcbea"
  },
  {
    "Arbol_id": 6205,
    "Folio": 0,
    "Usuario_id": "usuario1375",
    "Fecha_plantado": "",
    "Especie": "Durazno",
    "Fecha_registro": "2014-02-10",
    "Municipio": "Santa Catarina",
    "Direccion": "La Escondida 112_12, Sin Nombre de Colonia 21, NL, México",
    "lon": "",
    "lat": "",
    "id": "541a2cad908e69c4ed6fcd9d"
  },
  {
    "Arbol_id": 6541,
    "Folio": 0,
    "Usuario_id": "usuario2273",
    "Fecha_plantado": "",
    "Especie": "Durazno",
    "Fecha_registro": "2014-02-11",
    "Municipio": "Guadalupe",
    "Direccion": "Caleta 3346, Riberas del Río, 67160 NL, México",
    "lon": -100.220108,
    "lat": 25.6785202,
    "id": "541a2cad908e69c4ed6fceeb"
  },
  {
    "Arbol_id": 6835,
    "Folio": 0,
    "Usuario_id": "usuario2273",
    "Fecha_plantado": "",
    "Especie": "Durazno",
    "Fecha_registro": "2014-02-12",
    "Municipio": "Guadalupe",
    "Direccion": "Embarcadero 305, Riberas del Río, 67160 NL, México",
    "lon": -100.2198029,
    "lat": 25.6796894,
    "id": "541a2cad908e69c4ed6fd00f"
  },
  {
    "Arbol_id": 10207,
    "Folio": 0,
    "Usuario_id": "usuario2273",
    "Fecha_plantado": "",
    "Especie": "Durazno",
    "Fecha_registro": "2014-02-28",
    "Municipio": "Guadalupe",
    "Direccion": "Espolón, Riberas del Río, 67160 NL, México",
    "lon": -100.2189102,
    "lat": 25.6812496,
    "id": "541a2cae908e69c4ed6fdd0b"
  },
  {
    "Arbol_id": 10251,
    "Folio": 0,
    "Usuario_id": "usuario2273",
    "Fecha_plantado": "",
    "Especie": "Durazno",
    "Fecha_registro": "2014-02-28",
    "Municipio": "Guadalupe",
    "Direccion": "El Salto 3239, Riberas del Río, 67160 NL, México",
    "lon": -100.2198181,
    "lat": 25.6809692,
    "id": "541a2cae908e69c4ed6fdd37"
  },
  {
    "Arbol_id": 10258,
    "Folio": 0,
    "Usuario_id": "usuario2273",
    "Fecha_plantado": "",
    "Especie": "Durazno",
    "Fecha_registro": "2014-02-28",
    "Municipio": "Guadalupe",
    "Direccion": "El Salto 3239, Riberas del Río, 67160 NL, México",
    "lon": -100.2198181,
    "lat": 25.6809692,
    "id": "541a2cae908e69c4ed6fdd3e"
  },
  {
    "Arbol_id": 10259,
    "Folio": 0,
    "Usuario_id": "usuario2273",
    "Fecha_plantado": "",
    "Especie": "Durazno",
    "Fecha_registro": "2014-02-28",
    "Municipio": "Guadalupe",
    "Direccion": "El Salto 3401, Riberas del Río, 67160 Guadalupe, NL, México",
    "lon": -100.2194519,
    "lat": 25.6809006,
    "id": "541a2cae908e69c4ed6fdd3f"
  },
  {
    "Arbol_id": 10262,
    "Folio": 0,
    "Usuario_id": "usuario2273",
    "Fecha_plantado": "",
    "Especie": "Durazno",
    "Fecha_registro": "2014-02-28",
    "Municipio": "Guadalupe",
    "Direccion": "El Salto 3401, Riberas del Río, 67160 Guadalupe, NL, México",
    "lon": -100.2194519,
    "lat": 25.6809006,
    "id": "541a2cae908e69c4ed6fdd42"
  },
  {
    "Arbol_id": 10266,
    "Folio": 0,
    "Usuario_id": "usuario2273",
    "Fecha_plantado": "",
    "Especie": "Durazno",
    "Fecha_registro": "2014-02-28",
    "Municipio": "Guadalupe",
    "Direccion": "El Salto 3401, Riberas del Río, 67160 Guadalupe, NL, México",
    "lon": -100.2194519,
    "lat": 25.6809006,
    "id": "541a2cae908e69c4ed6fdd46"
  },
  {
    "Arbol_id": 10271,
    "Folio": 0,
    "Usuario_id": "usuario2273",
    "Fecha_plantado": "",
    "Especie": "Durazno",
    "Fecha_registro": "2014-02-28",
    "Municipio": "Guadalupe",
    "Direccion": "El Salto 3237, Riberas del Río, 67160 NL, México",
    "lon": -100.2199173,
    "lat": 25.6809902,
    "id": "541a2cae908e69c4ed6fdd4b"
  },
  {
    "Arbol_id": 10273,
    "Folio": 0,
    "Usuario_id": "usuario2273",
    "Fecha_plantado": "",
    "Especie": "Durazno",
    "Fecha_registro": "2014-02-28",
    "Municipio": "Guadalupe",
    "Direccion": "El Salto 3235, Riberas del Río, 67160 NL, México",
    "lon": -100.2200165,
    "lat": 25.6809998,
    "id": "541a2cae908e69c4ed6fdd4d"
  },
  {
    "Arbol_id": 10510,
    "Folio": 139,
    "Usuario_id": "usuario845",
    "Fecha_plantado": "2014-03-03T00:00:00Z",
    "Especie": "Durazno",
    "Fecha_registro": "2014-03-03",
    "Municipio": "Juárez",
    "Direccion": "Villa España 222, Villas de Oriente, 67267 Ciudad Benito Juárez, NL, México",
    "lon": -100.1140289,
    "lat": 25.6548195,
    "id": "541a2cae908e69c4ed6fde2a"
  },
  {
    "Arbol_id": 10516,
    "Folio": 0,
    "Usuario_id": "usuario2273",
    "Fecha_plantado": "",
    "Especie": "Durazno",
    "Fecha_registro": "2014-03-03",
    "Municipio": "Guadalupe",
    "Direccion": "Malecón 3366, Riberas del Río, 67160 NL, México",
    "lon": -100.2198563,
    "lat": 25.6800804,
    "id": "541a2cae908e69c4ed6fde30"
  },
  {
    "Arbol_id": 12026,
    "Folio": 0,
    "Usuario_id": "usuario2273",
    "Fecha_plantado": "",
    "Especie": "Durazno",
    "Fecha_registro": "2014-03-07",
    "Municipio": "Guadalupe",
    "Direccion": "Arrecife 3306, Riberas del Río, 67160 NL, México",
    "lon": -100.2196121,
    "lat": 25.6834202,
    "id": "541a2caf908e69c4ed6fe406"
  },
  {
    "Arbol_id": 12547,
    "Folio": 0,
    "Usuario_id": "usuario2273",
    "Fecha_plantado": "",
    "Especie": "Durazno",
    "Fecha_registro": "2014-03-10",
    "Municipio": "Guadalupe",
    "Direccion": "Isaac Newton 620, Contry La Silla 1er Sector, 67173 Guadalupe, NL, México",
    "lon": -100.268158,
    "lat": 25.6312008,
    "id": "541a2caf908e69c4ed6fe607"
  },
  {
    "Arbol_id": 12962,
    "Folio": 0,
    "Usuario_id": "usuario2273",
    "Fecha_plantado": "",
    "Especie": "Durazno",
    "Fecha_registro": "2014-03-12",
    "Municipio": "Guadalupe",
    "Direccion": "La Canadá 3205, Riberas del Río, 67160 NL, México",
    "lon": -100.2208481,
    "lat": 25.6828308,
    "id": "541a2caf908e69c4ed6fe79f"
  },
  {
    "Arbol_id": 13845,
    "Folio": 0,
    "Usuario_id": "usuario2273",
    "Fecha_plantado": "",
    "Especie": "Durazno",
    "Fecha_registro": "2014-03-20",
    "Municipio": "Guadalupe",
    "Direccion": "Torrente 3107, Riberas del Río, 67160 NL, México",
    "lon": -100.2229996,
    "lat": 25.6837597,
    "id": "541a2caf908e69c4ed6feb0a"
  },
  {
    "Arbol_id": 13930,
    "Folio": 0,
    "Usuario_id": "usuario2273",
    "Fecha_plantado": "",
    "Especie": "Durazno",
    "Fecha_registro": "2014-03-20",
    "Municipio": "Guadalupe",
    "Direccion": "Dique 3117, Riberas del Río, 67160 NL, México",
    "lon": -100.222847,
    "lat": 25.6830196,
    "id": "541a2caf908e69c4ed6feb5f"
  },
  {
    "Arbol_id": 13996,
    "Folio": 0,
    "Usuario_id": "usuario2273",
    "Fecha_plantado": "",
    "Especie": "Durazno",
    "Fecha_registro": "2014-03-21",
    "Municipio": "Guadalupe",
    "Direccion": "Riacho 3110, Riberas del Río, 67160 NL, México",
    "lon": -100.2229996,
    "lat": 25.6834202,
    "id": "541a2caf908e69c4ed6feba1"
  },
  {
    "Arbol_id": 14000,
    "Folio": 0,
    "Usuario_id": "usuario2273",
    "Fecha_plantado": "",
    "Especie": "Durazno",
    "Fecha_registro": "2014-03-21",
    "Municipio": "Guadalupe",
    "Direccion": "Riacho 3110, Riberas del Río, 67160 NL, México",
    "lon": -100.2229996,
    "lat": 25.6834202,
    "id": "541a2caf908e69c4ed6feba5"
  },
  {
    "Arbol_id": 14011,
    "Folio": 0,
    "Usuario_id": "usuario2273",
    "Fecha_plantado": "",
    "Especie": "Durazno",
    "Fecha_registro": "2014-03-21",
    "Municipio": "Guadalupe",
    "Direccion": "Riacho 3114, Riberas del Río, 67160 NL, México",
    "lon": -100.2228394,
    "lat": 25.6833706,
    "id": "541a2caf908e69c4ed6febb0"
  },
  {
    "Arbol_id": 14289,
    "Folio": 671,
    "Usuario_id": "usuario2840",
    "Fecha_plantado": "",
    "Especie": "Durazno",
    "Fecha_registro": "2014-03-24",
    "Municipio": "San Nicolás",
    "Direccion": "Avenida San Nicolás, Sin Nombre de Colonia 2, NL, México",
    "lon": -99.2450333,
    "lat": 19.2900295,
    "id": "541a2caf908e69c4ed6fecc1"
  },
  {
    "Arbol_id": 14293,
    "Folio": 675,
    "Usuario_id": "usuario2840",
    "Fecha_plantado": "",
    "Especie": "Durazno",
    "Fecha_registro": "2014-03-24",
    "Municipio": "San Nicolás",
    "Direccion": "Ojo de Agua 617-619, Villa Las Puentes, NL, México",
    "lon": -100.290741,
    "lat": 25.7381191,
    "id": "541a2caf908e69c4ed6fecc5"
  },
  {
    "Arbol_id": 14412,
    "Folio": 717,
    "Usuario_id": "usuario958",
    "Fecha_plantado": "",
    "Especie": "Durazno",
    "Fecha_registro": "2014-03-24",
    "Municipio": "San Nicolás",
    "Direccion": "Ojo de Agua SN-S GRAN PARQUE SAN NICOLAS, Sin Nombre de Colonia 2, NL, México",
    "lon": -99.2449722,
    "lat": 19.2828293,
    "id": "541a2caf908e69c4ed6fed39"
  },
  {
    "Arbol_id": 16923,
    "Folio": 0,
    "Usuario_id": "usuario2273",
    "Fecha_plantado": "",
    "Especie": "Durazno",
    "Fecha_registro": "2014-04-07",
    "Municipio": "Guadalupe",
    "Direccion": "Península 1203, Riberas del Río, 67160 NL, México",
    "lon": -100.2155838,
    "lat": 25.6821194,
    "id": "541a2cb0908e69c4ed6ff6e0"
  },
  {
    "Arbol_id": 17018,
    "Folio": 165,
    "Usuario_id": "usuario958",
    "Fecha_plantado": "",
    "Especie": "Durazno",
    "Fecha_registro": "2014-04-08",
    "Municipio": "",
    "Direccion": "Avenida República Mexicana 1741, La Nogalera 2o Sector, 66417 NL, México",
    "lon": -100.2929001,
    "lat": 25.72019,
    "id": "541a2cb0908e69c4ed6ff73f"
  },
  {
    "Arbol_id": 17210,
    "Folio": 0,
    "Usuario_id": "usuario2273",
    "Fecha_plantado": "",
    "Especie": "Durazno",
    "Fecha_registro": "2014-04-09",
    "Municipio": "Guadalupe",
    "Direccion": "Pasaje De Los Manantiales 3102, Riberas del Río, 67160 NL, México",
    "lon": -100.2234573,
    "lat": 25.6827393,
    "id": "541a2cb0908e69c4ed6ff7d7"
  },
  {
    "Arbol_id": 17212,
    "Folio": 0,
    "Usuario_id": "usuario2273",
    "Fecha_plantado": "",
    "Especie": "Durazno",
    "Fecha_registro": "2014-04-09",
    "Municipio": "Guadalupe",
    "Direccion": "Pasaje De Los Manantiales 3102, Riberas del Río, 67160 NL, México",
    "lon": -100.2234573,
    "lat": 25.6827393,
    "id": "541a2cb0908e69c4ed6ff7d9"
  },
  {
    "Arbol_id": 18367,
    "Folio": 0,
    "Usuario_id": "usuario2273",
    "Fecha_plantado": "",
    "Especie": "Durazno",
    "Fecha_registro": "2014-04-11",
    "Municipio": "Guadalupe",
    "Direccion": "Pasaje De Los Manantiales 3037, Riberas del Río, 67160 NL, México",
    "lon": -100.224762,
    "lat": 25.6830692,
    "id": "541a2cb1908e69c4ed6ffc29"
  },
  {
    "Arbol_id": 18376,
    "Folio": 0,
    "Usuario_id": "usuario2273",
    "Fecha_plantado": "",
    "Especie": "Durazno",
    "Fecha_registro": "2014-04-11",
    "Municipio": "Guadalupe",
    "Direccion": "Pasaje De Los Manantiales 3038, Riberas del Río, 67160 NL, México",
    "lon": -100.2248383,
    "lat": 25.6830101,
    "id": "541a2cb1908e69c4ed6ffc32"
  },
  {
    "Arbol_id": 19190,
    "Folio": 0,
    "Usuario_id": "usuario2273",
    "Fecha_plantado": "",
    "Especie": "Durazno",
    "Fecha_registro": "2014-04-21",
    "Municipio": "Guadalupe",
    "Direccion": "Ría 3026, Riberas del Río, 67160 NL, México",
    "lon": -100.2252121,
    "lat": 25.6815891,
    "id": "541a2cb1908e69c4ed6fff3b"
  },
  {
    "Arbol_id": 20395,
    "Folio": 0,
    "Usuario_id": "usuario2273",
    "Fecha_plantado": "",
    "Especie": "Durazno",
    "Fecha_registro": "2014-04-28",
    "Municipio": "Guadalupe",
    "Direccion": "Arroyo 3014, Riberas del Río, 67160 NL, México",
    "lon": -100.2257233,
    "lat": 25.6834507,
    "id": "541a2cb1908e69c4ed7003e6"
  },
  {
    "Arbol_id": 20927,
    "Folio": 0,
    "Usuario_id": "usuario2273",
    "Fecha_plantado": "",
    "Especie": "Durazno",
    "Fecha_registro": "2014-04-30",
    "Municipio": "Guadalupe",
    "Direccion": "Riachuelo 3043, Riberas del Río, 67160 NL, México",
    "lon": -100.225174,
    "lat": 25.6839809,
    "id": "541a2cb1908e69c4ed7005f9"
  },
  {
    "Arbol_id": 21229,
    "Folio": 0,
    "Usuario_id": "usuario2273",
    "Fecha_plantado": "",
    "Especie": "Durazno",
    "Fecha_registro": "2014-04-30",
    "Municipio": "Guadalupe",
    "Direccion": "Tula 905, Infonavit La Joya, 67160 Monterrey, NL, México",
    "lon": -100.2150192,
    "lat": 25.6819496,
    "id": "541a2cb1908e69c4ed700727"
  },
  {
    "Arbol_id": 21361,
    "Folio": 0,
    "Usuario_id": "usuario2273",
    "Fecha_plantado": "",
    "Especie": "Durazno",
    "Fecha_registro": "2014-05-02",
    "Municipio": "Guadalupe",
    "Direccion": "Canal 305, Infonavit La Joya, 67160 Monterrey, NL, México",
    "lon": "",
    "lat": "",
    "id": "541a2cb1908e69c4ed7007ab"
  },
  {
    "Arbol_id": 21947,
    "Folio": 0,
    "Usuario_id": "usuario2273",
    "Fecha_plantado": "",
    "Especie": "Durazno",
    "Fecha_registro": "2014-05-06",
    "Municipio": "Guadalupe",
    "Direccion": "Gral. Plutarco Elías Calles 207, Veintiuno de Enero, 67160 NL, México",
    "lon": -109.9411011,
    "lat": 27.4523506,
    "id": "541a2cb2908e69c4ed7009ec"
  },
  {
    "Arbol_id": 22162,
    "Folio": 0,
    "Usuario_id": "usuario2273",
    "Fecha_plantado": "",
    "Especie": "Durazno",
    "Fecha_registro": "2014-05-06",
    "Municipio": "Guadalupe",
    "Direccion": "19 de Febrero 331, Valle Hermoso 1er Sector, 67160 NL, México",
    "lon": -100.2211838,
    "lat": 25.6856403,
    "id": "541a2cb2908e69c4ed700ac3"
  },
  {
    "Arbol_id": 22165,
    "Folio": 0,
    "Usuario_id": "usuario2273",
    "Fecha_plantado": "",
    "Especie": "Durazno",
    "Fecha_registro": "2014-05-06",
    "Municipio": "Guadalupe",
    "Direccion": "19 de Febrero 331, Valle Hermoso 1er Sector, 67160 NL, México",
    "lon": -100.2211838,
    "lat": 25.6856403,
    "id": "541a2cb2908e69c4ed700ac6"
  },
  {
    "Arbol_id": 22290,
    "Folio": 0,
    "Usuario_id": "usuario2273",
    "Fecha_plantado": "",
    "Especie": "Durazno",
    "Fecha_registro": "2014-05-07",
    "Municipio": "Guadalupe",
    "Direccion": "30 de Septiembre 404, Valle Hermoso 1er Sector, 67160 NL, México",
    "lon": -100.2197418,
    "lat": 25.6852894,
    "id": "541a2cb2908e69c4ed700b43"
  },
  {
    "Arbol_id": 22341,
    "Folio": 0,
    "Usuario_id": "usuario2273",
    "Fecha_plantado": "",
    "Especie": "Durazno",
    "Fecha_registro": "2014-05-07",
    "Municipio": "Guadalupe",
    "Direccion": "8 de Mayo 509, Veintiuno de Enero, 67160 NL, México",
    "lon": -100.2184219,
    "lat": 25.6848145,
    "id": "541a2cb2908e69c4ed700b76"
  },
  {
    "Arbol_id": 22363,
    "Folio": 0,
    "Usuario_id": "usuario2273",
    "Fecha_plantado": "",
    "Especie": "Durazno",
    "Fecha_registro": "2014-05-07",
    "Municipio": "Guadalupe",
    "Direccion": "30 de Septiembre 506, Valle Hermoso 1er Sector, 67160 NL, México",
    "lon": -100.2198105,
    "lat": 25.6846809,
    "id": "541a2cb2908e69c4ed700b8c"
  },
  {
    "Arbol_id": 22373,
    "Folio": 0,
    "Usuario_id": "usuario2273",
    "Fecha_plantado": "",
    "Especie": "Durazno",
    "Fecha_registro": "2014-05-07",
    "Municipio": "Guadalupe",
    "Direccion": "14 de Abril 204, Valle Hermoso 1er Sector, 67160 Guadalupe, NL, México",
    "lon": -100.2187195,
    "lat": 25.6844902,
    "id": "541a2cb2908e69c4ed700b96"
  },
  {
    "Arbol_id": 22469,
    "Folio": 0,
    "Usuario_id": "usuario2273",
    "Fecha_plantado": "",
    "Especie": "Durazno",
    "Fecha_registro": "2014-05-07",
    "Municipio": "Guadalupe",
    "Direccion": "15 de Mayo 321, Valle Hermoso 1er Sector, 67160 NL, México",
    "lon": -100.2206802,
    "lat": 25.6851406,
    "id": "541a2cb2908e69c4ed700bf6"
  },
  {
    "Arbol_id": 22490,
    "Folio": 0,
    "Usuario_id": "usuario2273",
    "Fecha_plantado": "",
    "Especie": "Durazno",
    "Fecha_registro": "2014-05-07",
    "Municipio": "Guadalupe",
    "Direccion": "15 de Mayo 306, Valle Hermoso 1er Sector, 67160 NL, México",
    "lon": -100.2200394,
    "lat": 25.6850204,
    "id": "541a2cb2908e69c4ed700c0b"
  },
  {
    "Arbol_id": 22491,
    "Folio": 0,
    "Usuario_id": "usuario2273",
    "Fecha_plantado": "",
    "Especie": "Durazno",
    "Fecha_registro": "2014-05-07",
    "Municipio": "Guadalupe",
    "Direccion": "15 de Mayo 304, Valle Hermoso 1er Sector, 67160 NL, México",
    "lon": -100.2199249,
    "lat": 25.6849174,
    "id": "541a2cb2908e69c4ed700c0c"
  },
  {
    "Arbol_id": 22498,
    "Folio": 0,
    "Usuario_id": "usuario2273",
    "Fecha_plantado": "",
    "Especie": "Durazno",
    "Fecha_registro": "2014-05-07",
    "Municipio": "Guadalupe",
    "Direccion": "30 de Septiembre 510, Valle Hermoso 1er Sector, 67160 NL, México",
    "lon": -100.2198792,
    "lat": 25.6849022,
    "id": "541a2cb2908e69c4ed700c13"
  },
  {
    "Arbol_id": 22548,
    "Folio": 0,
    "Usuario_id": "usuario2273",
    "Fecha_plantado": "",
    "Especie": "Durazno",
    "Fecha_registro": "2014-05-07",
    "Municipio": "Guadalupe",
    "Direccion": "1o. de Diciembre 216, Veintiuno de Enero, 67160 NL, México",
    "lon": -100.2157211,
    "lat": 25.6861191,
    "id": "541a2cb2908e69c4ed700c45"
  },
  {
    "Arbol_id": 22691,
    "Folio": 0,
    "Usuario_id": "usuario2273",
    "Fecha_plantado": "",
    "Especie": "Durazno",
    "Fecha_registro": "2014-05-08",
    "Municipio": "Guadalupe",
    "Direccion": "Calle 12 de Octubre 133, Veintiuno de Enero, 67160 NL, México",
    "lon": -100.2167053,
    "lat": 25.6869411,
    "id": "541a2cb2908e69c4ed700cd4"
  },
  {
    "Arbol_id": 22725,
    "Folio": 0,
    "Usuario_id": "usuario2273",
    "Fecha_plantado": "",
    "Especie": "Durazno",
    "Fecha_registro": "2014-05-08",
    "Municipio": "Guadalupe",
    "Direccion": "Calle 12 de Octubre 221, Veintiuno de Enero, 67160 NL, México",
    "lon": -100.2155838,
    "lat": 25.6868896,
    "id": "541a2cb2908e69c4ed700cf6"
  },
  {
    "Arbol_id": 22726,
    "Folio": 0,
    "Usuario_id": "usuario2273",
    "Fecha_plantado": "",
    "Especie": "Durazno",
    "Fecha_registro": "2014-05-08",
    "Municipio": "Guadalupe",
    "Direccion": "Calle 12 de Octubre 229, Veintiuno de Enero, 67160 NL, México",
    "lon": -100.2155075,
    "lat": 25.6868839,
    "id": "541a2cb2908e69c4ed700cf7"
  },
  {
    "Arbol_id": 22731,
    "Folio": 0,
    "Usuario_id": "usuario2273",
    "Fecha_plantado": "",
    "Especie": "Durazno",
    "Fecha_registro": "2014-05-08",
    "Municipio": "Guadalupe",
    "Direccion": "Calle 12 de Octubre 229, Veintiuno de Enero, 67160 NL, México",
    "lon": -100.2155075,
    "lat": 25.6868839,
    "id": "541a2cb2908e69c4ed700cfc"
  },
  {
    "Arbol_id": 23018,
    "Folio": 0,
    "Usuario_id": "usuario2273",
    "Fecha_plantado": "",
    "Especie": "Durazno",
    "Fecha_registro": "2014-05-09",
    "Municipio": "Guadalupe",
    "Direccion": "15 de Mayo 140, Veintiuno de Enero, 67160 NL, México",
    "lon": -100.218277,
    "lat": 25.6849308,
    "id": "541a2cb2908e69c4ed700e1b"
  },
  {
    "Arbol_id": 23021,
    "Folio": 1562,
    "Usuario_id": "usuario845",
    "Fecha_plantado": "",
    "Especie": "Durazno",
    "Fecha_registro": "2014-05-09",
    "Municipio": "Juárez",
    "Direccion": "Juan Escutia 625, Infonavit Benito Juárez, 67267 Benito Juárez, NL, México",
    "lon": -100.1024475,
    "lat": 25.6442509,
    "id": "541a2cb2908e69c4ed700e1e"
  },
  {
    "Arbol_id": 23075,
    "Folio": 0,
    "Usuario_id": "usuario2273",
    "Fecha_plantado": "",
    "Especie": "Durazno",
    "Fecha_registro": "2014-05-09",
    "Municipio": "Guadalupe",
    "Direccion": "15 de Mayo 116, Veintiuno de Enero, 67160 NL, México",
    "lon": "",
    "lat": "",
    "id": "541a2cb2908e69c4ed700e54"
  },
  {
    "Arbol_id": 23087,
    "Folio": 0,
    "Usuario_id": "usuario2273",
    "Fecha_plantado": "",
    "Especie": "Durazno",
    "Fecha_registro": "2014-05-09",
    "Municipio": "Guadalupe",
    "Direccion": "27 de Septiembre 215, Veintiuno de Enero, 67160 NL, México",
    "lon": "",
    "lat": "",
    "id": "541a2cb2908e69c4ed700e60"
  },
  {
    "Arbol_id": 23135,
    "Folio": 0,
    "Usuario_id": "usuario2273",
    "Fecha_plantado": "",
    "Especie": "Durazno",
    "Fecha_registro": "2014-05-09",
    "Municipio": "Guadalupe",
    "Direccion": "19 de Febrero 129, Veintiuno de Enero, 67160 NL, México",
    "lon": -100.2181702,
    "lat": 25.6854496,
    "id": "541a2cb2908e69c4ed700e90"
  },
  {
    "Arbol_id": 23139,
    "Folio": 0,
    "Usuario_id": "usuario2273",
    "Fecha_plantado": "",
    "Especie": "Durazno",
    "Fecha_registro": "2014-05-09",
    "Municipio": "Guadalupe",
    "Direccion": "19 de Febrero 129, Veintiuno de Enero, 67160 NL, México",
    "lon": -100.2181702,
    "lat": 25.6854496,
    "id": "541a2cb2908e69c4ed700e94"
  },
  {
    "Arbol_id": 23152,
    "Folio": 0,
    "Usuario_id": "usuario2273",
    "Fecha_plantado": "",
    "Especie": "Durazno",
    "Fecha_registro": "2014-05-09",
    "Municipio": "Guadalupe",
    "Direccion": "19 de Febrero 113, Veintiuno de Enero, 67160 NL, México",
    "lon": -100.2177505,
    "lat": 25.6854191,
    "id": "541a2cb2908e69c4ed700ea1"
  },
  {
    "Arbol_id": 23173,
    "Folio": 0,
    "Usuario_id": "usuario2273",
    "Fecha_plantado": "",
    "Especie": "Durazno",
    "Fecha_registro": "2014-05-09",
    "Municipio": "Guadalupe",
    "Direccion": "21 de Marzo 301A, Río, 67160 NL, México",
    "lon": -100.2237625,
    "lat": 25.6870537,
    "id": "541a2cb2908e69c4ed700eb6"
  },
  {
    "Arbol_id": 23461,
    "Folio": 0,
    "Usuario_id": "usuario2273",
    "Fecha_plantado": "",
    "Especie": "Durazno",
    "Fecha_registro": "2014-05-12",
    "Municipio": "Guadalupe",
    "Direccion": "Calle 12 de Octubre 106, Veintiuno de Enero, 67160 NL, México",
    "lon": -100.2169571,
    "lat": 25.6866817,
    "id": "541a2cb2908e69c4ed700fd6"
  },
  {
    "Arbol_id": 23471,
    "Folio": 0,
    "Usuario_id": "usuario2273",
    "Fecha_plantado": "",
    "Especie": "Durazno",
    "Fecha_registro": "2014-05-12",
    "Municipio": "Guadalupe",
    "Direccion": "1o. de Diciembre 137, Veintiuno de Enero, 67160 Guadalupe, NL, México",
    "lon": -100.2166901,
    "lat": 25.68643,
    "id": "541a2cb2908e69c4ed700fe0"
  },
  {
    "Arbol_id": 23489,
    "Folio": 0,
    "Usuario_id": "usuario2273",
    "Fecha_plantado": "",
    "Especie": "Durazno",
    "Fecha_registro": "2014-05-12",
    "Municipio": "Guadalupe",
    "Direccion": "Calle 12 de Octubre 111, Veintiuno de Enero, 67160 NL, México",
    "lon": -100.2169113,
    "lat": 25.6869507,
    "id": "541a2cb2908e69c4ed700ff2"
  },
  {
    "Arbol_id": 23575,
    "Folio": 0,
    "Usuario_id": "usuario2273",
    "Fecha_plantado": "",
    "Especie": "Durazno",
    "Fecha_registro": "2014-05-12",
    "Municipio": "Guadalupe",
    "Direccion": "6 de Noviembre 314, Valle Hermoso 1er Sector, 67160 NL, México",
    "lon": -100.2215424,
    "lat": 25.6858349,
    "id": "541a2cb2908e69c4ed701048"
  },
  {
    "Arbol_id": 23612,
    "Folio": 0,
    "Usuario_id": "usuario2273",
    "Fecha_plantado": "",
    "Especie": "Durazno",
    "Fecha_registro": "2014-05-13",
    "Municipio": "Guadalupe",
    "Direccion": "5 de Febrero 326, Valle Hermoso 1er Sector, NL, México",
    "lon": -100.2208786,
    "lat": 25.6855507,
    "id": "541a2cb2908e69c4ed70106d"
  },
  {
    "Arbol_id": 23646,
    "Folio": 0,
    "Usuario_id": "usuario2273",
    "Fecha_plantado": "",
    "Especie": "Durazno",
    "Fecha_registro": "2014-05-13",
    "Municipio": "Guadalupe",
    "Direccion": "5 de Febrero 317, Valle Hermoso 1er Sector, 67160 NL, México",
    "lon": -100.2205276,
    "lat": 25.6856098,
    "id": "541a2cb2908e69c4ed70108f"
  },
  {
    "Arbol_id": 23691,
    "Folio": 0,
    "Usuario_id": "usuario2273",
    "Fecha_plantado": "",
    "Especie": "Durazno",
    "Fecha_registro": "2014-05-13",
    "Municipio": "Guadalupe",
    "Direccion": "2 de Abril 306, Sin Nombre de Colonia 19, Guadalupe, NL, México",
    "lon": -100.2134323,
    "lat": 25.6712608,
    "id": "541a2cb2908e69c4ed7010bc"
  },
  {
    "Arbol_id": 24039,
    "Folio": 0,
    "Usuario_id": "usuario2536",
    "Fecha_plantado": "",
    "Especie": "Durazno",
    "Fecha_registro": "2014-05-14",
    "Municipio": "Santa Catarina",
    "Direccion": "Avenida Los Viñedos, Los Viñedos, NL, México",
    "lon": "",
    "lat": "",
    "id": "541a2cb2908e69c4ed701213"
  },
  {
    "Arbol_id": 24970,
    "Folio": 1647,
    "Usuario_id": "usuario845",
    "Fecha_plantado": "2014-05-19T00:00:00Z",
    "Especie": "Durazno",
    "Fecha_registro": "2014-05-19",
    "Municipio": "Juárez",
    "Direccion": "Loma Real 110, Las Lomas, 67265 Ciudad Benito Juárez, NL, México",
    "lon": -100.1320419,
    "lat": 25.6591606,
    "id": "541a2cb2908e69c4ed7015ab"
  },
  {
    "Arbol_id": 25022,
    "Folio": 1664,
    "Usuario_id": "usuario845",
    "Fecha_plantado": "2014-05-19T00:00:00Z",
    "Especie": "Durazno",
    "Fecha_registro": "2014-05-19",
    "Municipio": "Juárez",
    "Direccion": "Loma Larga 164, Las Lomas, 67265 Ciudad Benito Juárez, NL, México",
    "lon": -100.1295471,
    "lat": 25.6589603,
    "id": "541a2cb2908e69c4ed7015df"
  },
  {
    "Arbol_id": 25025,
    "Folio": 1665,
    "Usuario_id": "usuario845",
    "Fecha_plantado": "2014-05-19T00:00:00Z",
    "Especie": "Durazno",
    "Fecha_registro": "2014-05-19",
    "Municipio": "Juárez",
    "Direccion": "Loma Larga 164, Las Lomas, 67265 Ciudad Benito Juárez, NL, México",
    "lon": -100.1295471,
    "lat": 25.6589603,
    "id": "541a2cb2908e69c4ed7015e2"
  },
  {
    "Arbol_id": 25282,
    "Folio": 0,
    "Usuario_id": "usuario2273",
    "Fecha_plantado": "",
    "Especie": "Durazno",
    "Fecha_registro": "2014-05-20",
    "Municipio": "Guadalupe",
    "Direccion": "Los Sabinos 550, El Sabino, 67150 NL, México",
    "lon": -100.2318268,
    "lat": 25.6815491,
    "id": "541a2cb2908e69c4ed7016de"
  },
  {
    "Arbol_id": 25312,
    "Folio": 0,
    "Usuario_id": "usuario2273",
    "Fecha_plantado": "",
    "Especie": "Durazno",
    "Fecha_registro": "2014-05-20",
    "Municipio": "Guadalupe",
    "Direccion": "Los Encinos 618, El Sabino, 67150 NL, México",
    "lon": -100.2312317,
    "lat": 25.6819592,
    "id": "541a2cb2908e69c4ed7016fc"
  },
  {
    "Arbol_id": 25366,
    "Folio": 0,
    "Usuario_id": "usuario2273",
    "Fecha_plantado": "",
    "Especie": "Durazno",
    "Fecha_registro": "2014-05-20",
    "Municipio": "Guadalupe",
    "Direccion": "Los Cedros 623, El Sabino, 67150 NL, México",
    "lon": -100.2315292,
    "lat": 25.6818905,
    "id": "541a2cb2908e69c4ed701732"
  },
  {
    "Arbol_id": 25432,
    "Folio": 0,
    "Usuario_id": "usuario2273",
    "Fecha_plantado": "",
    "Especie": "Durazno",
    "Fecha_registro": "2014-05-20",
    "Municipio": "Guadalupe",
    "Direccion": "Los Pinos 602, El Sabino, 67150 NL, México",
    "lon": -100.2322769,
    "lat": 25.6817093,
    "id": "541a2cb2908e69c4ed701774"
  },
  {
    "Arbol_id": 25582,
    "Folio": 1755,
    "Usuario_id": "usuario845",
    "Fecha_plantado": "",
    "Especie": "Durazno",
    "Fecha_registro": "2014-05-21",
    "Municipio": "Juárez",
    "Direccion": "Fresno 276, Quinta Las Sabinas, 67250 Ciudad Benito Juárez, NL, México",
    "lon": -100.1246414,
    "lat": 25.6612206,
    "id": "541a2cb3908e69c4ed70180a"
  },
  {
    "Arbol_id": 25604,
    "Folio": 1759,
    "Usuario_id": "usuario845",
    "Fecha_plantado": "",
    "Especie": "Durazno",
    "Fecha_registro": "2014-05-21",
    "Municipio": "Juárez",
    "Direccion": "Fresno 282, Quinta Las Sabinas, 67250 Ciudad Benito Juárez, NL, México",
    "lon": -100.1244812,
    "lat": 25.6612301,
    "id": "541a2cb3908e69c4ed701820"
  },
  {
    "Arbol_id": 25642,
    "Folio": 1768,
    "Usuario_id": "usuario208",
    "Fecha_plantado": "",
    "Especie": "Durazno",
    "Fecha_registro": "2014-05-21",
    "Municipio": "Juárez",
    "Direccion": "Fresno 284, Quinta Las Sabinas, 67250 Ciudad Benito Juárez, NL, México",
    "lon": -100.1244278,
    "lat": 25.6612301,
    "id": "541a2cb3908e69c4ed701846"
  },
  {
    "Arbol_id": 25797,
    "Folio": 0,
    "Usuario_id": "usuario2273",
    "Fecha_plantado": "",
    "Especie": "Durazno",
    "Fecha_registro": "2014-05-21",
    "Municipio": "Guadalupe",
    "Direccion": "Apatzingán 307, Residencial Azteca, 67150 Guadalupe, NL, México",
    "lon": -100.2320251,
    "lat": 25.6853676,
    "id": "541a2cb3908e69c4ed7018e1"
  },
  {
    "Arbol_id": 26042,
    "Folio": 0,
    "Usuario_id": "usuario2273",
    "Fecha_plantado": "",
    "Especie": "Durazno",
    "Fecha_registro": "2014-05-22",
    "Municipio": "Guadalupe",
    "Direccion": "Espíritu Santo. 107, Ignacio Zaragoza, 67160 NL, México",
    "lon": -100.2307205,
    "lat": 25.6839066,
    "id": "541a2cb3908e69c4ed7019cf"
  },
  {
    "Arbol_id": 26087,
    "Folio": 1836,
    "Usuario_id": "usuario845",
    "Fecha_plantado": "2014-05-22T00:00:00Z",
    "Especie": "Durazno",
    "Fecha_registro": "2014-05-22",
    "Municipio": "Juárez",
    "Direccion": "Anacua 201, Quinta Las Sabinas, Ciudad Benito Juárez, NL, México",
    "lon": -100.1263733,
    "lat": 25.6604099,
    "id": "541a2cb3908e69c4ed7019fc"
  },
  {
    "Arbol_id": 26142,
    "Folio": 1854,
    "Usuario_id": "usuario845",
    "Fecha_plantado": "2014-05-22T00:00:00Z",
    "Especie": "Durazno",
    "Fecha_registro": "2014-05-22",
    "Municipio": "Juárez",
    "Direccion": "Anacua 264, Quinta Las Sabinas, 67250 Ciudad Benito Juárez, NL, México",
    "lon": -100.124649,
    "lat": 25.6608295,
    "id": "541a2cb3908e69c4ed701a33"
  },
  {
    "Arbol_id": 26167,
    "Folio": 1859,
    "Usuario_id": "usuario845",
    "Fecha_plantado": "2014-05-22T00:00:00Z",
    "Especie": "Durazno",
    "Fecha_registro": "2014-05-22",
    "Municipio": "Juárez",
    "Direccion": "Anacua 248, Quinta Las Sabinas, 67250 Ciudad Benito Juárez, NL, México",
    "lon": -100.1250687,
    "lat": 25.66078,
    "id": "541a2cb3908e69c4ed701a4c"
  },
  {
    "Arbol_id": 26343,
    "Folio": 0,
    "Usuario_id": "usuario2273",
    "Fecha_plantado": "",
    "Especie": "Durazno",
    "Fecha_registro": "2014-05-22",
    "Municipio": "Guadalupe",
    "Direccion": "Cheyene 556, Azteca, 67150 NL, México",
    "lon": -100.2329865,
    "lat": 25.6850605,
    "id": "541a2cb3908e69c4ed701afc"
  },
  {
    "Arbol_id": 26828,
    "Folio": 1929,
    "Usuario_id": "usuario845",
    "Fecha_plantado": "2014-05-26T00:00:00Z",
    "Especie": "Durazno",
    "Fecha_registro": "2014-05-26",
    "Municipio": "Juárez",
    "Direccion": "Yuca 143, Sin Nombre de Colonia 3, Ciudad Benito Juárez, NL, México",
    "lon": -86.8845367,
    "lat": 21.1314602,
    "id": "541a2cb3908e69c4ed701cb8"
  },
  {
    "Arbol_id": 26906,
    "Folio": 1956,
    "Usuario_id": "usuario845",
    "Fecha_plantado": "2014-05-26T00:00:00Z",
    "Especie": "Durazno",
    "Fecha_registro": "2014-05-26",
    "Municipio": "Juárez",
    "Direccion": "Yuca 277, Sin Nombre de Colonia 3, Ciudad Benito Juárez, NL, México",
    "lon": -86.8845367,
    "lat": 21.1314602,
    "id": "541a2cb3908e69c4ed701d06"
  },
  {
    "Arbol_id": 27986,
    "Folio": 0,
    "Usuario_id": "usuario2273",
    "Fecha_plantado": "",
    "Especie": "Durazno",
    "Fecha_registro": "2014-05-28",
    "Municipio": "Guadalupe",
    "Direccion": "Adolfo López Mateos 341, Los Angeles, 67180 NL, México",
    "lon": -100.2145309,
    "lat": 25.6793404,
    "id": "541a2cb3908e69c4ed702134"
  },
  {
    "Arbol_id": 28252,
    "Folio": 2112,
    "Usuario_id": "usuario845",
    "Fecha_plantado": "2014-05-29T00:00:00Z",
    "Especie": "Durazno",
    "Fecha_registro": "2014-05-29",
    "Municipio": "Juárez",
    "Direccion": "Granjeno 122, Sin Nombre de Colonia 3, Ciudad Benito Juárez, NL, México",
    "lon": -86.8845367,
    "lat": 21.1314602,
    "id": "541a2cb3908e69c4ed70223d"
  },
  {
    "Arbol_id": 28455,
    "Folio": 2143,
    "Usuario_id": "usuario845",
    "Fecha_plantado": "2014-05-29T00:00:00Z",
    "Especie": "Durazno",
    "Fecha_registro": "2014-05-29",
    "Municipio": "Juárez",
    "Direccion": "Huizache 245, Sin Nombre de Colonia 3, Ciudad Benito Juárez, NL, México",
    "lon": -86.8845367,
    "lat": 21.1314602,
    "id": "541a2cb3908e69c4ed702307"
  },
  {
    "Arbol_id": 28533,
    "Folio": 2162,
    "Usuario_id": "usuario208",
    "Fecha_plantado": "2014-05-29T00:00:00Z",
    "Especie": "Durazno",
    "Fecha_registro": "2014-05-29",
    "Municipio": "Juárez",
    "Direccion": "Huizache 147, Sin Nombre de Colonia 3, Ciudad Benito Juárez, NL, México",
    "lon": -86.8845367,
    "lat": 21.1314602,
    "id": "541a2cb3908e69c4ed702354"
  },
  {
    "Arbol_id": 28869,
    "Folio": 2220,
    "Usuario_id": "usuario845",
    "Fecha_plantado": "2014-05-30T00:00:00Z",
    "Especie": "Durazno",
    "Fecha_registro": "2014-05-30",
    "Municipio": "Juárez",
    "Direccion": "Sauce 156, Sin Nombre de Colonia 3, 67250 Ciudad Benito Juárez, NL, México",
    "lon": -86.8845367,
    "lat": 21.1314602,
    "id": "541a2cb3908e69c4ed7024a4"
  },
  {
    "Arbol_id": 28893,
    "Folio": 2222,
    "Usuario_id": "usuario845",
    "Fecha_plantado": "2014-05-30T00:00:00Z",
    "Especie": "Durazno",
    "Fecha_registro": "2014-05-30",
    "Municipio": "Juárez",
    "Direccion": "Sauce 148, Quinta Las Sabinas, 67250 Ciudad Benito Juárez, NL, México",
    "lon": -100.1288834,
    "lat": 25.6592598,
    "id": "541a2cb3908e69c4ed7024bc"
  },
  {
    "Arbol_id": 29059,
    "Folio": 0,
    "Usuario_id": "usuario2273",
    "Fecha_plantado": "",
    "Especie": "Durazno",
    "Fecha_registro": "2014-05-30",
    "Municipio": "Guadalupe",
    "Direccion": "Jacarandas 1415, Sin Nombre de Colonia 43, 67110 NL, México",
    "lon": -100.2146683,
    "lat": 25.6964493,
    "id": "541a2cb3908e69c4ed702562"
  },
  {
    "Arbol_id": 30289,
    "Folio": 0,
    "Usuario_id": "usuario2273",
    "Fecha_plantado": "",
    "Especie": "Durazno",
    "Fecha_registro": "2014-06-04",
    "Municipio": "Guadalupe",
    "Direccion": "León Tolstoi 738, Contry La Silla 4o Sector, 67173 NL, México",
    "lon": -100.2667694,
    "lat": 25.6383095,
    "id": "541a2cb4908e69c4ed702a29"
  },
  {
    "Arbol_id": 30684,
    "Folio": 0,
    "Usuario_id": "usuario2273",
    "Fecha_plantado": "",
    "Especie": "Durazno",
    "Fecha_registro": "2014-06-05",
    "Municipio": "Guadalupe",
    "Direccion": "El Greco 767, Contry La Silla 5o Sector, 67173 NL, México",
    "lon": -100.2655334,
    "lat": 25.6425705,
    "id": "541a2cb4908e69c4ed702bb3"
  },
  {
    "Arbol_id": 30784,
    "Folio": 0,
    "Usuario_id": "usuario2536",
    "Fecha_plantado": "",
    "Especie": "Durazno",
    "Fecha_registro": "2014-06-05",
    "Municipio": "",
    "Direccion": "Hacienda San Carlos, Nuevo Leon, Mexico",
    "lon": -100.3058929,
    "lat": 25.7848797,
    "id": "541a2cb4908e69c4ed702c17"
  },
  {
    "Arbol_id": 30785,
    "Folio": 0,
    "Usuario_id": "usuario2536",
    "Fecha_plantado": "",
    "Especie": "Durazno",
    "Fecha_registro": "2014-06-05",
    "Municipio": "Santa Catarina",
    "Direccion": "Hacienda San Carlos, Nuevo Leon, Mexico",
    "lon": -100.3058929,
    "lat": 25.7848797,
    "id": "541a2cb4908e69c4ed702c18"
  },
  {
    "Arbol_id": 30797,
    "Folio": 0,
    "Usuario_id": "usuario2536",
    "Fecha_plantado": "",
    "Especie": "Durazno",
    "Fecha_registro": "2014-06-05",
    "Municipio": "",
    "Direccion": "Hacienda San Carlos, Nuevo Leon, Mexico",
    "lon": -100.3058929,
    "lat": 25.7848797,
    "id": "541a2cb4908e69c4ed702c24"
  },
  {
    "Arbol_id": 31638,
    "Folio": 2315,
    "Usuario_id": "usuario845",
    "Fecha_plantado": "2014-06-10T00:00:00Z",
    "Especie": "Durazno",
    "Fecha_registro": "2014-06-10",
    "Municipio": "Juárez",
    "Direccion": "Paseo Malaga, NL, México",
    "lon": -97.5239182,
    "lat": 25.85355,
    "id": "541a2cb4908e69c4ed702f69"
  },
  {
    "Arbol_id": 31649,
    "Folio": 2317,
    "Usuario_id": "usuario845",
    "Fecha_plantado": "2014-06-10T00:00:00Z",
    "Especie": "Durazno",
    "Fecha_registro": "2014-06-10",
    "Municipio": "Juárez",
    "Direccion": "Paseo Malaga, NL, México",
    "lon": -97.5239182,
    "lat": 25.85355,
    "id": "541a2cb4908e69c4ed702f74"
  },
  {
    "Arbol_id": 31729,
    "Folio": 0,
    "Usuario_id": "usuario2273",
    "Fecha_plantado": "",
    "Especie": "Durazno",
    "Fecha_registro": "2014-06-10",
    "Municipio": "Guadalupe",
    "Direccion": "Leonardo Da Vinci 2544, Contry La Silla 5o Sector, 67173 NL, México",
    "lon": -100.2620773,
    "lat": 25.6401806,
    "id": "541a2cb4908e69c4ed702fc4"
  },
  {
    "Arbol_id": 31940,
    "Folio": 2377,
    "Usuario_id": "usuario845",
    "Fecha_plantado": "2014-06-11T00:00:00Z",
    "Especie": "Durazno",
    "Fecha_registro": "2014-06-11",
    "Municipio": "Juárez",
    "Direccion": "Paseo Cordoba, Fracc. Paseo Andaluz, NL, México",
    "lon": "",
    "lat": "",
    "id": "541a2cb4908e69c4ed703096"
  },
  {
    "Arbol_id": 31956,
    "Folio": 2380,
    "Usuario_id": "usuario845",
    "Fecha_plantado": "2014-06-11T00:00:00Z",
    "Especie": "Durazno",
    "Fecha_registro": "2014-06-11",
    "Municipio": "Juárez",
    "Direccion": "Paseo Cordoba, Fracc. Paseo Andaluz, NL, México",
    "lon": "",
    "lat": "",
    "id": "541a2cb4908e69c4ed7030a6"
  },
  {
    "Arbol_id": 32221,
    "Folio": 0,
    "Usuario_id": "usuario2536",
    "Fecha_plantado": "",
    "Especie": "Durazno",
    "Fecha_registro": "2014-06-11",
    "Municipio": "Santa Catarina",
    "Direccion": "De Azucena Nte. 129, Misión de Santa Catarina, 66360 NL, México",
    "lon": -100.450531,
    "lat": 25.6976299,
    "id": "541a2cb4908e69c4ed7031ae"
  },
  {
    "Arbol_id": 32291,
    "Folio": 2437,
    "Usuario_id": "usuario845",
    "Fecha_plantado": "2014-06-12T00:00:00Z",
    "Especie": "Durazno",
    "Fecha_registro": "2014-06-12",
    "Municipio": "Juárez",
    "Direccion": "Paseo Cadiz, Fracc. Paseo Andaluz, NL, México",
    "lon": "",
    "lat": "",
    "id": "541a2cb4908e69c4ed7031f2"
  },
  {
    "Arbol_id": 33304,
    "Folio": 2644,
    "Usuario_id": "usuario845",
    "Fecha_plantado": "2014-06-18T00:00:00Z",
    "Especie": "Durazno",
    "Fecha_registro": "2014-06-18",
    "Municipio": "Juárez",
    "Direccion": "Hda. San Cristóbal, Hacienda Santa Lucía 1er. Sector, 67250 Ciudad Benito Juárez, NL, México",
    "lon": -100.1232529,
    "lat": 25.6560307,
    "id": "541a2cb5908e69c4ed7035e4"
  },
  {
    "Arbol_id": 33309,
    "Folio": 2646,
    "Usuario_id": "usuario845",
    "Fecha_plantado": "2014-06-18T00:00:00Z",
    "Especie": "Durazno",
    "Fecha_registro": "2014-06-18",
    "Municipio": "Juárez",
    "Direccion": "Hda. San Cristóbal, Hacienda Santa Lucía 1er. Sector, 67250 Ciudad Benito Juárez, NL, México",
    "lon": -100.1232529,
    "lat": 25.6560307,
    "id": "541a2cb5908e69c4ed7035e9"
  },
  {
    "Arbol_id": 33310,
    "Folio": 2647,
    "Usuario_id": "usuario845",
    "Fecha_plantado": "2014-06-18T00:00:00Z",
    "Especie": "Durazno",
    "Fecha_registro": "2014-06-18",
    "Municipio": "Juárez",
    "Direccion": "Hda. San Cristóbal, Hacienda Santa Lucía 1er. Sector, 67250 Ciudad Benito Juárez, NL, México",
    "lon": -100.1232529,
    "lat": 25.6560307,
    "id": "541a2cb5908e69c4ed7035ea"
  },
  {
    "Arbol_id": 33405,
    "Folio": 0,
    "Usuario_id": "usuario2273",
    "Fecha_plantado": "",
    "Especie": "Durazno",
    "Fecha_registro": "2014-06-18",
    "Municipio": "Guadalupe",
    "Direccion": "Diego Rodríguez y Velázquez 820, Contry La Silla 5o Sector, 67173 NL, México",
    "lon": -100.2640533,
    "lat": 25.6416702,
    "id": "541a2cb5908e69c4ed703649"
  },
  {
    "Arbol_id": 33550,
    "Folio": 2665,
    "Usuario_id": "usuario845",
    "Fecha_plantado": "2014-06-19T00:00:00Z",
    "Especie": "Durazno",
    "Fecha_registro": "2014-06-19",
    "Municipio": "Juárez",
    "Direccion": "Hda. San Jorge 521, Hacienda Santa Lucía 1er. Sector, 67250 Ciudad Benito Juárez, NL, México",
    "lon": -100.1230621,
    "lat": 25.6564407,
    "id": "541a2cb5908e69c4ed7036d7"
  },
  {
    "Arbol_id": 33553,
    "Folio": 2666,
    "Usuario_id": "usuario845",
    "Fecha_plantado": "2014-06-19T00:00:00Z",
    "Especie": "Durazno",
    "Fecha_registro": "2014-06-19",
    "Municipio": "Juárez",
    "Direccion": "Hda. San Jorge 509, Hacienda Santa Lucía 1er. Sector, 67250 Ciudad Benito Juárez, NL, México",
    "lon": -100.1233673,
    "lat": 25.6565895,
    "id": "541a2cb5908e69c4ed7036da"
  },
  {
    "Arbol_id": 33676,
    "Folio": 2683,
    "Usuario_id": "usuario845",
    "Fecha_plantado": "2014-06-19T00:00:00Z",
    "Especie": "Durazno",
    "Fecha_registro": "2014-06-19",
    "Municipio": "Juárez",
    "Direccion": "Hda. San Pedro 519, Hacienda Santa Lucía 1er. Sector, 67250 Ciudad Benito Juárez, NL, México",
    "lon": -100.1226273,
    "lat": 25.6571903,
    "id": "541a2cb5908e69c4ed703755"
  },
  {
    "Arbol_id": 33718,
    "Folio": 2696,
    "Usuario_id": "usuario845",
    "Fecha_plantado": "2014-06-19T00:00:00Z",
    "Especie": "Durazno",
    "Fecha_registro": "2014-06-19",
    "Municipio": "Juárez",
    "Direccion": "Hda. San Pedro 543, Hacienda Santa Lucía 1er. Sector, 67250 Ciudad Benito Juárez, NL, México",
    "lon": -100.1219788,
    "lat": 25.6568394,
    "id": "541a2cb5908e69c4ed70377f"
  },
  {
    "Arbol_id": 34301,
    "Folio": 2766,
    "Usuario_id": "usuario845",
    "Fecha_plantado": "2014-06-23T00:00:00Z",
    "Especie": "Durazno",
    "Fecha_registro": "2014-06-23",
    "Municipio": "Juárez",
    "Direccion": "Jacaranda, Quinta Las Sabinas, 67250 Ciudad Benito Juárez, NL, México",
    "lon": -100.1269531,
    "lat": 25.6609592,
    "id": "541a2cb5908e69c4ed7039c0"
  },
  {
    "Arbol_id": 34334,
    "Folio": 2774,
    "Usuario_id": "usuario845",
    "Fecha_plantado": "2014-06-23T00:00:00Z",
    "Especie": "Durazno",
    "Fecha_registro": "2014-06-23",
    "Municipio": "Juárez",
    "Direccion": "Jacaranda, Quinta Las Sabinas, 67250 Ciudad Benito Juárez, NL, México",
    "lon": -100.1269531,
    "lat": 25.6609592,
    "id": "541a2cb5908e69c4ed7039e1"
  },
  {
    "Arbol_id": 34406,
    "Folio": 2791,
    "Usuario_id": "usuario845",
    "Fecha_plantado": "2014-06-24T00:00:00Z",
    "Especie": "Durazno",
    "Fecha_registro": "2014-06-24",
    "Municipio": "Juárez",
    "Direccion": "Alamillo, Quinta Las Sabinas, 67250 Ciudad Benito Juárez, NL, México",
    "lon": -100.1272583,
    "lat": 25.6612396,
    "id": "541a2cb5908e69c4ed703a29"
  },
  {
    "Arbol_id": 34411,
    "Folio": 2792,
    "Usuario_id": "usuario845",
    "Fecha_plantado": "2014-06-24T00:00:00Z",
    "Especie": "Durazno",
    "Fecha_registro": "2014-06-24",
    "Municipio": "Juárez",
    "Direccion": "Alamillo, Quinta Las Sabinas, 67250 Ciudad Benito Juárez, NL, México",
    "lon": -100.1272583,
    "lat": 25.6612396,
    "id": "541a2cb5908e69c4ed703a2e"
  },
  {
    "Arbol_id": 34471,
    "Folio": 0,
    "Usuario_id": "usuario2273",
    "Fecha_plantado": "",
    "Especie": "Durazno",
    "Fecha_registro": "2014-06-24",
    "Municipio": "Guadalupe",
    "Direccion": "José Clemente Orozco 760, Contry La Silla 8o Sector, 67173 NL, México",
    "lon": -100.2657928,
    "lat": 25.6434994,
    "id": "541a2cb5908e69c4ed703a6a"
  },
  {
    "Arbol_id": 34914,
    "Folio": 2845,
    "Usuario_id": "usuario845",
    "Fecha_plantado": "2014-06-25T00:00:00Z",
    "Especie": "Durazno",
    "Fecha_registro": "2014-06-25",
    "Municipio": "Juárez",
    "Direccion": "Alamillo, Quinta Las Sabinas, 67250 Ciudad Benito Juárez, NL, México",
    "lon": -100.1272583,
    "lat": 25.6612396,
    "id": "541a2cb5908e69c4ed703c23"
  },
  {
    "Arbol_id": 35459,
    "Folio": 2870,
    "Usuario_id": "usuario845",
    "Fecha_plantado": "2014-06-26T00:00:00Z",
    "Especie": "Durazno",
    "Fecha_registro": "2014-06-26",
    "Municipio": "Juárez",
    "Direccion": "Paseo de las Bugambilias, Paseo del Prado, Ciudad Benito Juárez, NL, México",
    "lon": -100.1163101,
    "lat": 25.6502495,
    "id": "541a2cb5908e69c4ed703e41"
  },
  {
    "Arbol_id": 35926,
    "Folio": 0,
    "Usuario_id": "usuario2273",
    "Fecha_plantado": "",
    "Especie": "Durazno",
    "Fecha_registro": "2014-06-27",
    "Municipio": "Guadalupe",
    "Direccion": "Bellini 840, Contry La Silla 8o Sector, 67173 NL, México",
    "lon": -100.2633972,
    "lat": 25.6432304,
    "id": "541a2cb5908e69c4ed704010"
  },
  {
    "Arbol_id": 36566,
    "Folio": 0,
    "Usuario_id": "usuario2273",
    "Fecha_plantado": "",
    "Especie": "Durazno",
    "Fecha_registro": "2014-06-30",
    "Municipio": "Guadalupe",
    "Direccion": "Fillipo 2416, Contry La Silla 8o Sector, 67173 NL, México",
    "lon": "",
    "lat": "",
    "id": "541a2cb6908e69c4ed704285"
  },
  {
    "Arbol_id": 36869,
    "Folio": 0,
    "Usuario_id": "usuario2273",
    "Fecha_plantado": "",
    "Especie": "Durazno",
    "Fecha_registro": "2014-07-01",
    "Municipio": "Guadalupe",
    "Direccion": "Renacimiento 848, Contry La Silla 8o Sector, 67173 NL, México",
    "lon": -100.2628098,
    "lat": 25.6455708,
    "id": "541a2cb6908e69c4ed7043b4"
  },
  {
    "Arbol_id": 37282,
    "Folio": 2963,
    "Usuario_id": "usuario845",
    "Fecha_plantado": "2014-07-03T00:00:00Z",
    "Especie": "Durazno",
    "Fecha_registro": "2014-07-03",
    "Municipio": "Juárez",
    "Direccion": "Paseo de los Pinos, Paseo del Prado, Ciudad Benito Juárez, NL, México",
    "lon": -106.3935165,
    "lat": 31.6959991,
    "id": "541a2cb6908e69c4ed70454e"
  },
  {
    "Arbol_id": 37488,
    "Folio": 2995,
    "Usuario_id": "usuario845",
    "Fecha_plantado": "2014-07-03T00:00:00Z",
    "Especie": "Durazno",
    "Fecha_registro": "2014-07-03",
    "Municipio": "Juárez",
    "Direccion": "Paseo del Colibrí, Paseo del Prado, Ciudad Benito Juárez, NL, México",
    "lon": -100.1157074,
    "lat": 25.6516705,
    "id": "541a2cb6908e69c4ed70461c"
  },
  {
    "Arbol_id": 37828,
    "Folio": 3012,
    "Usuario_id": "usuario845",
    "Fecha_plantado": "2014-07-07T00:00:00Z",
    "Especie": "Durazno",
    "Fecha_registro": "2014-07-07",
    "Municipio": "Juárez",
    "Direccion": "Paseo de las Rosas, Paseo del Prado, Ciudad Benito Juárez, NL, México",
    "lon": -100.1163864,
    "lat": 25.6510792,
    "id": "541a2cb6908e69c4ed704770"
  },
  {
    "Arbol_id": 38268,
    "Folio": 0,
    "Usuario_id": "usuario2273",
    "Fecha_plantado": "",
    "Especie": "Durazno",
    "Fecha_registro": "2014-07-09",
    "Municipio": "Guadalupe",
    "Direccion": "Renacimiento 2606, Contry La Silla Sector Ampliación 8o Sector, 67173 NL, México",
    "lon": -100.2621918,
    "lat": 25.6453304,
    "id": "541a2cb6908e69c4ed704928"
  },
  {
    "Arbol_id": 38293,
    "Folio": 0,
    "Usuario_id": "usuario2273",
    "Fecha_plantado": "",
    "Especie": "Durazno",
    "Fecha_registro": "2014-07-09",
    "Municipio": "Guadalupe",
    "Direccion": "Michelena 1112, Contry La Silla Sector Ampliación 8o Sector, NL, México",
    "lon": "",
    "lat": "",
    "id": "541a2cb6908e69c4ed704941"
  },
  {
    "Arbol_id": 38319,
    "Folio": 0,
    "Usuario_id": "usuario2273",
    "Fecha_plantado": "",
    "Especie": "Durazno",
    "Fecha_registro": "2014-07-09",
    "Municipio": "Guadalupe",
    "Direccion": "Michelena 1106, Contry La Silla Sector Ampliación 8o Sector, 67173 NL, México",
    "lon": "",
    "lat": "",
    "id": "541a2cb6908e69c4ed70495b"
  },
  {
    "Arbol_id": 38387,
    "Folio": 0,
    "Usuario_id": "usuario2273",
    "Fecha_plantado": "",
    "Especie": "Durazno",
    "Fecha_registro": "2014-07-09",
    "Municipio": "Guadalupe",
    "Direccion": "Andrés Mantegna 2512, Contry La Silla Sector Ampliación 8o Sector, 67173 NL, México",
    "lon": "",
    "lat": "",
    "id": "541a2cb6908e69c4ed70499f"
  },
  {
    "Arbol_id": 38596,
    "Folio": 0,
    "Usuario_id": "usuario2273",
    "Fecha_plantado": "",
    "Especie": "Durazno",
    "Fecha_registro": "2014-07-10",
    "Municipio": "Guadalupe",
    "Direccion": "Pintores Mexicanos 2408, Contry La Silla 8o Sector, 67173 NL, México",
    "lon": -100.2668686,
    "lat": 25.6467705,
    "id": "541a2cb6908e69c4ed704a6d"
  },
  {
    "Arbol_id": 40278,
    "Folio": 3088,
    "Usuario_id": "usuario845",
    "Fecha_plantado": "2014-07-18T00:00:00Z",
    "Especie": "Durazno",
    "Fecha_registro": "2014-07-18",
    "Municipio": "Juárez",
    "Direccion": "Duraznos 134, Sin Nombre de Colonia 1, Ciudad Benito Juárez, NL, México",
    "lon": -86.8845367,
    "lat": 21.1318741,
    "id": "541a2cb7908e69c4ed7050f4"
  },
  {
    "Arbol_id": 40289,
    "Folio": 3097,
    "Usuario_id": "usuario845",
    "Fecha_plantado": "2014-07-18T00:00:00Z",
    "Especie": "Durazno",
    "Fecha_registro": "2014-07-18",
    "Municipio": "Juárez",
    "Direccion": "Duraznos 172, Sin Nombre de Colonia 1, Ciudad Benito Juárez, NL, México",
    "lon": -86.8845367,
    "lat": 21.1318741,
    "id": "541a2cb7908e69c4ed7050ff"
  },
  {
    "Arbol_id": 40290,
    "Folio": 3096,
    "Usuario_id": "usuario845",
    "Fecha_plantado": "2014-07-18T00:00:00Z",
    "Especie": "Durazno",
    "Fecha_registro": "2014-07-18",
    "Municipio": "Juárez",
    "Direccion": "Duraznos 166, Sin Nombre de Colonia 1, Ciudad Benito Juárez, NL, México",
    "lon": -86.8845367,
    "lat": 21.1318741,
    "id": "541a2cb7908e69c4ed705100"
  },
  {
    "Arbol_id": 40443,
    "Folio": 0,
    "Usuario_id": "usuario2273",
    "Fecha_plantado": "",
    "Especie": "Durazno",
    "Fecha_registro": "2014-07-18",
    "Municipio": "Guadalupe",
    "Direccion": "Andador 2200, Contry Sol, 67174 Guadalupe, NL, México",
    "lon": "",
    "lat": "",
    "id": "541a2cb7908e69c4ed705199"
  },
  {
    "Arbol_id": 40613,
    "Folio": 0,
    "Usuario_id": "usuario2273",
    "Fecha_plantado": "",
    "Especie": "Durazno",
    "Fecha_registro": "2014-07-21",
    "Municipio": "Guadalupe",
    "Direccion": "Andador 2275, Sin Nombre de Colonia 71, NL, México",
    "lon": "",
    "lat": "",
    "id": "541a2cb7908e69c4ed705241"
  },
  {
    "Arbol_id": 40615,
    "Folio": 0,
    "Usuario_id": "usuario2273",
    "Fecha_plantado": "",
    "Especie": "Durazno",
    "Fecha_registro": "2014-07-21",
    "Municipio": "Guadalupe",
    "Direccion": "Andador 2320, Sin Nombre de Colonia 71, NL, México",
    "lon": "",
    "lat": "",
    "id": "541a2cb7908e69c4ed705243"
  },
  {
    "Arbol_id": 40979,
    "Folio": 0,
    "Usuario_id": "usuario600",
    "Fecha_plantado": "2013-09-06T00:00:00Z",
    "Especie": "Durazno",
    "Fecha_registro": "2014-07-22",
    "Municipio": "Santa Catarina",
    "Direccion": "Calle Viñedo Español 277, Los Viñedos Sector 1, 66367 NL, México",
    "lon": "",
    "lat": "",
    "id": "541a2cb7908e69c4ed7053ad"
  },
  {
    "Arbol_id": 41160,
    "Folio": 0,
    "Usuario_id": "usuario2273",
    "Fecha_plantado": "",
    "Especie": "Durazno",
    "Fecha_registro": "2014-07-24",
    "Municipio": "Guadalupe",
    "Direccion": "Miguel Angel Asturias 2245, Sin Nombre de Colonia 71, NL, México",
    "lon": -99.1773682,
    "lat": 19.3373299,
    "id": "541a2cb7908e69c4ed705462"
  },
  {
    "Arbol_id": 41540,
    "Folio": 0,
    "Usuario_id": "usuario2273",
    "Fecha_plantado": "",
    "Especie": "Durazno",
    "Fecha_registro": "2014-07-25",
    "Municipio": "Guadalupe",
    "Direccion": "Leonardo Da Vinci 2030, Contry Las Águilas, 67174 NL, México",
    "lon": -100.2607269,
    "lat": 25.6516304,
    "id": "541a2cb7908e69c4ed7055d6"
  },
  {
    "Arbol_id": 42079,
    "Folio": 0,
    "Usuario_id": "usuario600",
    "Fecha_plantado": "",
    "Especie": "Durazno",
    "Fecha_registro": "2014-07-30",
    "Municipio": "Santa Catarina",
    "Direccion": "Lic. Luis Donaldo Colosio Murrieta, Adolfo López Mateos Infonavit, 66360 NL, México",
    "lon": -100.4514694,
    "lat": 25.6889706,
    "id": "541a2cb7908e69c4ed7057ee"
  },
  {
    "Arbol_id": 42176,
    "Folio": 0,
    "Usuario_id": "usuario2536",
    "Fecha_plantado": "",
    "Especie": "Durazno",
    "Fecha_registro": "2014-07-31",
    "Municipio": "Santa Catarina",
    "Direccion": "Bosques de Fresnos 503, Bosques del Poniente, 66362 NL, México",
    "lon": -100.4552612,
    "lat": 25.6773109,
    "id": "541a2cb7908e69c4ed70584f"
  },
  {
    "Arbol_id": 42178,
    "Folio": 0,
    "Usuario_id": "usuario2536",
    "Fecha_plantado": "",
    "Especie": "Durazno",
    "Fecha_registro": "2014-07-31",
    "Municipio": "Santa Catarina",
    "Direccion": "Bosques de Fresnos 503, Bosques del Poniente, 66362 NL, México",
    "lon": -100.4552612,
    "lat": 25.6773109,
    "id": "541a2cb7908e69c4ed705851"
  },
  {
    "Arbol_id": 42611,
    "Folio": 0,
    "Usuario_id": "usuario2273",
    "Fecha_plantado": "",
    "Especie": "Durazno",
    "Fecha_registro": "2014-08-05",
    "Municipio": "Guadalupe",
    "Direccion": "Ahuehuete 3623, Jardines de San Rafael, 67110 NL, México",
    "lon": -100.2159729,
    "lat": 25.6985092,
    "id": "541a2cb7908e69c4ed7059fd"
  },
  {
    "Arbol_id": 42612,
    "Folio": 0,
    "Usuario_id": "usuario2273",
    "Fecha_plantado": "",
    "Especie": "Durazno",
    "Fecha_registro": "2014-08-05",
    "Municipio": "Guadalupe",
    "Direccion": "Ahuehuete 3623, Jardines de San Rafael, 67110 NL, México",
    "lon": -100.2159729,
    "lat": 25.6985092,
    "id": "541a2cb7908e69c4ed7059fe"
  },
  {
    "Arbol_id": 42784,
    "Folio": 0,
    "Usuario_id": "usuario2536",
    "Fecha_plantado": "2014-08-06T00:00:00Z",
    "Especie": "Durazno",
    "Fecha_registro": "2014-08-06",
    "Municipio": "Santa Catarina",
    "Direccion": "Córdova 3118, Puerta de Las Mitras, 66367 NL, México",
    "lon": -100.4973221,
    "lat": 25.693779,
    "id": "541a2cb7908e69c4ed705aa9"
  },
  {
    "Arbol_id": 42785,
    "Folio": 0,
    "Usuario_id": "usuario2536",
    "Fecha_plantado": "2014-08-06T00:00:00Z",
    "Especie": "Durazno",
    "Fecha_registro": "2014-08-06",
    "Municipio": "Santa Catarina",
    "Direccion": "Córdova 3116, Puerta de Las Mitras, 66367 NL, México",
    "lon": -100.4972534,
    "lat": 25.6937714,
    "id": "541a2cb7908e69c4ed705aaa"
  },
  {
    "Arbol_id": 42786,
    "Folio": 0,
    "Usuario_id": "usuario2536",
    "Fecha_plantado": "2014-08-06T00:00:00Z",
    "Especie": "Durazno",
    "Fecha_registro": "2014-08-06",
    "Municipio": "Santa Catarina",
    "Direccion": "Córdova 3110, Puerta de Las Mitras, 66367 NL, México",
    "lon": -100.4970627,
    "lat": 25.6937466,
    "id": "541a2cb7908e69c4ed705aab"
  },
  {
    "Arbol_id": 42789,
    "Folio": 0,
    "Usuario_id": "usuario2536",
    "Fecha_plantado": "2014-08-06T00:00:00Z",
    "Especie": "Durazno",
    "Fecha_registro": "2014-08-06",
    "Municipio": "Santa Catarina",
    "Direccion": "Barcelona 1206, Puerta de Las Mitras, 66367 NL, México",
    "lon": -100.4980392,
    "lat": 25.6942997,
    "id": "541a2cb7908e69c4ed705aad"
  },
  {
    "Arbol_id": 42791,
    "Folio": 0,
    "Usuario_id": "usuario2536",
    "Fecha_plantado": "2014-08-06T00:00:00Z",
    "Especie": "Durazno",
    "Fecha_registro": "2014-08-06",
    "Municipio": "Santa Catarina",
    "Direccion": "La Coruña 3109, Puerta de Las Mitras, 66367 NL, México",
    "lon": -100.4971466,
    "lat": 25.6930809,
    "id": "541a2cb7908e69c4ed705aaf"
  },
  {
    "Arbol_id": 42792,
    "Folio": 0,
    "Usuario_id": "usuario2536",
    "Fecha_plantado": "2014-08-06T00:00:00Z",
    "Especie": "Durazno",
    "Fecha_registro": "2014-08-06",
    "Municipio": "Santa Catarina",
    "Direccion": "La Coruña 3130, Puerta de Las Mitras, 66367 NL, México",
    "lon": -100.4978104,
    "lat": 25.6931,
    "id": "541a2cb7908e69c4ed705ab0"
  },
  {
    "Arbol_id": 42795,
    "Folio": 0,
    "Usuario_id": "usuario2536",
    "Fecha_plantado": "2014-08-06T00:00:00Z",
    "Especie": "Durazno",
    "Fecha_registro": "2014-08-06",
    "Municipio": "Santa Catarina",
    "Direccion": "Madrid 3030, Puerta de Las Mitras, 66367 NL, México",
    "lon": -100.4968796,
    "lat": 25.6922092,
    "id": "541a2cb7908e69c4ed705ab3"
  },
  {
    "Arbol_id": 42799,
    "Folio": 0,
    "Usuario_id": "usuario2536",
    "Fecha_plantado": "2014-08-06T00:00:00Z",
    "Especie": "Durazno",
    "Fecha_registro": "2014-08-06",
    "Municipio": "Santa Catarina",
    "Direccion": "Zaragoza 3115, Puerta de Las Mitras, 66367 NL, México",
    "lon": -100.4970474,
    "lat": 25.6943607,
    "id": "541a2cb7908e69c4ed705ab6"
  },
  {
    "Arbol_id": 42801,
    "Folio": 0,
    "Usuario_id": "usuario2536",
    "Fecha_plantado": "2014-08-06T00:00:00Z",
    "Especie": "Durazno",
    "Fecha_registro": "2014-08-06",
    "Municipio": "Santa Catarina",
    "Direccion": "Barcelona 1114, Puerta de Las Mitras, 66367 NL, México",
    "lon": -100.4981232,
    "lat": 25.693821,
    "id": "541a2cb7908e69c4ed705ab8"
  },
  {
    "Arbol_id": 42803,
    "Folio": 0,
    "Usuario_id": "usuario2536",
    "Fecha_plantado": "2014-08-06T00:00:00Z",
    "Especie": "Durazno",
    "Fecha_registro": "2014-08-06",
    "Municipio": "Santa Catarina",
    "Direccion": "Barcelona 3138, Puerta de Las Mitras, 66367 NL, México",
    "lon": -100.4980774,
    "lat": 25.6942596,
    "id": "541a2cb7908e69c4ed705aba"
  },
  {
    "Arbol_id": 42806,
    "Folio": 0,
    "Usuario_id": "usuario2536",
    "Fecha_plantado": "2014-08-06T00:00:00Z",
    "Especie": "Durazno",
    "Fecha_registro": "2014-08-06",
    "Municipio": "Santa Catarina",
    "Direccion": "Barcelona 1218, Puerta de Las Mitras, 66367 NL, México",
    "lon": -100.4979477,
    "lat": 25.6947899,
    "id": "541a2cb7908e69c4ed705abd"
  },
  {
    "Arbol_id": 42809,
    "Folio": 0,
    "Usuario_id": "usuario2536",
    "Fecha_plantado": "2014-08-06T00:00:00Z",
    "Especie": "Durazno",
    "Fecha_registro": "2014-08-06",
    "Municipio": "Santa Catarina",
    "Direccion": "Sevilla 1211, Puerta de Las Mitras, 66367 NL, México",
    "lon": -100.4963608,
    "lat": 25.6957493,
    "id": "541a2cb7908e69c4ed705ac0"
  },
  {
    "Arbol_id": 42810,
    "Folio": 0,
    "Usuario_id": "usuario2536",
    "Fecha_plantado": "2014-08-06T00:00:00Z",
    "Especie": "Durazno",
    "Fecha_registro": "2014-08-06",
    "Municipio": "Santa Catarina",
    "Direccion": "Valladolid 3023, Puerta de Las Mitras, 66367 NL, México",
    "lon": -100.4958801,
    "lat": 25.6950703,
    "id": "541a2cb7908e69c4ed705ac1"
  },
  {
    "Arbol_id": 42811,
    "Folio": 0,
    "Usuario_id": "usuario2536",
    "Fecha_plantado": "2014-08-06T00:00:00Z",
    "Especie": "Durazno",
    "Fecha_registro": "2014-08-06",
    "Municipio": "Santa Catarina",
    "Direccion": "Sevilla 1207, Puerta de Las Mitras, 66367 NL, México",
    "lon": -100.4963608,
    "lat": 25.6957493,
    "id": "541a2cb7908e69c4ed705ac2"
  },
  {
    "Arbol_id": 42812,
    "Folio": 0,
    "Usuario_id": "usuario2536",
    "Fecha_plantado": "2014-08-06T00:00:00Z",
    "Especie": "Durazno",
    "Fecha_registro": "2014-08-06",
    "Municipio": "Santa Catarina",
    "Direccion": "Málaga 3137-3139, Puerta de Las Mitras, 66367 NL, México",
    "lon": -100.4973221,
    "lat": 25.6948299,
    "id": "541a2cb7908e69c4ed705ac3"
  },
  {
    "Arbol_id": 43068,
    "Folio": 0,
    "Usuario_id": "usuario600",
    "Fecha_plantado": "",
    "Especie": "Durazno",
    "Fecha_registro": "2014-08-08",
    "Municipio": "Santa Catarina",
    "Direccion": "Tepeguaje 820, Mirador de Las Mitras, 66359 NL, México",
    "lon": -100.5023804,
    "lat": 25.6844196,
    "id": "541a2cb7908e69c4ed705bc2"
  },
  {
    "Arbol_id": 43069,
    "Folio": 0,
    "Usuario_id": "usuario600",
    "Fecha_plantado": "",
    "Especie": "Durazno",
    "Fecha_registro": "2014-08-08",
    "Municipio": "Santa Catarina",
    "Direccion": "Tepeguaje 820, Mirador de Las Mitras, 66359 NL, México",
    "lon": -100.5023804,
    "lat": 25.6844196,
    "id": "541a2cb7908e69c4ed705bc3"
  },
  {
    "Arbol_id": 43222,
    "Folio": 3148,
    "Usuario_id": "usuario866",
    "Fecha_plantado": "2014-08-11T00:00:00Z",
    "Especie": "Durazno",
    "Fecha_registro": "2014-08-11",
    "Municipio": "Juárez",
    "Direccion": "Mezquital 236, Sin Nombre de Colonia 1, Ciudad Benito Juárez, NL, México",
    "lon": -86.8845367,
    "lat": 21.1318741,
    "id": "541a2cb7908e69c4ed705c5b"
  },
  {
    "Arbol_id": 43428,
    "Folio": 0,
    "Usuario_id": "usuario2093",
    "Fecha_plantado": "",
    "Especie": "Durazno",
    "Fecha_registro": "2014-08-12",
    "Municipio": "Santa Catarina",
    "Direccion": "Bosques de Fresnos 503, Bosques del Poniente, 66362 NL, México",
    "lon": -100.4552612,
    "lat": 25.6773109,
    "id": "541a2cb7908e69c4ed705d29"
  },
  {
    "Arbol_id": 43494,
    "Folio": 3238,
    "Usuario_id": "usuario866",
    "Fecha_plantado": "2014-08-12T00:00:00Z",
    "Especie": "Durazno",
    "Fecha_registro": "2014-08-12",
    "Municipio": "",
    "Direccion": "Canelos, Sin Nombre de Colonia 1, Juárez, Nuevo Leon, Mexico",
    "lon": -100.1093369,
    "lat": 25.6542797,
    "id": "541a2cb7908e69c4ed705d6a"
  },
  {
    "Arbol_id": 43697,
    "Folio": 3347,
    "Usuario_id": "usuario866",
    "Fecha_plantado": "2014-08-13T00:00:00Z",
    "Especie": "Durazno",
    "Fecha_registro": "2014-08-13",
    "Municipio": "Juárez",
    "Direccion": "Los Tuxtlas 605, Terranova Residencial, 67280 Nuevo Leon, Mexico",
    "lon": "",
    "lat": "",
    "id": "541a2cb8908e69c4ed705e32"
  },
  {
    "Arbol_id": 43786,
    "Folio": 3787,
    "Usuario_id": "usuario845",
    "Fecha_plantado": "2014-08-14T00:00:00Z",
    "Especie": "Durazno",
    "Fecha_registro": "2014-08-14",
    "Municipio": "Juárez",
    "Direccion": "Rubi, Punta Esmeralda, Ciudad Benito Juárez, NL, México",
    "lon": -100.1544037,
    "lat": 25.6428795,
    "id": "541a2cb8908e69c4ed705e88"
  },
  {
    "Arbol_id": 43937,
    "Folio": 3374,
    "Usuario_id": "usuario866",
    "Fecha_plantado": "2014-08-14T00:00:00Z",
    "Especie": "Durazno",
    "Fecha_registro": "2014-08-14",
    "Municipio": "Juárez",
    "Direccion": "Los Tuxtlas 605, Terranova Residencial, 67280 Nuevo Leon, Mexico",
    "lon": "",
    "lat": "",
    "id": "541a2cb8908e69c4ed705f1c"
  },
  {
    "Arbol_id": 43956,
    "Folio": 3376,
    "Usuario_id": "usuario866",
    "Fecha_plantado": "2014-08-15T00:00:00Z",
    "Especie": "Durazno",
    "Fecha_registro": "2014-08-15",
    "Municipio": "Juárez",
    "Direccion": "Los Tuxtlas 605, Terranova Residencial, 67280 Nuevo Leon, Mexico",
    "lon": "",
    "lat": "",
    "id": "541a2cb8908e69c4ed705f2f"
  },
  {
    "Arbol_id": 44423,
    "Folio": 0,
    "Usuario_id": "usuario2273",
    "Fecha_plantado": "",
    "Especie": "Durazno",
    "Fecha_registro": "2014-08-18",
    "Municipio": "Guadalupe",
    "Direccion": "Venus 1503, Nueva Linda Vista, 67110 NL, México",
    "lon": -100.2280426,
    "lat": 25.7074604,
    "id": "541a2cb8908e69c4ed7060fb"
  },
  {
    "Arbol_id": 44523,
    "Folio": 3391,
    "Usuario_id": "usuario866",
    "Fecha_plantado": "2014-08-18T00:00:00Z",
    "Especie": "Durazno",
    "Fecha_registro": "2014-08-18",
    "Municipio": "Juárez",
    "Direccion": "Los Tuxtlas 605, Terranova Residencial, 67280 Nuevo Leon, Mexico",
    "lon": "",
    "lat": "",
    "id": "541a2cb8908e69c4ed70615e"
  },
  {
    "Arbol_id": 44525,
    "Folio": 3394,
    "Usuario_id": "usuario866",
    "Fecha_plantado": "2014-08-18T00:00:00Z",
    "Especie": "Durazno",
    "Fecha_registro": "2014-08-18",
    "Municipio": "Juárez",
    "Direccion": "Los Tuxtlas 605, Terranova Residencial, 67280 Nuevo Leon, Mexico",
    "lon": "",
    "lat": "",
    "id": "541a2cb8908e69c4ed706160"
  },
  {
    "Arbol_id": 44787,
    "Folio": 4277,
    "Usuario_id": "usuario837",
    "Fecha_plantado": "2012-08-19T00:00:00Z",
    "Especie": "Durazno",
    "Fecha_registro": "2014-08-19",
    "Municipio": "Juárez",
    "Direccion": "Agata Nte. 126, Valle Sur, Ciudad Benito Juárez, NL, México",
    "lon": -100.1424408,
    "lat": 25.6511307,
    "id": "541a2cb8908e69c4ed706264"
  },
  {
    "Arbol_id": 44805,
    "Folio": 3415,
    "Usuario_id": "usuario866",
    "Fecha_plantado": "2014-08-19T00:00:00Z",
    "Especie": "Durazno",
    "Fecha_registro": "2014-08-19",
    "Municipio": "Juárez",
    "Direccion": "Los Tuxtlas 605, Terranova Residencial, 67280 Nuevo Leon, Mexico",
    "lon": "",
    "lat": "",
    "id": "541a2cb8908e69c4ed706276"
  },
  {
    "Arbol_id": 44808,
    "Folio": 3417,
    "Usuario_id": "usuario866",
    "Fecha_plantado": "2014-08-19T00:00:00Z",
    "Especie": "Durazno",
    "Fecha_registro": "2014-08-19",
    "Municipio": "Juárez",
    "Direccion": "Los Tuxtlas 605, Terranova Residencial, 67280 Nuevo Leon, Mexico",
    "lon": "",
    "lat": "",
    "id": "541a2cb8908e69c4ed706279"
  }
]