[
  {
    "Arbol_id": 376,
    "Folio": 0,
    "Usuario_id": "usuario1121",
    "Fecha_plantado": "",
    "Especie": "Encino Memelito",
    "Fecha_registro": "2013-06-02",
    "Municipio": "Monterrey",
    "Direccion": "Unnamed Road, Centro, 64000 Monterrey, NL, México",
    "lon": "",
    "lat": "",
    "id": "541a2cac908e69c4ed6fb84d"
  },
  {
    "Arbol_id": 651,
    "Folio": 0,
    "Usuario_id": "usuario2715",
    "Fecha_plantado": "",
    "Especie": "Encino Memelito",
    "Fecha_registro": "2013-06-20",
    "Municipio": "Monterrey",
    "Direccion": "Havre 3208, Valle Primavera, 64833 Monterrey, Nuevo Leon, Mexico",
    "lon": -100.28405,
    "lat": 25.6486702,
    "id": "541a2cac908e69c4ed6fb946"
  },
  {
    "Arbol_id": 896,
    "Folio": 0,
    "Usuario_id": "usuario2715",
    "Fecha_plantado": "",
    "Especie": "Encino Memelito",
    "Fecha_registro": "2013-06-21",
    "Municipio": "Monterrey",
    "Direccion": "Niza 3225, Valle Primavera, 64833 Monterrey, Nuevo Leon, Mexico",
    "lon": -100.2816162,
    "lat": 25.6486092,
    "id": "541a2cac908e69c4ed6fba22"
  },
  {
    "Arbol_id": 1073,
    "Folio": 0,
    "Usuario_id": "usuario2284",
    "Fecha_plantado": "",
    "Especie": "Encino Memelito",
    "Fecha_registro": "2013-06-23",
    "Municipio": "Monterrey",
    "Direccion": "Cruz Azul, Estadio, 64830 Monterrey, Nuevo León, Mexique",
    "lon": -100.2824707,
    "lat": 25.6534691,
    "id": "541a2cac908e69c4ed6fbad2"
  },
  {
    "Arbol_id": 1074,
    "Folio": 0,
    "Usuario_id": "usuario2284",
    "Fecha_plantado": "",
    "Especie": "Encino Memelito",
    "Fecha_registro": "2013-06-23",
    "Municipio": "Monterrey",
    "Direccion": "Jabatos, Estadio, 64830 Monterrey, Nuevo León, Mexique",
    "lon": -100.281868,
    "lat": 25.6529598,
    "id": "541a2cac908e69c4ed6fbad3"
  },
  {
    "Arbol_id": 1133,
    "Folio": 0,
    "Usuario_id": "usuario472",
    "Fecha_plantado": "",
    "Especie": "Encino Memelito",
    "Fecha_registro": "2013-07-04",
    "Municipio": "Monterrey",
    "Direccion": "Niza 3221, Jardines de Alta Vista, 64833 Monterrey, Nuevo Leon, Mexico",
    "lon": -100.2815399,
    "lat": 25.6487331,
    "id": "541a2cac908e69c4ed6fbb01"
  },
  {
    "Arbol_id": 1148,
    "Folio": 0,
    "Usuario_id": "usuario472",
    "Fecha_plantado": "",
    "Especie": "Encino Memelito",
    "Fecha_registro": "2013-07-04",
    "Municipio": "Monterrey",
    "Direccion": "Playa Hornos 3149, Narvarte, 64833 Monterrey, Nuevo Leon, Mexico",
    "lon": -100.2827301,
    "lat": 25.6491508,
    "id": "541a2cac908e69c4ed6fbb0b"
  },
  {
    "Arbol_id": 1286,
    "Folio": 0,
    "Usuario_id": "usuario2715",
    "Fecha_plantado": "",
    "Especie": "Encino Memelito",
    "Fecha_registro": "2013-07-06",
    "Municipio": "Monterrey",
    "Direccion": "Havre 3208, Valle Primavera, 64833 Monterrey, Nuevo Leon, Mexico",
    "lon": -100.28405,
    "lat": 25.6486702,
    "id": "541a2cac908e69c4ed6fbb7f"
  },
  {
    "Arbol_id": 1321,
    "Folio": 0,
    "Usuario_id": "usuario2284",
    "Fecha_plantado": "",
    "Especie": "Encino Memelito",
    "Fecha_registro": "2013-07-07",
    "Municipio": "Monterrey",
    "Direccion": "Cruz Azul, Estadio, 64830 Monterrey, Nuevo León, Mexique",
    "lon": -100.2824707,
    "lat": 25.6534691,
    "id": "541a2cac908e69c4ed6fbb99"
  },
  {
    "Arbol_id": 1358,
    "Folio": 0,
    "Usuario_id": "usuario2284",
    "Fecha_plantado": "",
    "Especie": "Encino Memelito",
    "Fecha_registro": "2013-07-07",
    "Municipio": "Monterrey",
    "Direccion": "Atlante 3004, Estadio, 64830 Monterrey, Nuevo León, Mexique",
    "lon": -100.2838516,
    "lat": 25.6539307,
    "id": "541a2cac908e69c4ed6fbbba"
  },
  {
    "Arbol_id": 1418,
    "Folio": 0,
    "Usuario_id": "usuario2284",
    "Fecha_plantado": "",
    "Especie": "Encino Memelito",
    "Fecha_registro": "2013-07-07",
    "Municipio": "Monterrey",
    "Direccion": "Cruz Azul, Estadio, 64830 Monterrey, Nuevo León, Mexique",
    "lon": -100.2824707,
    "lat": 25.6534691,
    "id": "541a2cac908e69c4ed6fbbe3"
  },
  {
    "Arbol_id": 1420,
    "Folio": 0,
    "Usuario_id": "usuario2284",
    "Fecha_plantado": "",
    "Especie": "Encino Memelito",
    "Fecha_registro": "2013-07-07",
    "Municipio": "Monterrey",
    "Direccion": "Cruz Azul, Estadio, 64830 Monterrey, Nuevo León, Mexique",
    "lon": -100.2824707,
    "lat": 25.6534691,
    "id": "541a2cac908e69c4ed6fbbe5"
  },
  {
    "Arbol_id": 1426,
    "Folio": 0,
    "Usuario_id": "usuario1799",
    "Fecha_plantado": "",
    "Especie": "Encino Memelito",
    "Fecha_registro": "2013-07-07",
    "Municipio": "Monterrey",
    "Direccion": "Atlante 3004, Estadio, 64830 Monterrey, Nuevo Leon, Mexico",
    "lon": -100.2838516,
    "lat": 25.6539307,
    "id": "541a2cac908e69c4ed6fbbea"
  },
  {
    "Arbol_id": 1508,
    "Folio": 0,
    "Usuario_id": "usuario153",
    "Fecha_plantado": "",
    "Especie": "Encino Memelito",
    "Fecha_registro": "2013-07-11",
    "Municipio": "Monterrey",
    "Direccion": "Camino Al Panteon 7128, Lomas Mederos, 64978 Monterrey, NL, México",
    "lon": -100.2661819,
    "lat": 25.5923004,
    "id": "541a2cac908e69c4ed6fbc2b"
  },
  {
    "Arbol_id": 1806,
    "Folio": 0,
    "Usuario_id": "usuario1850",
    "Fecha_plantado": "",
    "Especie": "Encino Memelito",
    "Fecha_registro": "2013-09-08",
    "Municipio": "San Pedro Garza García",
    "Direccion": "Calzada del Valle Alberto Santos 510, Del Valle, 66220 NL, México",
    "lon": -100.3816376,
    "lat": 25.6601887,
    "id": "541a2cac908e69c4ed6fbd29"
  },
  {
    "Arbol_id": 1909,
    "Folio": 0,
    "Usuario_id": "usuario1850",
    "Fecha_plantado": "",
    "Especie": "Encino Memelito",
    "Fecha_registro": "2013-09-23",
    "Municipio": "San Pedro",
    "Direccion": "Calzada del Valle Alberto Santos 510, Del Valle, 66220 Monterrey, NL, México",
    "lon": -100.3816376,
    "lat": 25.6601887,
    "id": "541a2cac908e69c4ed6fbd7f"
  },
  {
    "Arbol_id": 1943,
    "Folio": 0,
    "Usuario_id": "usuario1648",
    "Fecha_plantado": "",
    "Especie": "Encino Memelito",
    "Fecha_registro": "2013-09-24",
    "Municipio": "Monterrey",
    "Direccion": "64849 Monterrey, NL, México",
    "lon": "",
    "lat": "",
    "id": "541a2cac908e69c4ed6fbd9e"
  },
  {
    "Arbol_id": 2318,
    "Folio": 198,
    "Usuario_id": "usuario1822",
    "Fecha_plantado": "",
    "Especie": "Encino Memelito",
    "Fecha_registro": "2013-10-13",
    "Municipio": "Monterrey",
    "Direccion": "Carretera Federal 85, Valle del Márquez, Monterrey, NL, México",
    "lon": -100.2921295,
    "lat": 25.6256905,
    "id": "541a2cac908e69c4ed6fbeee"
  },
  {
    "Arbol_id": 2349,
    "Folio": 0,
    "Usuario_id": "usuario1846",
    "Fecha_plantado": "",
    "Especie": "Encino Memelito",
    "Fecha_registro": "2013-10-16",
    "Municipio": "San Pedro",
    "Direccion": "Santa Paulina, Valle del Seminario 1er Sector, 66218 NL, México",
    "lon": -100.4017029,
    "lat": 25.6738491,
    "id": "541a2cac908e69c4ed6fbf0d"
  },
  {
    "Arbol_id": 2353,
    "Folio": 0,
    "Usuario_id": "usuario1846",
    "Fecha_plantado": "",
    "Especie": "Encino Memelito",
    "Fecha_registro": "2013-10-16",
    "Municipio": "San Pedro",
    "Direccion": "San Juan 306, Valle del Seminario 1er Sector, 66218 NL, México",
    "lon": -100.4019165,
    "lat": 25.6736507,
    "id": "541a2cac908e69c4ed6fbf11"
  },
  {
    "Arbol_id": 3131,
    "Folio": 117,
    "Usuario_id": "usuario1922",
    "Fecha_plantado": "",
    "Especie": "Encino Memelito",
    "Fecha_registro": "2013-11-20",
    "Municipio": "Monterrey",
    "Direccion": "Acacias, Valle Alto, 64989 Monterrey, NL, México",
    "lon": -100.2571335,
    "lat": 25.5835991,
    "id": "541a2cac908e69c4ed6fc1e4"
  },
  {
    "Arbol_id": 3539,
    "Folio": 0,
    "Usuario_id": "usuario1757",
    "Fecha_plantado": "",
    "Especie": "Encino Memelito",
    "Fecha_registro": "2013-12-05",
    "Municipio": "Monterrey",
    "Direccion": "Ignacio López Rayon 510A, Centro, 64000 Monterrey, NL, México",
    "lon": -100.3197403,
    "lat": 25.680439,
    "id": "541a2cac908e69c4ed6fc375"
  },
  {
    "Arbol_id": 8587,
    "Folio": 0,
    "Usuario_id": "usuario1202",
    "Fecha_plantado": "",
    "Especie": "Encino Memelito",
    "Fecha_registro": "2014-02-19",
    "Municipio": "Apodaca",
    "Direccion": "R",
    "lon": 12.047419548034668,
    "lat": 49.136940002441406,
    "id": "541a2cae908e69c4ed6fd6d0"
  },
  {
    "Arbol_id": 8845,
    "Folio": 0,
    "Usuario_id": "usuario2905",
    "Fecha_plantado": "",
    "Especie": "Encino Memelito",
    "Fecha_registro": "2014-02-21",
    "Municipio": "San Pedro",
    "Direccion": "Hermenegildo Galeana 260, Casco Urbano, 66230 NL, México",
    "lon": -99.2133865,
    "lat": 19.4760609,
    "id": "541a2cae908e69c4ed6fd7ce"
  },
  {
    "Arbol_id": 10415,
    "Folio": 0,
    "Usuario_id": "usuario307",
    "Fecha_plantado": "",
    "Especie": "Encino Memelito",
    "Fecha_registro": "2014-03-02",
    "Municipio": "San Nicolás",
    "Direccion": "Avenida las Puentes, Jardines de Las Puentes, Chandra's Test City [don't deny], Nuevo Leon, Mexico",
    "lon": -100.2764893,
    "lat": 25.7420406,
    "id": "541a2cae908e69c4ed6fddcd"
  },
  {
    "Arbol_id": 18541,
    "Folio": 0,
    "Usuario_id": "usuario307",
    "Fecha_plantado": "",
    "Especie": "Encino Memelito",
    "Fecha_registro": "2014-04-11",
    "Municipio": "San Nicolás",
    "Direccion": "Tenochtitlan 245-247, Residencial Anáhuac 1er Sector, 66457 Nuevo Leon, Mexico",
    "lon": -100.3157578,
    "lat": 25.7446842,
    "id": "541a2cb1908e69c4ed6ffcd3"
  },
  {
    "Arbol_id": 18570,
    "Folio": 0,
    "Usuario_id": "usuario307",
    "Fecha_plantado": "",
    "Especie": "Encino Memelito",
    "Fecha_registro": "2014-04-12",
    "Municipio": "San Nicolás",
    "Direccion": "Manuel L. Barragán 235, Anáhuac, Monterrey, NL, México",
    "lon": -100.3209,
    "lat": 25.6933994,
    "id": "541a2cb1908e69c4ed6ffce4"
  },
  {
    "Arbol_id": 19004,
    "Folio": 99,
    "Usuario_id": "usuario2329",
    "Fecha_plantado": "",
    "Especie": "Encino Memelito",
    "Fecha_registro": "2014-04-17",
    "Municipio": "Guadalupe",
    "Direccion": "Loma Grande 2301, Sin Nombre de Colonia 32, Monterrey, Nuevo Leon, Mexico",
    "lon": "",
    "lat": "",
    "id": "541a2cb1908e69c4ed6ffe88"
  },
  {
    "Arbol_id": 19102,
    "Folio": 0,
    "Usuario_id": "usuario1708",
    "Fecha_plantado": "",
    "Especie": "Encino Memelito",
    "Fecha_registro": "2014-04-20",
    "Municipio": "Monterrey",
    "Direccion": "Casiopea, Contry, 64860 Monterrey, Nuevo Leon, Mexico",
    "lon": -100.2806396,
    "lat": 25.6375198,
    "id": "541a2cb1908e69c4ed6ffee6"
  },
  {
    "Arbol_id": 19127,
    "Folio": 109,
    "Usuario_id": "usuario2329",
    "Fecha_plantado": "",
    "Especie": "Encino Memelito",
    "Fecha_registro": "2014-04-20",
    "Municipio": "Monterrey",
    "Direccion": "Calle Paseo del Agua, Cortijo del Río, 64890 Monterrey, Nuevo Leon, Mexico",
    "lon": -100.2644424,
    "lat": 25.6083908,
    "id": "541a2cb1908e69c4ed6ffefc"
  },
  {
    "Arbol_id": 19132,
    "Folio": 110,
    "Usuario_id": "usuario2329",
    "Fecha_plantado": "",
    "Especie": "Encino Memelito",
    "Fecha_registro": "2014-04-20",
    "Municipio": "Monterrey",
    "Direccion": "Calle Paseo del Agua, Cortijo del Río, 64890 Monterrey, Nuevo Leon, Mexico",
    "lon": -100.2644424,
    "lat": 25.6083908,
    "id": "541a2cb1908e69c4ed6fff01"
  },
  {
    "Arbol_id": 19176,
    "Folio": 0,
    "Usuario_id": "usuario2835",
    "Fecha_plantado": "",
    "Especie": "Encino Memelito",
    "Fecha_registro": "2014-04-20",
    "Municipio": "Monterrey",
    "Direccion": "Camino de Los Sabinos 4501, Cortijo del Río, 64890 Monterrey, NL, México",
    "lon": -100.2689438,
    "lat": 25.6182728,
    "id": "541a2cb1908e69c4ed6fff2d"
  },
  {
    "Arbol_id": 19284,
    "Folio": 0,
    "Usuario_id": "usuario616",
    "Fecha_plantado": "",
    "Especie": "Encino Memelito",
    "Fecha_registro": "2014-04-21",
    "Municipio": "Monterrey",
    "Direccion": "Parque Rio La Silla, Lagos del Bosque, 64890 Monterrey, Nuevo Leon, Mexico",
    "lon": -100.2705383,
    "lat": 25.6410007,
    "id": "541a2cb1908e69c4ed6fff99"
  },
  {
    "Arbol_id": 19285,
    "Folio": 0,
    "Usuario_id": "usuario616",
    "Fecha_plantado": "",
    "Especie": "Encino Memelito",
    "Fecha_registro": "2014-04-21",
    "Municipio": "Monterrey",
    "Direccion": "Parque Rio La Silla, Lagos del Bosque, 64890 Monterrey, Nuevo Leon, Mexico",
    "lon": -100.2705383,
    "lat": 25.6410007,
    "id": "541a2cb1908e69c4ed6fff9a"
  },
  {
    "Arbol_id": 19289,
    "Folio": 0,
    "Usuario_id": "usuario616",
    "Fecha_plantado": "",
    "Especie": "Encino Memelito",
    "Fecha_registro": "2014-04-22",
    "Municipio": "Monterrey",
    "Direccion": "Parque Rio La Silla, Lagos del Bosque, 64890 Monterrey, Nuevo Leon, Mexico",
    "lon": -100.2705383,
    "lat": 25.6410007,
    "id": "541a2cb1908e69c4ed6fff9e"
  },
  {
    "Arbol_id": 20712,
    "Folio": 1023,
    "Usuario_id": "usuario2358",
    "Fecha_plantado": "",
    "Especie": "Encino Memelito",
    "Fecha_registro": "2014-04-29",
    "Municipio": "San Pedro",
    "Direccion": "Río Tigris 425, Del Valle Sector Fátima, NL, México",
    "lon": -100.3711014,
    "lat": 25.6500492,
    "id": "541a2cb1908e69c4ed700523"
  },
  {
    "Arbol_id": 20713,
    "Folio": 1024,
    "Usuario_id": "usuario2358",
    "Fecha_plantado": "",
    "Especie": "Encino Memelito",
    "Fecha_registro": "2014-04-29",
    "Municipio": "San Pedro",
    "Direccion": "Río Tigris 175, Del Valle Sector Fátima, NL, México",
    "lon": -100.3710938,
    "lat": 25.6499195,
    "id": "541a2cb1908e69c4ed700524"
  },
  {
    "Arbol_id": 20736,
    "Folio": 1033,
    "Usuario_id": "usuario2358",
    "Fecha_plantado": "",
    "Especie": "Encino Memelito",
    "Fecha_registro": "2014-04-29",
    "Municipio": "San Pedro",
    "Direccion": "Río Tigris 175, Del Valle Sector Fátima, NL, México",
    "lon": -100.3710938,
    "lat": 25.6499195,
    "id": "541a2cb1908e69c4ed70053b"
  },
  {
    "Arbol_id": 20739,
    "Folio": 1034,
    "Usuario_id": "usuario2358",
    "Fecha_plantado": "",
    "Especie": "Encino Memelito",
    "Fecha_registro": "2014-04-29",
    "Municipio": "San Pedro",
    "Direccion": "Río Tigris 175, Del Valle Sector Fátima, NL, México",
    "lon": -100.3710938,
    "lat": 25.6499195,
    "id": "541a2cb1908e69c4ed70053e"
  },
  {
    "Arbol_id": 20824,
    "Folio": 1060,
    "Usuario_id": "usuario2358",
    "Fecha_plantado": "",
    "Especie": "Encino Memelito",
    "Fecha_registro": "2014-04-29",
    "Municipio": "San Pedro",
    "Direccion": "Río Tiber 100, Del Valle, 66220 Monterrey, NL, México",
    "lon": -100.2982941,
    "lat": 25.6531563,
    "id": "541a2cb1908e69c4ed700593"
  },
  {
    "Arbol_id": 20825,
    "Folio": 1061,
    "Usuario_id": "usuario2358",
    "Fecha_plantado": "",
    "Especie": "Encino Memelito",
    "Fecha_registro": "2014-04-29",
    "Municipio": "San Pedro",
    "Direccion": "Río Tiber 100, Del Valle, 66220 Monterrey, NL, México",
    "lon": -100.2982941,
    "lat": 25.6531563,
    "id": "541a2cb1908e69c4ed700594"
  },
  {
    "Arbol_id": 20827,
    "Folio": 1062,
    "Usuario_id": "usuario2358",
    "Fecha_plantado": "",
    "Especie": "Encino Memelito",
    "Fecha_registro": "2014-04-29",
    "Municipio": "San Pedro",
    "Direccion": "Río Tiber 100, Del Valle, 66220 Monterrey, NL, México",
    "lon": -100.2982941,
    "lat": 25.6531563,
    "id": "541a2cb1908e69c4ed700596"
  },
  {
    "Arbol_id": 20829,
    "Folio": 1063,
    "Usuario_id": "usuario2358",
    "Fecha_plantado": "",
    "Especie": "Encino Memelito",
    "Fecha_registro": "2014-04-29",
    "Municipio": "San Pedro",
    "Direccion": "Río Tiber 100, Del Valle, 66220 Monterrey, NL, México",
    "lon": -100.2982941,
    "lat": 25.6531563,
    "id": "541a2cb1908e69c4ed700598"
  },
  {
    "Arbol_id": 20831,
    "Folio": 1064,
    "Usuario_id": "usuario2358",
    "Fecha_plantado": "",
    "Especie": "Encino Memelito",
    "Fecha_registro": "2014-04-29",
    "Municipio": "San Pedro",
    "Direccion": "Río Tiber 100, Del Valle, 66220 Monterrey, NL, México",
    "lon": -100.2982941,
    "lat": 25.6531563,
    "id": "541a2cb1908e69c4ed70059a"
  },
  {
    "Arbol_id": 20834,
    "Folio": 1065,
    "Usuario_id": "usuario2358",
    "Fecha_plantado": "",
    "Especie": "Encino Memelito",
    "Fecha_registro": "2014-04-29",
    "Municipio": "San Pedro",
    "Direccion": "Río Tiber 100, Del Valle, 66220 Monterrey, NL, México",
    "lon": -100.2982941,
    "lat": 25.6531563,
    "id": "541a2cb1908e69c4ed70059d"
  },
  {
    "Arbol_id": 20837,
    "Folio": 1066,
    "Usuario_id": "usuario2358",
    "Fecha_plantado": "",
    "Especie": "Encino Memelito",
    "Fecha_registro": "2014-04-29",
    "Municipio": "San Pedro",
    "Direccion": "Río Tiber 100, Del Valle, 66220 Monterrey, NL, México",
    "lon": -100.2982941,
    "lat": 25.6531563,
    "id": "541a2cb1908e69c4ed7005a0"
  },
  {
    "Arbol_id": 21431,
    "Folio": 0,
    "Usuario_id": "usuario2498",
    "Fecha_plantado": "",
    "Especie": "Encino Memelito",
    "Fecha_registro": "2014-05-02",
    "Municipio": "San Nicolás",
    "Direccion": "Avenida República Mexicana, Miraflores, 66410 NL, México",
    "lon": -100.2905426,
    "lat": 25.7258606,
    "id": "541a2cb1908e69c4ed7007f0"
  },
  {
    "Arbol_id": 24324,
    "Folio": 0,
    "Usuario_id": "usuario767",
    "Fecha_plantado": "",
    "Especie": "Encino Memelito",
    "Fecha_registro": "2014-05-15",
    "Municipio": "Monterrey",
    "Direccion": "Caracas 124, Alta Vista, 64840 Monterrey, NL, México",
    "lon": -100.28759,
    "lat": 25.6486607,
    "id": "541a2cb2908e69c4ed70132d"
  },
  {
    "Arbol_id": 25913,
    "Folio": 0,
    "Usuario_id": "usuario1154",
    "Fecha_plantado": "",
    "Especie": "Encino Memelito",
    "Fecha_registro": "2014-05-21",
    "Municipio": "Monterrey",
    "Direccion": "Paseo San Gabriel, Sin Nombre de Colonia 63, Monterrey, NL, México",
    "lon": -100.2545395,
    "lat": 25.5781803,
    "id": "541a2cb3908e69c4ed701950"
  },
  {
    "Arbol_id": 26398,
    "Folio": 0,
    "Usuario_id": "usuario1154",
    "Fecha_plantado": "",
    "Especie": "Encino Memelito",
    "Fecha_registro": "2014-05-22",
    "Municipio": "Monterrey",
    "Direccion": "Paseo San Gabriel, Sin Nombre de Colonia 63, Monterrey, NL, México",
    "lon": -100.2545395,
    "lat": 25.5781803,
    "id": "541a2cb3908e69c4ed701b31"
  },
  {
    "Arbol_id": 26699,
    "Folio": 0,
    "Usuario_id": "usuario2224",
    "Fecha_plantado": "",
    "Especie": "Encino Memelito",
    "Fecha_registro": "2014-05-25",
    "Municipio": "Monterrey",
    "Direccion": "Paseo San Gabriel, Sin Nombre de Colonia 63, Monterrey, NL, México",
    "lon": -100.2545395,
    "lat": 25.5781803,
    "id": "541a2cb3908e69c4ed701c3c"
  },
  {
    "Arbol_id": 27074,
    "Folio": 0,
    "Usuario_id": "usuario2387",
    "Fecha_plantado": "",
    "Especie": "Encino Memelito",
    "Fecha_registro": "2014-05-27",
    "Municipio": "San Pedro",
    "Direccion": "Prolongación Alfonso Reyes, Universidad de Monterrey, Zona Valle Poniente, Monterrey, Nuevo Leon, Me",
    "lon": "",
    "lat": "",
    "id": "541a2cb3908e69c4ed701dad"
  },
  {
    "Arbol_id": 27605,
    "Folio": 0,
    "Usuario_id": "usuario2923",
    "Fecha_plantado": "2014-05-09T00:00:00Z",
    "Especie": "Encino Memelito",
    "Fecha_registro": "2014-05-28",
    "Municipio": "Apodaca",
    "Direccion": "Calle Atenas 548, Valle de Apodaca II, 66612 NL, México",
    "lon": -100.2580261,
    "lat": 25.795351,
    "id": "541a2cb3908e69c4ed701fb9"
  },
  {
    "Arbol_id": 28609,
    "Folio": 1361,
    "Usuario_id": "usuario1541",
    "Fecha_plantado": "",
    "Especie": "Encino Memelito",
    "Fecha_registro": "2014-05-29",
    "Municipio": "San Pedro",
    "Direccion": "Del Rosario 533, Hacienda El Rosario, 66247 NL, México",
    "lon": -100.389679,
    "lat": 25.6471081,
    "id": "541a2cb3908e69c4ed7023a0"
  },
  {
    "Arbol_id": 29197,
    "Folio": 0,
    "Usuario_id": "usuario2224",
    "Fecha_plantado": "",
    "Especie": "Encino Memelito",
    "Fecha_registro": "2014-05-31",
    "Municipio": "Monterrey",
    "Direccion": "Paseo San Gabriel, Sin Nombre de Colonia 63, Monterrey, NL, México",
    "lon": -100.2545395,
    "lat": 25.5781803,
    "id": "541a2cb4908e69c4ed7025ec"
  },
  {
    "Arbol_id": 30530,
    "Folio": 0,
    "Usuario_id": "usuario2536",
    "Fecha_plantado": "",
    "Especie": "Encino Memelito",
    "Fecha_registro": "2014-06-04",
    "Municipio": "Santa Catarina",
    "Direccion": "Hacienda San Carlos, NL, México",
    "lon": -100.5076294,
    "lat": 25.7042007,
    "id": "541a2cb4908e69c4ed702b19"
  },
  {
    "Arbol_id": 34744,
    "Folio": 1377,
    "Usuario_id": "usuario1541",
    "Fecha_plantado": "",
    "Especie": "Encino Memelito",
    "Fecha_registro": "2014-06-24",
    "Municipio": "San Pedro",
    "Direccion": "Del Rosario 400, Hacienda El Rosario, 66247 NL, México",
    "lon": -100.3895874,
    "lat": 25.6482697,
    "id": "541a2cb5908e69c4ed703b79"
  },
  {
    "Arbol_id": 36204,
    "Folio": 1407,
    "Usuario_id": "usuario1541",
    "Fecha_plantado": "",
    "Especie": "Encino Memelito",
    "Fecha_registro": "2014-06-29",
    "Municipio": "San Pedro",
    "Direccion": "Del Rosario 510, Hacienda El Rosario, 66247 NL, México",
    "lon": -100.3903427,
    "lat": 25.6474094,
    "id": "541a2cb5908e69c4ed704122"
  },
  {
    "Arbol_id": 36635,
    "Folio": 1414,
    "Usuario_id": "usuario1541",
    "Fecha_plantado": "",
    "Especie": "Encino Memelito",
    "Fecha_registro": "2014-06-30",
    "Municipio": "San Pedro",
    "Direccion": "Del Rosario 601, Hacienda El Rosario, 66247 NL, México",
    "lon": -100.3896027,
    "lat": 25.6468601,
    "id": "541a2cb6908e69c4ed7042ca"
  },
  {
    "Arbol_id": 36661,
    "Folio": 1420,
    "Usuario_id": "usuario1541",
    "Fecha_plantado": "",
    "Especie": "Encino Memelito",
    "Fecha_registro": "2014-06-30",
    "Municipio": "San Pedro",
    "Direccion": "Del Rosario, Hacienda El Rosario, 66247 NL, México",
    "lon": -100.3886185,
    "lat": 25.6484909,
    "id": "541a2cb6908e69c4ed7042e4"
  },
  {
    "Arbol_id": 36702,
    "Folio": 1426,
    "Usuario_id": "usuario1541",
    "Fecha_plantado": "",
    "Especie": "Encino Memelito",
    "Fecha_registro": "2014-06-30",
    "Municipio": "San Pedro",
    "Direccion": "Del Rosario 601, Hacienda El Rosario, 66247 NL, México",
    "lon": -100.3896027,
    "lat": 25.6468601,
    "id": "541a2cb6908e69c4ed70430d"
  },
  {
    "Arbol_id": 44574,
    "Folio": 0,
    "Usuario_id": "usuario2536",
    "Fecha_plantado": "",
    "Especie": "Encino Memelito",
    "Fecha_registro": "2014-08-18",
    "Municipio": "Santa Catarina",
    "Direccion": "Bosques de Cedros 534, Bosques del Poniente, 66362 NL, México",
    "lon": -100.4540405,
    "lat": 25.6767902,
    "id": "541a2cb8908e69c4ed706191"
  },
  {
    "Arbol_id": 44593,
    "Folio": 0,
    "Usuario_id": "usuario2536",
    "Fecha_plantado": "",
    "Especie": "Encino Memelito",
    "Fecha_registro": "2014-08-18",
    "Municipio": "Santa Catarina",
    "Direccion": "Bosques de Olivo 533, Bosques del Poniente, 66362 NL, México",
    "lon": -100.4548187,
    "lat": 25.67799,
    "id": "541a2cb8908e69c4ed7061a4"
  }
]