[
  {
    "Arbol_id": 40,
    "Folio": 0,
    "Usuario_id": "usuario798",
    "Fecha_plantado": "2012-11-18T00:00:00Z",
    "Especie": "Encino Roble",
    "Fecha_registro": "2013-08-01",
    "Municipio": "Monterrey",
    "Direccion": "Camino Real 9627-C\"MUEBLERIALASUBASTA DIF (Fomerrey 15) 64210 Monterrey 64210 Monterrey NL México\"",
    "lon": -100.3655701,
    "lat": 25.7663307,
    "id": "541a2cab908e69c4ed6fb730"
  },
  {
    "Arbol_id": 97,
    "Folio": 20,
    "Usuario_id": "usuario1822",
    "Fecha_plantado": "",
    "Especie": "Encino Roble",
    "Fecha_registro": "2013-07-21",
    "Municipio": "Monterrey",
    "Direccion": "Plutarco Elías Calles SN-C OXXO, Privadas de Anáhuac, 67195 General Escobedo, NL, México",
    "lon": -100.2884521,
    "lat": 25.7974606,
    "id": "541a2cab908e69c4ed6fb754"
  },
  {
    "Arbol_id": 177,
    "Folio": 0,
    "Usuario_id": "usuario1388",
    "Fecha_plantado": "",
    "Especie": "Encino Roble",
    "Fecha_registro": "2013-05-21",
    "Municipio": "Monterrey",
    "Direccion": "Ambar, Los Naranjos 1er Sector (Fomerrey 119), 66448 NL, México",
    "lon": -100.2481995,
    "lat": 25.7462692,
    "id": "541a2cab908e69c4ed6fb78a"
  },
  {
    "Arbol_id": 178,
    "Folio": 0,
    "Usuario_id": "usuario1388",
    "Fecha_plantado": "",
    "Especie": "Encino Roble",
    "Fecha_registro": "2013-05-21",
    "Municipio": "Monterrey",
    "Direccion": "Ambar, Los Naranjos 1er Sector (Fomerrey 119), 66448 NL, México",
    "lon": -100.2481995,
    "lat": 25.7462692,
    "id": "541a2cab908e69c4ed6fb78b"
  },
  {
    "Arbol_id": 179,
    "Folio": 0,
    "Usuario_id": "usuario1388",
    "Fecha_plantado": "",
    "Especie": "Encino Roble",
    "Fecha_registro": "2013-05-21",
    "Municipio": "Monterrey",
    "Direccion": "Ambar, Los Naranjos 1er Sector (Fomerrey 119), 66448 NL, México",
    "lon": -100.2481995,
    "lat": 25.7462692,
    "id": "541a2cab908e69c4ed6fb78c"
  },
  {
    "Arbol_id": 180,
    "Folio": 0,
    "Usuario_id": "usuario1388",
    "Fecha_plantado": "",
    "Especie": "Encino Roble",
    "Fecha_registro": "2013-05-21",
    "Municipio": "Monterrey",
    "Direccion": "Ambar, Los Naranjos 1er Sector (Fomerrey 119), 66448 NL, México",
    "lon": -100.2481995,
    "lat": 25.7462692,
    "id": "541a2cab908e69c4ed6fb78d"
  },
  {
    "Arbol_id": 181,
    "Folio": 0,
    "Usuario_id": "usuario1388",
    "Fecha_plantado": "",
    "Especie": "Encino Roble",
    "Fecha_registro": "2013-05-21",
    "Municipio": "Monterrey",
    "Direccion": "Ambar, Los Naranjos 1er Sector (Fomerrey 119), 66448 NL, México",
    "lon": -100.2481995,
    "lat": 25.7462692,
    "id": "541a2cab908e69c4ed6fb78e"
  },
  {
    "Arbol_id": 182,
    "Folio": 0,
    "Usuario_id": "usuario1388",
    "Fecha_plantado": "",
    "Especie": "Encino Roble",
    "Fecha_registro": "2013-05-21",
    "Municipio": "Monterrey",
    "Direccion": "Ambar, Los Naranjos 1er Sector (Fomerrey 119), 66448 NL, México",
    "lon": -100.2481995,
    "lat": 25.7462692,
    "id": "541a2cab908e69c4ed6fb78f"
  },
  {
    "Arbol_id": 184,
    "Folio": 0,
    "Usuario_id": "usuario1388",
    "Fecha_plantado": "",
    "Especie": "Encino Roble",
    "Fecha_registro": "2013-05-21",
    "Municipio": "Monterrey",
    "Direccion": "Ambar, Los Naranjos 1er Sector (Fomerrey 119), 66448 NL, México",
    "lon": -100.2481995,
    "lat": 25.7462692,
    "id": "541a2cab908e69c4ed6fb791"
  },
  {
    "Arbol_id": 185,
    "Folio": 0,
    "Usuario_id": "usuario1388",
    "Fecha_plantado": "",
    "Especie": "Encino Roble",
    "Fecha_registro": "2013-05-21",
    "Municipio": "Monterrey",
    "Direccion": "Ambar, Los Naranjos 1er Sector (Fomerrey 119), 66448 NL, México",
    "lon": -100.2481995,
    "lat": 25.7462692,
    "id": "541a2cab908e69c4ed6fb792"
  },
  {
    "Arbol_id": 186,
    "Folio": 0,
    "Usuario_id": "usuario1388",
    "Fecha_plantado": "",
    "Especie": "Encino Roble",
    "Fecha_registro": "2013-05-21",
    "Municipio": "Monterrey",
    "Direccion": "Ambar, Los Naranjos 1er Sector (Fomerrey 119), 66448 NL, México",
    "lon": -100.2481995,
    "lat": 25.7462692,
    "id": "541a2cab908e69c4ed6fb793"
  },
  {
    "Arbol_id": 187,
    "Folio": 0,
    "Usuario_id": "usuario1388",
    "Fecha_plantado": "",
    "Especie": "Encino Roble",
    "Fecha_registro": "2013-05-21",
    "Municipio": "Monterrey",
    "Direccion": "Ambar, Los Naranjos 1er Sector (Fomerrey 119), 66448 NL, México",
    "lon": -100.2481995,
    "lat": 25.7462692,
    "id": "541a2cab908e69c4ed6fb794"
  },
  {
    "Arbol_id": 188,
    "Folio": 0,
    "Usuario_id": "usuario1388",
    "Fecha_plantado": "",
    "Especie": "Encino Roble",
    "Fecha_registro": "2013-05-21",
    "Municipio": "Monterrey",
    "Direccion": "Héctor Victoria 824, Los Naranjos 1er Sector (Fomerrey 119), 66448 NL, México",
    "lon": -100.2504578,
    "lat": 25.7459793,
    "id": "541a2cab908e69c4ed6fb795"
  },
  {
    "Arbol_id": 189,
    "Folio": 0,
    "Usuario_id": "usuario1388",
    "Fecha_plantado": "",
    "Especie": "Encino Roble",
    "Fecha_registro": "2013-05-21",
    "Municipio": "Monterrey",
    "Direccion": "Ambar, Los Naranjos 1er Sector (Fomerrey 119), 66448 NL, México",
    "lon": -100.2481995,
    "lat": 25.7462692,
    "id": "541a2cab908e69c4ed6fb796"
  },
  {
    "Arbol_id": 190,
    "Folio": 0,
    "Usuario_id": "usuario1388",
    "Fecha_plantado": "",
    "Especie": "Encino Roble",
    "Fecha_registro": "2013-05-21",
    "Municipio": "Monterrey",
    "Direccion": "Héctor Victoria 824, Los Naranjos 1er Sector (Fomerrey 119), 66448 NL, México",
    "lon": -100.2504578,
    "lat": 25.7459793,
    "id": "541a2cab908e69c4ed6fb797"
  },
  {
    "Arbol_id": 191,
    "Folio": 0,
    "Usuario_id": "usuario1388",
    "Fecha_plantado": "",
    "Especie": "Encino Roble",
    "Fecha_registro": "2013-05-21",
    "Municipio": "Monterrey",
    "Direccion": "Héctor Victoria 824, Los Naranjos 1er Sector (Fomerrey 119), 66448 NL, México",
    "lon": -100.2504578,
    "lat": 25.7459793,
    "id": "541a2cab908e69c4ed6fb798"
  },
  {
    "Arbol_id": 192,
    "Folio": 0,
    "Usuario_id": "usuario1388",
    "Fecha_plantado": "",
    "Especie": "Encino Roble",
    "Fecha_registro": "2013-05-21",
    "Municipio": "Monterrey",
    "Direccion": "Héctor Victoria 824, Los Naranjos 1er Sector (Fomerrey 119), 66448 NL, México",
    "lon": -100.2504578,
    "lat": 25.7459793,
    "id": "541a2cab908e69c4ed6fb799"
  },
  {
    "Arbol_id": 193,
    "Folio": 0,
    "Usuario_id": "usuario1388",
    "Fecha_plantado": "",
    "Especie": "Encino Roble",
    "Fecha_registro": "2013-05-21",
    "Municipio": "Monterrey",
    "Direccion": "Héctor Victoria 824, Los Naranjos 1er Sector (Fomerrey 119), 66448 NL, México",
    "lon": -100.2504578,
    "lat": 25.7459793,
    "id": "541a2cab908e69c4ed6fb79a"
  },
  {
    "Arbol_id": 194,
    "Folio": 0,
    "Usuario_id": "usuario1388",
    "Fecha_plantado": "",
    "Especie": "Encino Roble",
    "Fecha_registro": "2013-05-21",
    "Municipio": "Monterrey",
    "Direccion": "Héctor Victoria 824, Los Naranjos 1er Sector (Fomerrey 119), 66448 NL, México",
    "lon": -100.2504578,
    "lat": 25.7459793,
    "id": "541a2cab908e69c4ed6fb79b"
  },
  {
    "Arbol_id": 200,
    "Folio": 0,
    "Usuario_id": "usuario2500",
    "Fecha_plantado": "",
    "Especie": "Encino Roble",
    "Fecha_registro": "2013-05-21",
    "Municipio": "Monterrey",
    "Direccion": "Churubusco 103, Constituyentes de Querétaro 6o Sector, 66490 NL, México",
    "lon": -100.2678375,
    "lat": 25.7111492,
    "id": "541a2cab908e69c4ed6fb7a1"
  },
  {
    "Arbol_id": 201,
    "Folio": 0,
    "Usuario_id": "usuario2500",
    "Fecha_plantado": "",
    "Especie": "Encino Roble",
    "Fecha_registro": "2013-05-21",
    "Municipio": "Monterrey",
    "Direccion": "Churubusco 103, Constituyentes de Querétaro 6o Sector, 66490 NL, México",
    "lon": -100.2678375,
    "lat": 25.7111492,
    "id": "541a2cab908e69c4ed6fb7a2"
  },
  {
    "Arbol_id": 203,
    "Folio": 0,
    "Usuario_id": "usuario2500",
    "Fecha_plantado": "",
    "Especie": "Encino Roble",
    "Fecha_registro": "2013-05-21",
    "Municipio": "Monterrey",
    "Direccion": "Churubusco 107, Constituyentes de Querétaro 6o Sector, 66490 NL, México",
    "lon": -100.2678375,
    "lat": 25.7111492,
    "id": "541a2cab908e69c4ed6fb7a4"
  },
  {
    "Arbol_id": 211,
    "Folio": 0,
    "Usuario_id": "usuario2500",
    "Fecha_plantado": "",
    "Especie": "Encino Roble",
    "Fecha_registro": "2013-05-21",
    "Municipio": "Monterrey",
    "Direccion": "Avenida Arturo B. de la Garza 1350, Villarreal, 66412 NL, México",
    "lon": -100.2893219,
    "lat": 25.7664394,
    "id": "541a2cab908e69c4ed6fb7ac"
  },
  {
    "Arbol_id": 212,
    "Folio": 0,
    "Usuario_id": "usuario2500",
    "Fecha_plantado": "",
    "Especie": "Encino Roble",
    "Fecha_registro": "2013-05-21",
    "Municipio": "Monterrey",
    "Direccion": "Avenida Arturo B. de la Garza 1350, Villarreal, 66412 NL, México",
    "lon": -100.2893219,
    "lat": 25.7664394,
    "id": "541a2cab908e69c4ed6fb7ad"
  },
  {
    "Arbol_id": 213,
    "Folio": 0,
    "Usuario_id": "usuario2500",
    "Fecha_plantado": "",
    "Especie": "Encino Roble",
    "Fecha_registro": "2013-05-21",
    "Municipio": "Monterrey",
    "Direccion": "Avenida Arturo B. de la Garza 1350, Villarreal, 66412 NL, México",
    "lon": -100.2893219,
    "lat": 25.7664394,
    "id": "541a2cab908e69c4ed6fb7ae"
  },
  {
    "Arbol_id": 214,
    "Folio": 0,
    "Usuario_id": "usuario2500",
    "Fecha_plantado": "",
    "Especie": "Encino Roble",
    "Fecha_registro": "2013-05-21",
    "Municipio": "Monterrey",
    "Direccion": "Avenida Arturo B. de la Garza 1350, Villarreal, 66412 NL, México",
    "lon": -100.2893219,
    "lat": 25.7664394,
    "id": "541a2cab908e69c4ed6fb7af"
  },
  {
    "Arbol_id": 254,
    "Folio": 51,
    "Usuario_id": "usuario1822",
    "Fecha_plantado": "",
    "Especie": "Encino Roble",
    "Fecha_registro": "2013-07-21",
    "Municipio": "Monterrey",
    "Direccion": "Las Torres 399-400, Residencial Los Tabachines, 66425 NL, México",
    "lon": -100.3033829,
    "lat": 25.7578506,
    "id": "541a2cab908e69c4ed6fb7d6"
  },
  {
    "Arbol_id": 268,
    "Folio": 0,
    "Usuario_id": "usuario1599",
    "Fecha_plantado": "",
    "Especie": "Encino Roble",
    "Fecha_registro": "2013-05-27",
    "Municipio": "Monterrey",
    "Direccion": "Caliza 237, Antiguo Corral de Piedra 1er Sector, 66490 NL, México",
    "lon": -100.2598801,
    "lat": 25.7090588,
    "id": "541a2cab908e69c4ed6fb7e4"
  },
  {
    "Arbol_id": 288,
    "Folio": 0,
    "Usuario_id": "usuario1599",
    "Fecha_plantado": "",
    "Especie": "Encino Roble",
    "Fecha_registro": "2013-05-27",
    "Municipio": "Monterrey",
    "Direccion": "Neptuno 1539, Paseo de Los Andes 3ER Sector, 66444 NL, México",
    "lon": -100.2575684,
    "lat": 25.7393799,
    "id": "541a2cab908e69c4ed6fb7f8"
  },
  {
    "Arbol_id": 293,
    "Folio": 0,
    "Usuario_id": "usuario1599",
    "Fecha_plantado": "",
    "Especie": "Encino Roble",
    "Fecha_registro": "2013-05-28",
    "Municipio": "Monterrey",
    "Direccion": "Chihuahua 428, Nicolás Bravo, 66410 NL, México",
    "lon": -106.4852829,
    "lat": 31.7357407,
    "id": "541a2cab908e69c4ed6fb7fd"
  },
  {
    "Arbol_id": 294,
    "Folio": 0,
    "Usuario_id": "usuario1599",
    "Fecha_plantado": "",
    "Especie": "Encino Roble",
    "Fecha_registro": "2013-05-28",
    "Municipio": "Monterrey",
    "Direccion": "Chihuahua 428, Nicolás Bravo, 66410 NL, México",
    "lon": -106.4852829,
    "lat": 31.7357407,
    "id": "541a2cab908e69c4ed6fb7fe"
  },
  {
    "Arbol_id": 295,
    "Folio": 0,
    "Usuario_id": "usuario1599",
    "Fecha_plantado": "",
    "Especie": "Encino Roble",
    "Fecha_registro": "2013-05-28",
    "Municipio": "Monterrey",
    "Direccion": "S. Marcos 1602, Villas de Santo Domingo, 66437 NL, México",
    "lon": -100.2607574,
    "lat": 25.7494392,
    "id": "541a2cab908e69c4ed6fb7ff"
  },
  {
    "Arbol_id": 296,
    "Folio": 0,
    "Usuario_id": "usuario1599",
    "Fecha_plantado": "",
    "Especie": "Encino Roble",
    "Fecha_registro": "2013-05-28",
    "Municipio": "Monterrey",
    "Direccion": "S. Marcos 1602, Villas de Santo Domingo, 66437 NL, México",
    "lon": -100.2607574,
    "lat": 25.7494392,
    "id": "541a2cab908e69c4ed6fb800"
  },
  {
    "Arbol_id": 300,
    "Folio": 0,
    "Usuario_id": "usuario1599",
    "Fecha_plantado": "",
    "Especie": "Encino Roble",
    "Fecha_registro": "2013-05-28",
    "Municipio": "Monterrey",
    "Direccion": "Chamula 741, Los Morales, 66440 NL, México",
    "lon": -100.2499237,
    "lat": 25.7391396,
    "id": "541a2cab908e69c4ed6fb804"
  },
  {
    "Arbol_id": 301,
    "Folio": 0,
    "Usuario_id": "usuario1599",
    "Fecha_plantado": "",
    "Especie": "Encino Roble",
    "Fecha_registro": "2013-05-28",
    "Municipio": "Monterrey",
    "Direccion": "Chamula 739, Los Morales, 66440 NL, México",
    "lon": -100.2499771,
    "lat": 25.7391605,
    "id": "541a2cab908e69c4ed6fb805"
  },
  {
    "Arbol_id": 371,
    "Folio": 70,
    "Usuario_id": "usuario1822",
    "Fecha_plantado": "",
    "Especie": "Encino Roble",
    "Fecha_registro": "2013-07-21",
    "Municipio": "Monterrey",
    "Direccion": "Avenida Lerdo de Tejada 362B, Las Villas, NL, México",
    "lon": -100.3011703,
    "lat": 25.7580204,
    "id": "541a2cac908e69c4ed6fb848"
  },
  {
    "Arbol_id": 392,
    "Folio": 0,
    "Usuario_id": "usuario1599",
    "Fecha_plantado": "",
    "Especie": "Encino Roble",
    "Fecha_registro": "2013-06-04",
    "Municipio": "Monterrey",
    "Direccion": "Calle De Los Pinos 900A, Hacienda Los Morales 2o Sector, 66496 NL, México",
    "lon": -100.2457733,
    "lat": 25.7167797,
    "id": "541a2cac908e69c4ed6fb85d"
  },
  {
    "Arbol_id": 393,
    "Folio": 0,
    "Usuario_id": "usuario1599",
    "Fecha_plantado": "",
    "Especie": "Encino Roble",
    "Fecha_registro": "2013-06-04",
    "Municipio": "Monterrey",
    "Direccion": "Nogal 836, Hacienda Los Morales 3er Sector, 66496 Monterrey, NL, México",
    "lon": -100.3832474,
    "lat": 25.7378197,
    "id": "541a2cac908e69c4ed6fb85e"
  },
  {
    "Arbol_id": 426,
    "Folio": 0,
    "Usuario_id": "usuario2500",
    "Fecha_plantado": "",
    "Especie": "Encino Roble",
    "Fecha_registro": "2013-06-05",
    "Municipio": "Monterrey",
    "Direccion": "Linares 812, Lomas del Roble 2o Sector, 66450 NL, México",
    "lon": -100.3000107,
    "lat": 25.7447033,
    "id": "541a2cac908e69c4ed6fb87d"
  },
  {
    "Arbol_id": 427,
    "Folio": 0,
    "Usuario_id": "usuario2500",
    "Fecha_plantado": "",
    "Especie": "Encino Roble",
    "Fecha_registro": "2013-06-05",
    "Municipio": "Monterrey",
    "Direccion": "Linares 812, Lomas del Roble 2o Sector, 66450 NL, México",
    "lon": -100.3000107,
    "lat": 25.7447033,
    "id": "541a2cac908e69c4ed6fb87e"
  },
  {
    "Arbol_id": 428,
    "Folio": 0,
    "Usuario_id": "usuario2500",
    "Fecha_plantado": "",
    "Especie": "Encino Roble",
    "Fecha_registro": "2013-06-05",
    "Municipio": "Monterrey",
    "Direccion": "Linares 812, Lomas del Roble 2o Sector, 66450 NL, México",
    "lon": -100.3000107,
    "lat": 25.7447033,
    "id": "541a2cac908e69c4ed6fb87f"
  },
  {
    "Arbol_id": 429,
    "Folio": 0,
    "Usuario_id": "usuario2500",
    "Fecha_plantado": "",
    "Especie": "Encino Roble",
    "Fecha_registro": "2013-06-05",
    "Municipio": "Monterrey",
    "Direccion": "Linares 808, Lomas del Roble 2o Sector, 66450 NL, México",
    "lon": -100.297287,
    "lat": 25.7437592,
    "id": "541a2cac908e69c4ed6fb880"
  },
  {
    "Arbol_id": 430,
    "Folio": 0,
    "Usuario_id": "usuario2500",
    "Fecha_plantado": "",
    "Especie": "Encino Roble",
    "Fecha_registro": "2013-06-05",
    "Municipio": "Monterrey",
    "Direccion": "Linares 812, Lomas del Roble 2o Sector, 66450 NL, México",
    "lon": -100.3000107,
    "lat": 25.7447033,
    "id": "541a2cac908e69c4ed6fb881"
  },
  {
    "Arbol_id": 439,
    "Folio": 0,
    "Usuario_id": "usuario1599",
    "Fecha_plantado": "",
    "Especie": "Encino Roble",
    "Fecha_registro": "2013-06-07",
    "Municipio": "Monterrey",
    "Direccion": "Río Pilón 601, Villas de Oriente 2o Sector, 66470 NL, México",
    "lon": -100.2450867,
    "lat": 25.731039,
    "id": "541a2cac908e69c4ed6fb889"
  },
  {
    "Arbol_id": 441,
    "Folio": 0,
    "Usuario_id": "usuario1599",
    "Fecha_plantado": "",
    "Especie": "Encino Roble",
    "Fecha_registro": "2013-06-07",
    "Municipio": "Monterrey",
    "Direccion": "Río Pilón 609, Villas de Oriente 2o Sector, 66470 NL, México",
    "lon": -100.2448883,
    "lat": 25.7312107,
    "id": "541a2cac908e69c4ed6fb88b"
  },
  {
    "Arbol_id": 481,
    "Folio": 0,
    "Usuario_id": "usuario2500",
    "Fecha_plantado": "",
    "Especie": "Encino Roble",
    "Fecha_registro": "2013-06-10",
    "Municipio": "Monterrey",
    "Direccion": "Fco. I. Madero 1016, Los Nogales, 66430 NL, México",
    "lon": "",
    "lat": "",
    "id": "541a2cac908e69c4ed6fb8ad"
  },
  {
    "Arbol_id": 482,
    "Folio": 0,
    "Usuario_id": "usuario2500",
    "Fecha_plantado": "",
    "Especie": "Encino Roble",
    "Fecha_registro": "2013-06-10",
    "Municipio": "Monterrey",
    "Direccion": "Bet-el 751, Bet-el, MX_Loc1_test, 66430 Chandra's Test City [don't deny], state, México",
    "lon": "",
    "lat": "",
    "id": "541a2cac908e69c4ed6fb8ae"
  },
  {
    "Arbol_id": 483,
    "Folio": 0,
    "Usuario_id": "usuario2500",
    "Fecha_plantado": "",
    "Especie": "Encino Roble",
    "Fecha_registro": "2013-06-10",
    "Municipio": "Monterrey",
    "Direccion": "Bet-el 751, Bet-el, MX_Loc1_test, 66430 Chandra's Test City [don't deny], state, México",
    "lon": "",
    "lat": "",
    "id": "541a2cac908e69c4ed6fb8af"
  },
  {
    "Arbol_id": 485,
    "Folio": 0,
    "Usuario_id": "usuario2500",
    "Fecha_plantado": "",
    "Especie": "Encino Roble",
    "Fecha_registro": "2013-06-10",
    "Municipio": "Monterrey",
    "Direccion": "Bet-el 744, Bet-el, MX_Loc1_test, 66430 Chandra's Test City [don't deny], state, México",
    "lon": "",
    "lat": "",
    "id": "541a2cac908e69c4ed6fb8b1"
  },
  {
    "Arbol_id": 486,
    "Folio": 0,
    "Usuario_id": "usuario2500",
    "Fecha_plantado": "",
    "Especie": "Encino Roble",
    "Fecha_registro": "2013-06-10",
    "Municipio": "Monterrey",
    "Direccion": "Bet-el 826, Bet-el, MX_Loc1_test, 66430 Chandra's Test City [don't deny], state, México",
    "lon": "",
    "lat": "",
    "id": "541a2cac908e69c4ed6fb8b2"
  },
  {
    "Arbol_id": 487,
    "Folio": 0,
    "Usuario_id": "usuario2500",
    "Fecha_plantado": "",
    "Especie": "Encino Roble",
    "Fecha_registro": "2013-06-10",
    "Municipio": "Monterrey",
    "Direccion": "Bet-el 826, Bet-el, MX_Loc1_test, 66430 Chandra's Test City [don't deny], state, México",
    "lon": "",
    "lat": "",
    "id": "541a2cac908e69c4ed6fb8b3"
  },
  {
    "Arbol_id": 494,
    "Folio": 0,
    "Usuario_id": "usuario2500",
    "Fecha_plantado": "",
    "Especie": "Encino Roble",
    "Fecha_registro": "2013-06-10",
    "Municipio": "Monterrey",
    "Direccion": "General Fco. Naranjo 507, Cabecera Municipal, 66400 San Nicolás de Los Garza, NL, México",
    "lon": "",
    "lat": "",
    "id": "541a2cac908e69c4ed6fb8ba"
  },
  {
    "Arbol_id": 518,
    "Folio": 0,
    "Usuario_id": "usuario1599",
    "Fecha_plantado": "",
    "Especie": "Encino Roble",
    "Fecha_registro": "2013-06-10",
    "Municipio": "Monterrey",
    "Direccion": "El Roble 1040, Hacienda Los Morales 3er Sector, 66496 Monterrey, NL, México",
    "lon": -100.24646,
    "lat": 25.7133293,
    "id": "541a2cac908e69c4ed6fb8d2"
  },
  {
    "Arbol_id": 526,
    "Folio": 0,
    "Usuario_id": "usuario1599",
    "Fecha_plantado": "",
    "Especie": "Encino Roble",
    "Fecha_registro": "2013-06-12",
    "Municipio": "Monterrey",
    "Direccion": "El Roble 1040, Hacienda Los Morales 3er Sector, 66496 Monterrey, NL, México",
    "lon": -100.24646,
    "lat": 25.7133293,
    "id": "541a2cac908e69c4ed6fb8d5"
  },
  {
    "Arbol_id": 532,
    "Folio": 0,
    "Usuario_id": "usuario1599",
    "Fecha_plantado": "",
    "Especie": "Encino Roble",
    "Fecha_registro": "2013-06-12",
    "Municipio": "Monterrey",
    "Direccion": "1a. Calle, Miguel Alemán, 66470 NL, México",
    "lon": -103.4340134,
    "lat": 20.6089401,
    "id": "541a2cac908e69c4ed6fb8db"
  },
  {
    "Arbol_id": 534,
    "Folio": 0,
    "Usuario_id": "usuario1599",
    "Fecha_plantado": "",
    "Especie": "Encino Roble",
    "Fecha_registro": "2013-06-12",
    "Municipio": "Monterrey",
    "Direccion": "Sevilla 633, Andalucía, 66470 NL, México",
    "lon": -100.2435226,
    "lat": 25.7256622,
    "id": "541a2cac908e69c4ed6fb8dd"
  },
  {
    "Arbol_id": 535,
    "Folio": 0,
    "Usuario_id": "usuario1599",
    "Fecha_plantado": "",
    "Especie": "Encino Roble",
    "Fecha_registro": "2013-06-12",
    "Municipio": "Monterrey",
    "Direccion": "Sevilla 627, Andalucía, 66470 NL, México",
    "lon": -100.2438202,
    "lat": 25.7261391,
    "id": "541a2cac908e69c4ed6fb8de"
  },
  {
    "Arbol_id": 540,
    "Folio": 0,
    "Usuario_id": "usuario1599",
    "Fecha_plantado": "",
    "Especie": "Encino Roble",
    "Fecha_registro": "2013-06-13",
    "Municipio": "Monterrey",
    "Direccion": "Derecho de Huelga 223, Talaverna Croc, 66473 NL, México",
    "lon": -100.2258072,
    "lat": 25.7155399,
    "id": "541a2cac908e69c4ed6fb8e3"
  },
  {
    "Arbol_id": 541,
    "Folio": 0,
    "Usuario_id": "usuario1599",
    "Fecha_plantado": "",
    "Especie": "Encino Roble",
    "Fecha_registro": "2013-06-13",
    "Municipio": "Monterrey",
    "Direccion": "Calle Calzada Unión 339, Talaverna Croc, 66473 NL, México",
    "lon": -100.2345428,
    "lat": 25.7171307,
    "id": "541a2cac908e69c4ed6fb8e4"
  },
  {
    "Arbol_id": 542,
    "Folio": 0,
    "Usuario_id": "usuario1599",
    "Fecha_plantado": "",
    "Especie": "Encino Roble",
    "Fecha_registro": "2013-06-13",
    "Municipio": "Monterrey",
    "Direccion": "Sevilla 633, Andalucía, 66470 NL, México",
    "lon": -100.2435226,
    "lat": 25.7256622,
    "id": "541a2cac908e69c4ed6fb8e5"
  },
  {
    "Arbol_id": 805,
    "Folio": 0,
    "Usuario_id": "usuario1781",
    "Fecha_plantado": "",
    "Especie": "Encino Roble",
    "Fecha_registro": "2013-06-21",
    "Municipio": "Monterrey",
    "Direccion": "Ricardo Covarrubias 3305, La Primavera, 64830 Monterrey, NL, México",
    "lon": -100.2794952,
    "lat": 25.6481152,
    "id": "541a2cac908e69c4ed6fb9d0"
  },
  {
    "Arbol_id": 816,
    "Folio": 0,
    "Usuario_id": "usuario1965",
    "Fecha_plantado": "",
    "Especie": "Encino Roble",
    "Fecha_registro": "2013-06-21",
    "Municipio": "Monterrey",
    "Direccion": "Avenida Eugenio Garza Lagüera, Zona Valle Oriente, 66269 Nuevo Leon, Mexico",
    "lon": -100.3295212,
    "lat": 25.6437206,
    "id": "541a2cac908e69c4ed6fb9db"
  },
  {
    "Arbol_id": 875,
    "Folio": 0,
    "Usuario_id": "usuario1965",
    "Fecha_plantado": "",
    "Especie": "Encino Roble",
    "Fecha_registro": "2013-06-21",
    "Municipio": "Monterrey",
    "Direccion": "Avenida Eugenio Garza Lagüera, Zona Valle Oriente, 66269 Nuevo Leon, Mexico",
    "lon": -100.3295212,
    "lat": 25.6437206,
    "id": "541a2cac908e69c4ed6fba0e"
  },
  {
    "Arbol_id": 1135,
    "Folio": 0,
    "Usuario_id": "usuario472",
    "Fecha_plantado": "",
    "Especie": "Encino Roble",
    "Fecha_registro": "2013-07-04",
    "Municipio": "Monterrey",
    "Direccion": "Niza 3221, Jardines de Alta Vista, 64833 Monterrey, Nuevo Leon, Mexico",
    "lon": -100.2815399,
    "lat": 25.6487331,
    "id": "541a2cac908e69c4ed6fbb02"
  },
  {
    "Arbol_id": 1138,
    "Folio": 0,
    "Usuario_id": "usuario472",
    "Fecha_plantado": "",
    "Especie": "Encino Roble",
    "Fecha_registro": "2013-07-04",
    "Municipio": "Monterrey",
    "Direccion": "Niza 3221, Jardines de Alta Vista, 64833 Monterrey, Nuevo Leon, Mexico",
    "lon": -100.2815399,
    "lat": 25.6487331,
    "id": "541a2cac908e69c4ed6fbb03"
  },
  {
    "Arbol_id": 1319,
    "Folio": 0,
    "Usuario_id": "usuario2284",
    "Fecha_plantado": "",
    "Especie": "Encino Roble",
    "Fecha_registro": "2013-07-07",
    "Municipio": "Monterrey",
    "Direccion": "Cruz Azul, Estadio, 64830 Monterrey, Nuevo León, Mexique",
    "lon": -100.2824707,
    "lat": 25.6534691,
    "id": "541a2cac908e69c4ed6fbb97"
  },
  {
    "Arbol_id": 1331,
    "Folio": 0,
    "Usuario_id": "usuario2284",
    "Fecha_plantado": "",
    "Especie": "Encino Roble",
    "Fecha_registro": "2013-07-07",
    "Municipio": "Monterrey",
    "Direccion": "Cruz Azul, Estadio, 64830 Monterrey, Nuevo León, Mexique",
    "lon": -100.2824707,
    "lat": 25.6534691,
    "id": "541a2cac908e69c4ed6fbba2"
  },
  {
    "Arbol_id": 1357,
    "Folio": 0,
    "Usuario_id": "usuario1965",
    "Fecha_plantado": "",
    "Especie": "Encino Roble",
    "Fecha_registro": "2013-07-07",
    "Municipio": "Monterrey",
    "Direccion": "Avenida Eugenio Garza Lagüera, Zona Valle Oriente, 66278 Nuevo Leon, Mexico",
    "lon": -100.3295212,
    "lat": 25.6437206,
    "id": "541a2cac908e69c4ed6fbbb9"
  },
  {
    "Arbol_id": 1454,
    "Folio": 0,
    "Usuario_id": "usuario1799",
    "Fecha_plantado": "",
    "Especie": "Encino Roble",
    "Fecha_registro": "2013-07-09",
    "Municipio": "Monterrey",
    "Direccion": "Atlante 3004, Estadio, 64830 Monterrey, Nuevo Leon, Mexico",
    "lon": -100.2838516,
    "lat": 25.6539307,
    "id": "541a2cac908e69c4ed6fbc00"
  },
  {
    "Arbol_id": 1455,
    "Folio": 0,
    "Usuario_id": "usuario1799",
    "Fecha_plantado": "",
    "Especie": "Encino Roble",
    "Fecha_registro": "2013-07-09",
    "Municipio": "Monterrey",
    "Direccion": "Atlante 3004, Estadio, 64830 Monterrey, Nuevo Leon, Mexico",
    "lon": -100.2838516,
    "lat": 25.6539307,
    "id": "541a2cac908e69c4ed6fbc01"
  },
  {
    "Arbol_id": 1482,
    "Folio": 0,
    "Usuario_id": "usuario153",
    "Fecha_plantado": "",
    "Especie": "Encino Roble",
    "Fecha_registro": "2013-07-11",
    "Municipio": "Monterrey",
    "Direccion": "Camino Al Panteon 7257, Sin Nombre de Colonia 49, Monterrey, NL, México",
    "lon": -100.2710037,
    "lat": 25.5900707,
    "id": "541a2cac908e69c4ed6fbc11"
  },
  {
    "Arbol_id": 1616,
    "Folio": 0,
    "Usuario_id": "usuario2500",
    "Fecha_plantado": "2013-06-20T00:00:00Z",
    "Especie": "Encino Roble",
    "Fecha_registro": "2013-07-20",
    "Municipio": "San Nicolás de los Garza",
    "Direccion": "Calle Efrain Ordonez 119, Viejo Roble, 66418 NL, México",
    "lon": "",
    "lat": "",
    "id": "541a2cac908e69c4ed6fbc7d"
  },
  {
    "Arbol_id": 1620,
    "Folio": 0,
    "Usuario_id": "usuario2500",
    "Fecha_plantado": "2013-06-20T00:00:00Z",
    "Especie": "Encino Roble",
    "Fecha_registro": "2013-07-20",
    "Municipio": "San Nicolás de los Garza",
    "Direccion": "Calle Efrain Ordonez 121, Viejo Roble, 66418 NL, México",
    "lon": "",
    "lat": "",
    "id": "541a2cac908e69c4ed6fbc81"
  },
  {
    "Arbol_id": 1621,
    "Folio": 0,
    "Usuario_id": "usuario2500",
    "Fecha_plantado": "2013-06-20T00:00:00Z",
    "Especie": "Encino Roble",
    "Fecha_registro": "2013-07-20",
    "Municipio": "San Nicolás de los Garza",
    "Direccion": "Calle Efrain Ordonez 123, Viejo Roble, 66418 NL, México",
    "lon": "",
    "lat": "",
    "id": "541a2cac908e69c4ed6fbc82"
  },
  {
    "Arbol_id": 1647,
    "Folio": 84,
    "Usuario_id": "usuario1822",
    "Fecha_plantado": "",
    "Especie": "Encino Roble",
    "Fecha_registro": "2013-07-25",
    "Municipio": "MX_Dist_test",
    "Direccion": "Lope de Vega 102_8, Anáhuac, 66450 Chandra's Test City [don't deny], state, México",
    "lon": -100.3115616,
    "lat": 25.7360592,
    "id": "541a2cac908e69c4ed6fbc96"
  },
  {
    "Arbol_id": 1649,
    "Folio": 83,
    "Usuario_id": "usuario1822",
    "Fecha_plantado": "",
    "Especie": "Encino Roble",
    "Fecha_registro": "2013-07-25",
    "Municipio": "MX_Dist_test",
    "Direccion": "Lope de Vega 102_9, Anáhuac, 66450 Chandra's Test City [don't deny], state, México",
    "lon": -100.3115616,
    "lat": 25.7360592,
    "id": "541a2cac908e69c4ed6fbc98"
  },
  {
    "Arbol_id": 1650,
    "Folio": 85,
    "Usuario_id": "usuario1822",
    "Fecha_plantado": "",
    "Especie": "Encino Roble",
    "Fecha_registro": "2013-07-25",
    "Municipio": "MX_Dist_test",
    "Direccion": "Nuevo Laredo - Monterrey, Anáhuac, 66450 NL, México",
    "lon": -99.9574509,
    "lat": 27.3482704,
    "id": "541a2cac908e69c4ed6fbc99"
  },
  {
    "Arbol_id": 1652,
    "Folio": 87,
    "Usuario_id": "usuario1822",
    "Fecha_plantado": "",
    "Especie": "Encino Roble",
    "Fecha_registro": "2013-07-25",
    "Municipio": "MX_Dist_test",
    "Direccion": "Nuevo Laredo - Monterrey, Anáhuac, 66450 NL, México",
    "lon": -99.9574509,
    "lat": 27.3482704,
    "id": "541a2cac908e69c4ed6fbc9b"
  },
  {
    "Arbol_id": 1678,
    "Folio": 31,
    "Usuario_id": "usuario2934",
    "Fecha_plantado": "",
    "Especie": "Encino Roble",
    "Fecha_registro": "2013-07-25",
    "Municipio": "San Pedro Garza García",
    "Direccion": "Llavale 3005, Valle del Mirador, 66260 San Pedro Garza García, NL, México",
    "lon": -100.3310776,
    "lat": 25.6350307,
    "id": "541a2cac908e69c4ed6fbcb5"
  },
  {
    "Arbol_id": 1688,
    "Folio": 100,
    "Usuario_id": "usuario1822",
    "Fecha_plantado": "",
    "Especie": "Encino Roble",
    "Fecha_registro": "2013-07-28",
    "Municipio": "San Nicolás de los Garza",
    "Direccion": "S. Idelfonso 441, Las Villas, 66420 NL, México",
    "lon": -100.3010178,
    "lat": 25.7597332,
    "id": "541a2cac908e69c4ed6fbcbf"
  },
  {
    "Arbol_id": 1804,
    "Folio": 0,
    "Usuario_id": "usuario1850",
    "Fecha_plantado": "",
    "Especie": "Encino Roble",
    "Fecha_registro": "2013-09-08",
    "Municipio": "San Pedro Garza García",
    "Direccion": "Calzada del Valle Alberto Santos 510, Del Valle, 66220 NL, México",
    "lon": -100.3816376,
    "lat": 25.6601887,
    "id": "541a2cac908e69c4ed6fbd27"
  },
  {
    "Arbol_id": 1844,
    "Folio": 149,
    "Usuario_id": "usuario1822",
    "Fecha_plantado": "2013-09-10T00:00:00Z",
    "Especie": "Encino Roble",
    "Fecha_registro": "2013-09-15",
    "Municipio": "San Nicolás",
    "Direccion": "Carretera Federal 85, Anáhuac, 66450 NL, México",
    "lon": -100.3043213,
    "lat": 25.7355804,
    "id": "541a2cac908e69c4ed6fbd46"
  },
  {
    "Arbol_id": 1897,
    "Folio": 0,
    "Usuario_id": "usuario522",
    "Fecha_plantado": "",
    "Especie": "Encino Roble",
    "Fecha_registro": "2013-09-22",
    "Municipio": "San Pedro",
    "Direccion": "Avenida Real de San Agustín 24, Zona Lomas de San Agustín, 66278 NL, México",
    "lon": -100.3365326,
    "lat": 25.6321793,
    "id": "541a2cac908e69c4ed6fbd76"
  },
  {
    "Arbol_id": 2091,
    "Folio": 0,
    "Usuario_id": "usuario1436",
    "Fecha_plantado": "",
    "Especie": "Encino Roble",
    "Fecha_registro": "2013-10-08",
    "Municipio": "San Pedro",
    "Direccion": "Río Guadalquivir, Del Valle, 66220 Monterrey, Nuevo Leon, Mexico",
    "lon": -100.3553391,
    "lat": 25.6581497,
    "id": "541a2cac908e69c4ed6fbe1f"
  },
  {
    "Arbol_id": 2094,
    "Folio": 0,
    "Usuario_id": "usuario1436",
    "Fecha_plantado": "",
    "Especie": "Encino Roble",
    "Fecha_registro": "2013-10-08",
    "Municipio": "San Pedro",
    "Direccion": "Río Guadalquivir, Del Valle, 66220 Monterrey, Nuevo Leon, Mexico",
    "lon": -100.3553391,
    "lat": 25.6581497,
    "id": "541a2cac908e69c4ed6fbe22"
  },
  {
    "Arbol_id": 2097,
    "Folio": 0,
    "Usuario_id": "usuario1436",
    "Fecha_plantado": "",
    "Especie": "Encino Roble",
    "Fecha_registro": "2013-10-08",
    "Municipio": "San Pedro",
    "Direccion": "Río Guadalquivir, Del Valle, 66220 Monterrey, Nuevo Leon, Mexico",
    "lon": -100.3553391,
    "lat": 25.6581497,
    "id": "541a2cac908e69c4ed6fbe24"
  },
  {
    "Arbol_id": 2132,
    "Folio": 0,
    "Usuario_id": "usuario1436",
    "Fecha_plantado": "",
    "Especie": "Encino Roble",
    "Fecha_registro": "2013-10-09",
    "Municipio": "San Pedro",
    "Direccion": "Río Guadalquivir 106, Del Valle, 66220 Nuevo Leon, Mexico",
    "lon": -100.3669968,
    "lat": 25.6613979,
    "id": "541a2cac908e69c4ed6fbe44"
  },
  {
    "Arbol_id": 2169,
    "Folio": 0,
    "Usuario_id": "usuario1436",
    "Fecha_plantado": "",
    "Especie": "Encino Roble",
    "Fecha_registro": "2013-10-09",
    "Municipio": "San Pedro",
    "Direccion": "Río Guadalquivir 112-116, Del Valle, 66220 Monterrey, Nuevo Leon, Mexico",
    "lon": -100.3668365,
    "lat": 25.6613522,
    "id": "541a2cac908e69c4ed6fbe67"
  },
  {
    "Arbol_id": 2310,
    "Folio": 189,
    "Usuario_id": "usuario1822",
    "Fecha_plantado": "",
    "Especie": "Encino Roble",
    "Fecha_registro": "2013-10-13",
    "Municipio": "Monterrey",
    "Direccion": "Carretera Federal 85, Valle del Márquez, 64790 Monterrey, NL, México",
    "lon": -100.2921295,
    "lat": 25.6256905,
    "id": "541a2cac908e69c4ed6fbee6"
  },
  {
    "Arbol_id": 2319,
    "Folio": 199,
    "Usuario_id": "usuario1822",
    "Fecha_plantado": "",
    "Especie": "Encino Roble",
    "Fecha_registro": "2013-10-13",
    "Municipio": "Monterrey",
    "Direccion": "Carretera Federal 85, Valle del Márquez, 64790 Monterrey, NL, México",
    "lon": -100.2921295,
    "lat": 25.6256905,
    "id": "541a2cac908e69c4ed6fbeef"
  },
  {
    "Arbol_id": 2320,
    "Folio": 200,
    "Usuario_id": "usuario1822",
    "Fecha_plantado": "",
    "Especie": "Encino Roble",
    "Fecha_registro": "2013-10-13",
    "Municipio": "Monterrey",
    "Direccion": "Carretera Federal 85, Valle del Márquez, 64790 Monterrey, NL, México",
    "lon": -100.2921295,
    "lat": 25.6256905,
    "id": "541a2cac908e69c4ed6fbef0"
  },
  {
    "Arbol_id": 2321,
    "Folio": 201,
    "Usuario_id": "usuario1822",
    "Fecha_plantado": "",
    "Especie": "Encino Roble",
    "Fecha_registro": "2013-10-14",
    "Municipio": "San Nicolás",
    "Direccion": "Carretera Federal 85, Valle del Márquez, 64790 Monterrey, NL, México",
    "lon": -100.2921295,
    "lat": 25.6256905,
    "id": "541a2cac908e69c4ed6fbef1"
  },
  {
    "Arbol_id": 2368,
    "Folio": 204,
    "Usuario_id": "usuario1822",
    "Fecha_plantado": "",
    "Especie": "Encino Roble",
    "Fecha_registro": "2013-10-18",
    "Municipio": "San Nicolás",
    "Direccion": "Carretera Federal 85, Anáhuac, 66450 Chandra's Test City [don't deny], state, México",
    "lon": "",
    "lat": "",
    "id": "541a2cac908e69c4ed6fbf20"
  },
  {
    "Arbol_id": 2369,
    "Folio": 205,
    "Usuario_id": "usuario1822",
    "Fecha_plantado": "",
    "Especie": "Encino Roble",
    "Fecha_registro": "2013-10-18",
    "Municipio": "San Nicolás",
    "Direccion": "Carretera Federal 85, Anáhuac, 66450 Chandra's Test City [don't deny], state, México",
    "lon": "",
    "lat": "",
    "id": "541a2cac908e69c4ed6fbf21"
  },
  {
    "Arbol_id": 2421,
    "Folio": 0,
    "Usuario_id": "usuario2500",
    "Fecha_plantado": "2013-06-20T00:00:00Z",
    "Especie": "Encino Roble",
    "Fecha_registro": "2013-10-22",
    "Municipio": "San Nicolás",
    "Direccion": "Morenita Mia 2102, Viejo Roble, 66418 San Nicolás de los Garza, Nuevo Leon, Mexico",
    "lon": -100.2800293,
    "lat": 25.7652798,
    "id": "541a2cac908e69c4ed6fbf53"
  },
  {
    "Arbol_id": 2422,
    "Folio": 0,
    "Usuario_id": "usuario2500",
    "Fecha_plantado": "2013-06-20T00:00:00Z",
    "Especie": "Encino Roble",
    "Fecha_registro": "2013-10-22",
    "Municipio": "San Nicolás",
    "Direccion": "Calle Efrain Ordonez 119, Viejo Roble, 66418 Nuevo Leon, Mexico",
    "lon": "",
    "lat": "",
    "id": "541a2cac908e69c4ed6fbf54"
  },
  {
    "Arbol_id": 2423,
    "Folio": 0,
    "Usuario_id": "usuario2500",
    "Fecha_plantado": "2013-06-20T00:00:00Z",
    "Especie": "Encino Roble",
    "Fecha_registro": "2013-10-22",
    "Municipio": "San Nicolás",
    "Direccion": "Morenita Mia 2102, Viejo Roble, 66418 San Nicolás de los Garza, Nuevo Leon, Mexico",
    "lon": -100.2800293,
    "lat": 25.7652798,
    "id": "541a2cac908e69c4ed6fbf55"
  },
  {
    "Arbol_id": 2424,
    "Folio": 0,
    "Usuario_id": "usuario2500",
    "Fecha_plantado": "2013-06-20T00:00:00Z",
    "Especie": "Encino Roble",
    "Fecha_registro": "2013-10-22",
    "Municipio": "San Nicolás",
    "Direccion": "Calle Efrain Ordonez 121, Viejo Roble, 66418 Nuevo Leon, Mexico",
    "lon": "",
    "lat": "",
    "id": "541a2cac908e69c4ed6fbf56"
  },
  {
    "Arbol_id": 2425,
    "Folio": 0,
    "Usuario_id": "usuario2500",
    "Fecha_plantado": "2013-06-20T00:00:00Z",
    "Especie": "Encino Roble",
    "Fecha_registro": "2013-10-22",
    "Municipio": "San Nicolás",
    "Direccion": "Calle Efrain Ordonez 123, Viejo Roble, 66418 Nuevo Leon, Mexico",
    "lon": "",
    "lat": "",
    "id": "541a2cac908e69c4ed6fbf57"
  },
  {
    "Arbol_id": 2426,
    "Folio": 0,
    "Usuario_id": "usuario2500",
    "Fecha_plantado": "2013-06-20T00:00:00Z",
    "Especie": "Encino Roble",
    "Fecha_registro": "2013-10-22",
    "Municipio": "San Nicolás",
    "Direccion": "Morenita Mia 2102, Viejo Roble, 66418 San Nicolás de los Garza, Nuevo Leon, Mexico",
    "lon": -100.2800293,
    "lat": 25.7652798,
    "id": "541a2cac908e69c4ed6fbf58"
  },
  {
    "Arbol_id": 2427,
    "Folio": 0,
    "Usuario_id": "usuario2500",
    "Fecha_plantado": "2013-06-20T00:00:00Z",
    "Especie": "Encino Roble",
    "Fecha_registro": "2013-10-22",
    "Municipio": "San Nicolás",
    "Direccion": "Calle Efrain Ordonez 125, Viejo Roble, 66418 Nuevo Leon, Mexico",
    "lon": "",
    "lat": "",
    "id": "541a2cac908e69c4ed6fbf59"
  },
  {
    "Arbol_id": 2428,
    "Folio": 0,
    "Usuario_id": "usuario2500",
    "Fecha_plantado": "2013-06-20T00:00:00Z",
    "Especie": "Encino Roble",
    "Fecha_registro": "2013-10-22",
    "Municipio": "San Nicolás",
    "Direccion": "Federico Cantú 144, Viejo Roble, 66414 Nuevo Leon, Mexico",
    "lon": "",
    "lat": "",
    "id": "541a2cac908e69c4ed6fbf5a"
  },
  {
    "Arbol_id": 2431,
    "Folio": 0,
    "Usuario_id": "usuario2500",
    "Fecha_plantado": "2013-06-20T00:00:00Z",
    "Especie": "Encino Roble",
    "Fecha_registro": "2013-10-22",
    "Municipio": "San Nicolás",
    "Direccion": "Calle Efrain Ordonez 125, Viejo Roble, 66418 Nuevo Leon, Mexico",
    "lon": "",
    "lat": "",
    "id": "541a2cac908e69c4ed6fbf5d"
  },
  {
    "Arbol_id": 2433,
    "Folio": 0,
    "Usuario_id": "usuario2500",
    "Fecha_plantado": "2013-06-20T00:00:00Z",
    "Especie": "Encino Roble",
    "Fecha_registro": "2013-10-22",
    "Municipio": "San Nicolás",
    "Direccion": "Calle Efrain Ordonez 141, Viejo Roble, 66418 Nuevo Leon, Mexico",
    "lon": "",
    "lat": "",
    "id": "541a2cac908e69c4ed6fbf5f"
  },
  {
    "Arbol_id": 2435,
    "Folio": 0,
    "Usuario_id": "usuario2500",
    "Fecha_plantado": "2013-06-20T00:00:00Z",
    "Especie": "Encino Roble",
    "Fecha_registro": "2013-10-22",
    "Municipio": "San Nicolás",
    "Direccion": "Calle Efrain Ordonez 141, Viejo Roble, 66418 Nuevo Leon, Mexico",
    "lon": "",
    "lat": "",
    "id": "541a2cac908e69c4ed6fbf61"
  },
  {
    "Arbol_id": 2436,
    "Folio": 0,
    "Usuario_id": "usuario2500",
    "Fecha_plantado": "2013-06-20T00:00:00Z",
    "Especie": "Encino Roble",
    "Fecha_registro": "2013-10-22",
    "Municipio": "San Nicolás",
    "Direccion": "Federico Cantú 132, Viejo Roble, 66414 Nuevo Leon, Mexico",
    "lon": "",
    "lat": "",
    "id": "541a2cac908e69c4ed6fbf62"
  },
  {
    "Arbol_id": 2437,
    "Folio": 0,
    "Usuario_id": "usuario2500",
    "Fecha_plantado": "2013-06-20T00:00:00Z",
    "Especie": "Encino Roble",
    "Fecha_registro": "2013-10-22",
    "Municipio": "San Nicolás",
    "Direccion": "Federico Cantú 128, Viejo Roble, 66414 Nuevo Leon, Mexico",
    "lon": "",
    "lat": "",
    "id": "541a2cac908e69c4ed6fbf63"
  },
  {
    "Arbol_id": 2441,
    "Folio": 0,
    "Usuario_id": "usuario2500",
    "Fecha_plantado": "2013-09-11T00:00:00Z",
    "Especie": "Encino Roble",
    "Fecha_registro": "2013-10-22",
    "Municipio": "San Nicolás",
    "Direccion": "Lantana, Miraflores, 66410 Nuevo Leon, Mexico",
    "lon": "",
    "lat": "",
    "id": "541a2cac908e69c4ed6fbf67"
  },
  {
    "Arbol_id": 2445,
    "Folio": 0,
    "Usuario_id": "usuario2500",
    "Fecha_plantado": "2013-09-19T00:00:00Z",
    "Especie": "Encino Roble",
    "Fecha_registro": "2013-10-22",
    "Municipio": "San Nicolás",
    "Direccion": "Universidad Autónoma de Nuevo León 700, Villa Universidad, 66420 Nuevo Leon, Mexico",
    "lon": -100.304718,
    "lat": 25.7481003,
    "id": "541a2cac908e69c4ed6fbf6b"
  },
  {
    "Arbol_id": 2449,
    "Folio": 0,
    "Usuario_id": "usuario2500",
    "Fecha_plantado": "2013-07-03T00:00:00Z",
    "Especie": "Encino Roble",
    "Fecha_registro": "2013-10-23",
    "Municipio": "San Nicolás",
    "Direccion": "Pensamiento 1627, La Nogalera 2o Sector, 66417 Nuevo Leon, Mexico",
    "lon": "",
    "lat": "",
    "id": "541a2cac908e69c4ed6fbf6f"
  },
  {
    "Arbol_id": 2470,
    "Folio": 0,
    "Usuario_id": "usuario2500",
    "Fecha_plantado": "2013-08-21T00:00:00Z",
    "Especie": "Encino Roble",
    "Fecha_registro": "2013-10-23",
    "Municipio": "San Nicolás",
    "Direccion": "Río Potosí 208, Rincón de Los Cedros, 66435 Nuevo Leon, Mexico",
    "lon": -100.3124084,
    "lat": 25.7524796,
    "id": "541a2cac908e69c4ed6fbf84"
  },
  {
    "Arbol_id": 2479,
    "Folio": 0,
    "Usuario_id": "usuario2500",
    "Fecha_plantado": "2013-08-28T00:00:00Z",
    "Especie": "Encino Roble",
    "Fecha_registro": "2013-10-23",
    "Municipio": "San Nicolás",
    "Direccion": "Calle Montes Cárpatos 1000A, Las Puentes 4o Sector, MX_Loc2_test, 66460 Chandra's Test City [don't d",
    "lon": "",
    "lat": "",
    "id": "541a2cac908e69c4ed6fbf8d"
  },
  {
    "Arbol_id": 2485,
    "Folio": 0,
    "Usuario_id": "usuario2500",
    "Fecha_plantado": "2013-09-03T00:00:00Z",
    "Especie": "Encino Roble",
    "Fecha_registro": "2013-10-24",
    "Municipio": "San Nicolás",
    "Direccion": "Pensamiento 500-501, Hacienda del Roble, 66417 Nuevo Leon, Mexico",
    "lon": "",
    "lat": "",
    "id": "541a2cac908e69c4ed6fbf93"
  },
  {
    "Arbol_id": 2489,
    "Folio": 0,
    "Usuario_id": "usuario2500",
    "Fecha_plantado": "2013-09-03T00:00:00Z",
    "Especie": "Encino Roble",
    "Fecha_registro": "2013-10-24",
    "Municipio": "San Nicolás",
    "Direccion": "Del Roble, Sin Nombre de Colonia 7, Nuevo Leon, Mexico",
    "lon": "",
    "lat": "",
    "id": "541a2cac908e69c4ed6fbf97"
  },
  {
    "Arbol_id": 2490,
    "Folio": 0,
    "Usuario_id": "usuario2500",
    "Fecha_plantado": "2013-09-03T00:00:00Z",
    "Especie": "Encino Roble",
    "Fecha_registro": "2013-10-24",
    "Municipio": "San Nicolás",
    "Direccion": "Del Roble 208, Sin Nombre de Colonia 7, Nuevo Leon, Mexico",
    "lon": "",
    "lat": "",
    "id": "541a2cac908e69c4ed6fbf98"
  },
  {
    "Arbol_id": 2491,
    "Folio": 0,
    "Usuario_id": "usuario2500",
    "Fecha_plantado": "2013-09-24T00:00:00Z",
    "Especie": "Encino Roble",
    "Fecha_registro": "2013-10-24",
    "Municipio": "San Nicolás",
    "Direccion": "Fr. Sebastián Aparicio 725, Roble Norte, 66458 Nuevo Leon, Mexico",
    "lon": -100.3099594,
    "lat": 25.7439995,
    "id": "541a2cac908e69c4ed6fbf99"
  },
  {
    "Arbol_id": 2495,
    "Folio": 0,
    "Usuario_id": "usuario2500",
    "Fecha_plantado": "2013-10-01T00:00:00Z",
    "Especie": "Encino Roble",
    "Fecha_registro": "2013-10-24",
    "Municipio": "San Nicolás",
    "Direccion": "Heliotropo 140, Cuauhtémoc, 66450 Nuevo Leon, Mexico",
    "lon": -100.2997513,
    "lat": 25.7294407,
    "id": "541a2cac908e69c4ed6fbf9d"
  },
  {
    "Arbol_id": 2511,
    "Folio": 0,
    "Usuario_id": "usuario1388",
    "Fecha_plantado": "",
    "Especie": "Encino Roble",
    "Fecha_registro": "2013-10-26",
    "Municipio": "San Nicolás",
    "Direccion": "Villa de Casas 200-S, Sin Nombre de Colonia 3, Monterrey, state, México",
    "lon": "",
    "lat": "",
    "id": "541a2cac908e69c4ed6fbfad"
  },
  {
    "Arbol_id": 2512,
    "Folio": 0,
    "Usuario_id": "usuario1388",
    "Fecha_plantado": "",
    "Especie": "Encino Roble",
    "Fecha_registro": "2013-10-26",
    "Municipio": "San Nicolás",
    "Direccion": "Municipio de San Nicolás de los Garza Ornato y Forestación, Villa de Casas SN, Anáhuac, Villas de An",
    "lon": "",
    "lat": "",
    "id": "541a2cac908e69c4ed6fbfae"
  },
  {
    "Arbol_id": 2515,
    "Folio": 0,
    "Usuario_id": "usuario2500",
    "Fecha_plantado": "2013-10-10T00:00:00Z",
    "Especie": "Encino Roble",
    "Fecha_registro": "2013-10-28",
    "Municipio": "San Nicolás",
    "Direccion": "Olimpo 2002, Viejo Roble, 66418 Nuevo Leon, Mexico",
    "lon": "",
    "lat": "",
    "id": "541a2cac908e69c4ed6fbfb1"
  },
  {
    "Arbol_id": 2517,
    "Folio": 0,
    "Usuario_id": "usuario2500",
    "Fecha_plantado": "2013-10-21T00:00:00Z",
    "Especie": "Encino Roble",
    "Fecha_registro": "2013-10-28",
    "Municipio": "San Nicolás",
    "Direccion": "Ópalo 137, Cuauhtémoc, 66450 Nuevo Leon, Mexico",
    "lon": -100.2934113,
    "lat": 25.7318096,
    "id": "541a2cac908e69c4ed6fbfb3"
  },
  {
    "Arbol_id": 2518,
    "Folio": 0,
    "Usuario_id": "usuario2500",
    "Fecha_plantado": "2013-10-15T00:00:00Z",
    "Especie": "Encino Roble",
    "Fecha_registro": "2013-10-28",
    "Municipio": "San Nicolás",
    "Direccion": "De La Solidaridad 203, Las Alamedas, 66410 Nuevo Leon, Mexico",
    "lon": -100.2690506,
    "lat": 25.7665501,
    "id": "541a2cac908e69c4ed6fbfb4"
  },
  {
    "Arbol_id": 2524,
    "Folio": 0,
    "Usuario_id": "usuario2500",
    "Fecha_plantado": "2013-10-28T00:00:00Z",
    "Especie": "Encino Roble",
    "Fecha_registro": "2013-10-29",
    "Municipio": "San Nicolás",
    "Direccion": "Del Parque 924, Hacienda Los Morales 1er Sector, 66495 Nuevo Leon, Mexico",
    "lon": -100.2482452,
    "lat": 25.7117062,
    "id": "541a2cac908e69c4ed6fbfba"
  },
  {
    "Arbol_id": 2529,
    "Folio": 0,
    "Usuario_id": "usuario2500",
    "Fecha_plantado": "2013-10-17T00:00:00Z",
    "Especie": "Encino Roble",
    "Fecha_registro": "2013-10-29",
    "Municipio": "San Nicolás",
    "Direccion": "Venustiano Carranza 279, Constituyentes de Querétaro 3er Sector, 66490 Nuevo Leon, Mexico",
    "lon": -100.2546234,
    "lat": 25.7236099,
    "id": "541a2cac908e69c4ed6fbfbf"
  },
  {
    "Arbol_id": 2585,
    "Folio": 53,
    "Usuario_id": "usuario1950",
    "Fecha_plantado": "",
    "Especie": "Encino Roble",
    "Fecha_registro": "2013-10-31",
    "Municipio": "Monterrey",
    "Direccion": "Avenida Valle Alto 101, Valle Alto, 64989 Monterrey, NL, México",
    "lon": -100.2693481,
    "lat": 25.5750618,
    "id": "541a2cac908e69c4ed6fbfeb"
  },
  {
    "Arbol_id": 2597,
    "Folio": 0,
    "Usuario_id": "usuario2448",
    "Fecha_plantado": "",
    "Especie": "Encino Roble",
    "Fecha_registro": "2013-11-01",
    "Municipio": "San Pedro",
    "Direccion": "16 de Septiembre 203, Casco Urbano, 66230 NL, M",
    "lon": "",
    "lat": "",
    "id": "541a2cac908e69c4ed6fbff6"
  },
  {
    "Arbol_id": 2678,
    "Folio": 0,
    "Usuario_id": "usuario2143",
    "Fecha_plantado": "",
    "Especie": "Encino Roble",
    "Fecha_registro": "2013-11-02",
    "Municipio": "Monterrey",
    "Direccion": "Puerto Márquez 3957, Las Brisas 8o. Sector, Brisas, 64790 Monterrey, Nuevo Leon, Mexico",
    "lon": -100.283577,
    "lat": 25.6238003,
    "id": "541a2cac908e69c4ed6fc042"
  },
  {
    "Arbol_id": 2690,
    "Folio": 0,
    "Usuario_id": "usuario1165",
    "Fecha_plantado": "",
    "Especie": "Encino Roble",
    "Fecha_registro": "2013-11-02",
    "Municipio": "San Pedro",
    "Direccion": "Mirador del Valle 103, Lomas del Valle, 66256 Monterrey, Nuevo Leon, Mexico",
    "lon": -100.3773575,
    "lat": 25.6412506,
    "id": "541a2cac908e69c4ed6fc04e"
  },
  {
    "Arbol_id": 2711,
    "Folio": 0,
    "Usuario_id": "usuario1436",
    "Fecha_plantado": "",
    "Especie": "Encino Roble",
    "Fecha_registro": "2013-11-03",
    "Municipio": "San Pedro",
    "Direccion": "Río Guadalquivir 134, Del Valle, 66220 Monterrey, Nuevo Leon, Mexico",
    "lon": -100.366272,
    "lat": 25.6611824,
    "id": "541a2cac908e69c4ed6fc062"
  },
  {
    "Arbol_id": 2712,
    "Folio": 0,
    "Usuario_id": "usuario1436",
    "Fecha_plantado": "",
    "Especie": "Encino Roble",
    "Fecha_registro": "2013-11-03",
    "Municipio": "San Pedro",
    "Direccion": "Río Guadalquivir 200, Del Valle, 66220 Monterrey, Nuevo Leon, Mexico",
    "lon": -100.3642883,
    "lat": 25.6605854,
    "id": "541a2cac908e69c4ed6fc063"
  },
  {
    "Arbol_id": 2714,
    "Folio": 0,
    "Usuario_id": "usuario1436",
    "Fecha_plantado": "",
    "Especie": "Encino Roble",
    "Fecha_registro": "2013-11-03",
    "Municipio": "San Pedro",
    "Direccion": "Río Guadalquivir 204, Del Valle, 66220 Monterrey, Nuevo Leon, Mexico",
    "lon": -100.3641815,
    "lat": 25.6605568,
    "id": "541a2cac908e69c4ed6fc065"
  },
  {
    "Arbol_id": 2726,
    "Folio": 0,
    "Usuario_id": "usuario1436",
    "Fecha_plantado": "",
    "Especie": "Encino Roble",
    "Fecha_registro": "2013-11-03",
    "Municipio": "San Pedro",
    "Direccion": "Río Guadalquivir 222, Del Valle, 66220 San Pedro Garza García, Nuevo Leon, Mexico",
    "lon": -100.3637238,
    "lat": 25.6604271,
    "id": "541a2cac908e69c4ed6fc071"
  },
  {
    "Arbol_id": 2728,
    "Folio": 0,
    "Usuario_id": "usuario1436",
    "Fecha_plantado": "",
    "Especie": "Encino Roble",
    "Fecha_registro": "2013-11-03",
    "Municipio": "San Pedro",
    "Direccion": "Río Guadalquivir 236, Del Valle, 66220 Nuevo Leon, Mexico",
    "lon": -100.3633652,
    "lat": 25.660326,
    "id": "541a2cac908e69c4ed6fc073"
  },
  {
    "Arbol_id": 2737,
    "Folio": 0,
    "Usuario_id": "usuario1436",
    "Fecha_plantado": "",
    "Especie": "Encino Roble",
    "Fecha_registro": "2013-11-03",
    "Municipio": "San Pedro",
    "Direccion": "Río Guadalquivir 301, Del Valle, 66220 Monterrey, Nuevo Leon, Mexico",
    "lon": -100.3613739,
    "lat": 25.6600361,
    "id": "541a2cac908e69c4ed6fc07c"
  },
  {
    "Arbol_id": 2741,
    "Folio": 0,
    "Usuario_id": "usuario2500",
    "Fecha_plantado": "2013-07-02T00:00:00Z",
    "Especie": "Encino Roble",
    "Fecha_registro": "2013-11-04",
    "Municipio": "San Nicolás",
    "Direccion": "Río Ecuador 244, Casa Blanca San Angel, 66475 Nuevo Leon, Mexico",
    "lon": -100.2394485,
    "lat": 25.7304707,
    "id": "541a2cac908e69c4ed6fc080"
  },
  {
    "Arbol_id": 2742,
    "Folio": 0,
    "Usuario_id": "usuario2500",
    "Fecha_plantado": "2013-07-02T00:00:00Z",
    "Especie": "Encino Roble",
    "Fecha_registro": "2013-11-04",
    "Municipio": "San Nicolás",
    "Direccion": "Río Ecuador 238, Casa Blanca San Angel, 66475 Nuevo Leon, Mexico",
    "lon": -100.2394485,
    "lat": 25.7304707,
    "id": "541a2cac908e69c4ed6fc081"
  },
  {
    "Arbol_id": 2743,
    "Folio": 0,
    "Usuario_id": "usuario2500",
    "Fecha_plantado": "2013-07-02T00:00:00Z",
    "Especie": "Encino Roble",
    "Fecha_registro": "2013-11-04",
    "Municipio": "San Nicolás",
    "Direccion": "Río Ecuador SN-S ESC. PRIM. MARGARITA DE GORTARI, Casa Blanca San Angel, 66475 Nuevo Leon, Mexico",
    "lon": -100.2394485,
    "lat": 25.7304707,
    "id": "541a2cac908e69c4ed6fc082"
  },
  {
    "Arbol_id": 2744,
    "Folio": 0,
    "Usuario_id": "usuario2500",
    "Fecha_plantado": "2013-07-02T00:00:00Z",
    "Especie": "Encino Roble",
    "Fecha_registro": "2013-11-04",
    "Municipio": "San Nicolás",
    "Direccion": "Río Ecuador 224, Casa Blanca San Angel, 66475 Nuevo Leon, Mexico",
    "lon": -100.2394485,
    "lat": 25.7304707,
    "id": "541a2cac908e69c4ed6fc083"
  },
  {
    "Arbol_id": 2745,
    "Folio": 0,
    "Usuario_id": "usuario2500",
    "Fecha_plantado": "2013-07-02T00:00:00Z",
    "Especie": "Encino Roble",
    "Fecha_registro": "2013-11-04",
    "Municipio": "San Nicolás",
    "Direccion": "Argentina 1106, Casa Blanca San Angel, 66475 Nuevo Leon, Mexico",
    "lon": -100.2365723,
    "lat": 25.7327309,
    "id": "541a2cac908e69c4ed6fc084"
  },
  {
    "Arbol_id": 2746,
    "Folio": 0,
    "Usuario_id": "usuario2500",
    "Fecha_plantado": "2013-07-02T00:00:00Z",
    "Especie": "Encino Roble",
    "Fecha_registro": "2013-11-04",
    "Municipio": "San Nicolás",
    "Direccion": "Argentina 1110, Casa Blanca San Angel, 66475 Nuevo Leon, Mexico",
    "lon": -100.2365723,
    "lat": 25.7327309,
    "id": "541a2cac908e69c4ed6fc085"
  },
  {
    "Arbol_id": 2747,
    "Folio": 0,
    "Usuario_id": "usuario2500",
    "Fecha_plantado": "2013-08-06T00:00:00Z",
    "Especie": "Encino Roble",
    "Fecha_registro": "2013-11-04",
    "Municipio": "San Nicolás",
    "Direccion": "México 1125, Casa Blanca San Angel, 66475 Nuevo Leon, Mexico",
    "lon": "",
    "lat": "",
    "id": "541a2cac908e69c4ed6fc086"
  },
  {
    "Arbol_id": 2748,
    "Folio": 0,
    "Usuario_id": "usuario2500",
    "Fecha_plantado": "2013-08-06T00:00:00Z",
    "Especie": "Encino Roble",
    "Fecha_registro": "2013-11-04",
    "Municipio": "San Nicolás",
    "Direccion": "México 1123, Casa Blanca San Angel, 66475 Nuevo Leon, Mexico",
    "lon": "",
    "lat": "",
    "id": "541a2cac908e69c4ed6fc087"
  },
  {
    "Arbol_id": 2749,
    "Folio": 0,
    "Usuario_id": "usuario2500",
    "Fecha_plantado": "2013-08-06T00:00:00Z",
    "Especie": "Encino Roble",
    "Fecha_registro": "2013-11-04",
    "Municipio": "San Nicolás",
    "Direccion": "Paseo de La Hermandad 213, Casa Blanca San Angel, 66475 Nuevo Leon, Mexico",
    "lon": "",
    "lat": "",
    "id": "541a2cac908e69c4ed6fc088"
  },
  {
    "Arbol_id": 2750,
    "Folio": 0,
    "Usuario_id": "usuario2500",
    "Fecha_plantado": "2013-08-06T00:00:00Z",
    "Especie": "Encino Roble",
    "Fecha_registro": "2013-11-04",
    "Municipio": "San Nicolás",
    "Direccion": "México 1115, Casa Blanca San Angel, 66475 Nuevo Leon, Mexico",
    "lon": "",
    "lat": "",
    "id": "541a2cac908e69c4ed6fc089"
  },
  {
    "Arbol_id": 2754,
    "Folio": 0,
    "Usuario_id": "usuario1599",
    "Fecha_plantado": "2013-07-09T00:00:00Z",
    "Especie": "Encino Roble",
    "Fecha_registro": "2013-11-04",
    "Municipio": "San Nicolás",
    "Direccion": "Río Nazas 330, Riberas de Las Puentes, 66465 NL, México",
    "lon": -100.2850113,
    "lat": 25.7382202,
    "id": "541a2cac908e69c4ed6fc08d"
  },
  {
    "Arbol_id": 2769,
    "Folio": 0,
    "Usuario_id": "usuario1436",
    "Fecha_plantado": "",
    "Especie": "Encino Roble",
    "Fecha_registro": "2013-11-04",
    "Municipio": "San Pedro",
    "Direccion": "Río Guadalquivir 322, Del Valle, 66220 Nuevo Leon, Mexico",
    "lon": -100.3609543,
    "lat": 25.6596298,
    "id": "541a2cac908e69c4ed6fc09c"
  },
  {
    "Arbol_id": 2778,
    "Folio": 0,
    "Usuario_id": "usuario2500",
    "Fecha_plantado": "2013-09-30T00:00:00Z",
    "Especie": "Encino Roble",
    "Fecha_registro": "2013-11-05",
    "Municipio": "San Nicolás",
    "Direccion": "Puerto Marqués 900, Residencial Ribiera, 66490 Nuevo Leon, Mexico",
    "lon": -100.2453995,
    "lat": 25.7091599,
    "id": "541a2cac908e69c4ed6fc09f"
  },
  {
    "Arbol_id": 2784,
    "Folio": 0,
    "Usuario_id": "usuario2500",
    "Fecha_plantado": "2013-10-17T00:00:00Z",
    "Especie": "Encino Roble",
    "Fecha_registro": "2013-11-05",
    "Municipio": "San Nicolás",
    "Direccion": "Puerto Morelos, Nuevo Mundo, 66490 Nuevo Leon, Mexico",
    "lon": -100.2462769,
    "lat": 25.7090607,
    "id": "541a2cac908e69c4ed6fc0a5"
  },
  {
    "Arbol_id": 2786,
    "Folio": 0,
    "Usuario_id": "usuario2500",
    "Fecha_plantado": "2013-10-03T00:00:00Z",
    "Especie": "Encino Roble",
    "Fecha_registro": "2013-11-05",
    "Municipio": "San Nicolás",
    "Direccion": "Ebanos 844, Hacienda Los Morales 2o Sector, 66496 Nuevo Leon, Mexico",
    "lon": -100.2465134,
    "lat": 25.7161503,
    "id": "541a2cac908e69c4ed6fc0a6"
  },
  {
    "Arbol_id": 2793,
    "Folio": 0,
    "Usuario_id": "usuario2500",
    "Fecha_plantado": "2013-10-17T00:00:00Z",
    "Especie": "Encino Roble",
    "Fecha_registro": "2013-11-06",
    "Municipio": "San Nicolás",
    "Direccion": "Calle de los Pinos 900A, Hacienda Los Morales 2o Sector, 66496 Nuevo Leon, Mexico",
    "lon": -100.2457733,
    "lat": 25.7167797,
    "id": "541a2cac908e69c4ed6fc0ad"
  },
  {
    "Arbol_id": 2794,
    "Folio": 0,
    "Usuario_id": "usuario2500",
    "Fecha_plantado": "2013-10-17T00:00:00Z",
    "Especie": "Encino Roble",
    "Fecha_registro": "2013-11-06",
    "Municipio": "San Nicolás",
    "Direccion": "Calle de los Pinos 900A, Hacienda Los Morales 2o Sector, 66496 Nuevo Leon, Mexico",
    "lon": -100.2457733,
    "lat": 25.7167797,
    "id": "541a2cac908e69c4ed6fc0ae"
  },
  {
    "Arbol_id": 2795,
    "Folio": 0,
    "Usuario_id": "usuario2500",
    "Fecha_plantado": "2013-10-17T00:00:00Z",
    "Especie": "Encino Roble",
    "Fecha_registro": "2013-11-06",
    "Municipio": "San Nicolás",
    "Direccion": "Calle de los Pinos, Hacienda Los Morales 2o Sector, 66496 Nuevo Leon, Mexico",
    "lon": -100.2457733,
    "lat": 25.7167797,
    "id": "541a2cac908e69c4ed6fc0af"
  },
  {
    "Arbol_id": 2796,
    "Folio": 0,
    "Usuario_id": "usuario2500",
    "Fecha_plantado": "2013-10-17T00:00:00Z",
    "Especie": "Encino Roble",
    "Fecha_registro": "2013-11-06",
    "Municipio": "San Nicolás",
    "Direccion": "Calle Iturbide 908, Hacienda Los Morales 3er Sector, 66496 Nuevo Leon, Mexico",
    "lon": -100.2444916,
    "lat": 25.7118797,
    "id": "541a2cac908e69c4ed6fc0b0"
  },
  {
    "Arbol_id": 2797,
    "Folio": 0,
    "Usuario_id": "usuario2500",
    "Fecha_plantado": "2013-10-17T00:00:00Z",
    "Especie": "Encino Roble",
    "Fecha_registro": "2013-11-06",
    "Municipio": "San Nicolás",
    "Direccion": "Calle Iturbide 908, Hacienda Los Morales 3er Sector, 66496 Nuevo Leon, Mexico",
    "lon": -100.2444916,
    "lat": 25.7118797,
    "id": "541a2cac908e69c4ed6fc0b1"
  },
  {
    "Arbol_id": 2798,
    "Folio": 0,
    "Usuario_id": "usuario2500",
    "Fecha_plantado": "2013-10-17T00:00:00Z",
    "Especie": "Encino Roble",
    "Fecha_registro": "2013-11-06",
    "Municipio": "San Nicolás",
    "Direccion": "Calle Iturbide 908, Hacienda Los Morales 3er Sector, 66496 Nuevo Leon, Mexico",
    "lon": -100.2444916,
    "lat": 25.7118797,
    "id": "541a2cac908e69c4ed6fc0b2"
  },
  {
    "Arbol_id": 2799,
    "Folio": 0,
    "Usuario_id": "usuario2500",
    "Fecha_plantado": "2013-10-17T00:00:00Z",
    "Especie": "Encino Roble",
    "Fecha_registro": "2013-11-06",
    "Municipio": "San Nicolás",
    "Direccion": "Calle Iturbide 916, Hacienda Los Morales 3er Sector, 66496 Nuevo Leon, Mexico",
    "lon": -100.2441483,
    "lat": 25.7119293,
    "id": "541a2cac908e69c4ed6fc0b3"
  },
  {
    "Arbol_id": 2800,
    "Folio": 0,
    "Usuario_id": "usuario2500",
    "Fecha_plantado": "2013-10-17T00:00:00Z",
    "Especie": "Encino Roble",
    "Fecha_registro": "2013-11-06",
    "Municipio": "San Nicolás",
    "Direccion": "Calle Iturbide 912, Hacienda Los Morales 3er Sector, 66496 Nuevo Leon, Mexico",
    "lon": -100.2443466,
    "lat": 25.7119007,
    "id": "541a2cac908e69c4ed6fc0b4"
  },
  {
    "Arbol_id": 2802,
    "Folio": 0,
    "Usuario_id": "usuario2500",
    "Fecha_plantado": "2013-05-31T00:00:00Z",
    "Especie": "Encino Roble",
    "Fecha_registro": "2013-11-06",
    "Municipio": "San Nicolás",
    "Direccion": "Encinos, Industrias del Vidrio Oriente, 66470 Nuevo Leon, Mexico",
    "lon": "",
    "lat": "",
    "id": "541a2cac908e69c4ed6fc0b6"
  },
  {
    "Arbol_id": 2803,
    "Folio": 0,
    "Usuario_id": "usuario2500",
    "Fecha_plantado": "2013-09-12T00:00:00Z",
    "Especie": "Encino Roble",
    "Fecha_registro": "2013-11-06",
    "Municipio": "San Nicolás",
    "Direccion": "Laguna de Alvarado 403, Del Lago, 66477 Nuevo Leon, Mexico",
    "lon": -100.2187958,
    "lat": 25.7260742,
    "id": "541a2cac908e69c4ed6fc0b7"
  },
  {
    "Arbol_id": 2804,
    "Folio": 0,
    "Usuario_id": "usuario2500",
    "Fecha_plantado": "2013-09-12T00:00:00Z",
    "Especie": "Encino Roble",
    "Fecha_registro": "2013-11-06",
    "Municipio": "San Nicolás",
    "Direccion": "Laguna de Alvarado 403, Del Lago, 66477 Nuevo Leon, Mexico",
    "lon": -100.2187958,
    "lat": 25.7260742,
    "id": "541a2cac908e69c4ed6fc0b8"
  },
  {
    "Arbol_id": 2811,
    "Folio": 0,
    "Usuario_id": "usuario1599",
    "Fecha_plantado": "",
    "Especie": "Encino Roble",
    "Fecha_registro": "2013-11-06",
    "Municipio": "San Nicolás",
    "Direccion": "Vulcano 400, Paseo de San Nicolás 1er Sector, 66446 NL, México",
    "lon": -100.2579803,
    "lat": 25.7418194,
    "id": "541a2cac908e69c4ed6fc0bf"
  },
  {
    "Arbol_id": 2838,
    "Folio": 0,
    "Usuario_id": "usuario375",
    "Fecha_plantado": "",
    "Especie": "Encino Roble",
    "Fecha_registro": "2013-11-08",
    "Municipio": "Apodaca",
    "Direccion": "Fidel Velásquez 116, Alberta Escamilla, 66640 Nuevo Leon, Mexico",
    "lon": -100.1709824,
    "lat": 25.7341309,
    "id": "541a2cac908e69c4ed6fc0d9"
  },
  {
    "Arbol_id": 2839,
    "Folio": 0,
    "Usuario_id": "usuario375",
    "Fecha_plantado": "",
    "Especie": "Encino Roble",
    "Fecha_registro": "2013-11-08",
    "Municipio": "Apodaca",
    "Direccion": "Fidel Velásquez 114, Alberta Escamilla, 66640 Nuevo Leon, Mexico",
    "lon": -100.1710129,
    "lat": 25.7342205,
    "id": "541a2cac908e69c4ed6fc0da"
  },
  {
    "Arbol_id": 2840,
    "Folio": 0,
    "Usuario_id": "usuario375",
    "Fecha_plantado": "",
    "Especie": "Encino Roble",
    "Fecha_registro": "2013-11-08",
    "Municipio": "Apodaca",
    "Direccion": "Fidel Velásquez 116, Alberta Escamilla, 66640 Nuevo Leon, Mexico",
    "lon": -100.1709824,
    "lat": 25.7341309,
    "id": "541a2cac908e69c4ed6fc0db"
  },
  {
    "Arbol_id": 2841,
    "Folio": 0,
    "Usuario_id": "usuario375",
    "Fecha_plantado": "",
    "Especie": "Encino Roble",
    "Fecha_registro": "2013-11-08",
    "Municipio": "Guadalupe",
    "Direccion": "Jesús Yuren, Alberta Escamilla, 66640 Nuevo Leon, Mexico",
    "lon": -100.1705399,
    "lat": 25.7343197,
    "id": "541a2cac908e69c4ed6fc0dc"
  },
  {
    "Arbol_id": 2842,
    "Folio": 0,
    "Usuario_id": "usuario375",
    "Fecha_plantado": "",
    "Especie": "Encino Roble",
    "Fecha_registro": "2013-11-08",
    "Municipio": "Apodaca",
    "Direccion": "Fidel Velásquez 112, Alberta Escamilla, 66640 Nuevo Leon, Mexico",
    "lon": -100.1710434,
    "lat": 25.7343006,
    "id": "541a2cac908e69c4ed6fc0dd"
  },
  {
    "Arbol_id": 2843,
    "Folio": 0,
    "Usuario_id": "usuario375",
    "Fecha_plantado": "",
    "Especie": "Encino Roble",
    "Fecha_registro": "2013-11-08",
    "Municipio": "Apodaca",
    "Direccion": "Fidel Velásquez 114, Alberta Escamilla, 66640 Nuevo Leon, Mexico",
    "lon": -100.1710129,
    "lat": 25.7342205,
    "id": "541a2cac908e69c4ed6fc0de"
  },
  {
    "Arbol_id": 2844,
    "Folio": 0,
    "Usuario_id": "usuario375",
    "Fecha_plantado": "",
    "Especie": "Encino Roble",
    "Fecha_registro": "2013-11-08",
    "Municipio": "Apodaca",
    "Direccion": "Fidel Velásquez 114, Alberta Escamilla, 66640 Nuevo Leon, Mexico",
    "lon": -100.1710129,
    "lat": 25.7342205,
    "id": "541a2cac908e69c4ed6fc0df"
  },
  {
    "Arbol_id": 2845,
    "Folio": 0,
    "Usuario_id": "usuario375",
    "Fecha_plantado": "",
    "Especie": "Encino Roble",
    "Fecha_registro": "2013-11-08",
    "Municipio": "Apodaca",
    "Direccion": "Jesús Yuren, Alberta Escamilla, 66640 Nuevo Leon, Mexico",
    "lon": -100.1705399,
    "lat": 25.7343197,
    "id": "541a2cac908e69c4ed6fc0e0"
  },
  {
    "Arbol_id": 2846,
    "Folio": 0,
    "Usuario_id": "usuario375",
    "Fecha_plantado": "",
    "Especie": "Encino Roble",
    "Fecha_registro": "2013-11-08",
    "Municipio": "Apodaca",
    "Direccion": "Fidel Velásquez 112, Alberta Escamilla, 66640 Nuevo Leon, Mexico",
    "lon": -100.1710434,
    "lat": 25.7343006,
    "id": "541a2cac908e69c4ed6fc0e1"
  },
  {
    "Arbol_id": 2847,
    "Folio": 0,
    "Usuario_id": "usuario375",
    "Fecha_plantado": "",
    "Especie": "Encino Roble",
    "Fecha_registro": "2013-11-08",
    "Municipio": "Apodaca",
    "Direccion": "Jesús Yuren, Alberta Escamilla, 66640 Nuevo Leon, Mexico",
    "lon": -100.1705399,
    "lat": 25.7343197,
    "id": "541a2cac908e69c4ed6fc0e2"
  },
  {
    "Arbol_id": 2848,
    "Folio": 0,
    "Usuario_id": "usuario375",
    "Fecha_plantado": "",
    "Especie": "Encino Roble",
    "Fecha_registro": "2013-11-08",
    "Municipio": "Apodaca",
    "Direccion": "Jesús Yuren, Alberta Escamilla, 66640 Nuevo Leon, Mexico",
    "lon": -100.1705399,
    "lat": 25.7343197,
    "id": "541a2cac908e69c4ed6fc0e3"
  },
  {
    "Arbol_id": 2849,
    "Folio": 0,
    "Usuario_id": "usuario375",
    "Fecha_plantado": "",
    "Especie": "Encino Roble",
    "Fecha_registro": "2013-11-08",
    "Municipio": "Apodaca",
    "Direccion": "Jesús Yuren, Alberta Escamilla, 66640 Nuevo Leon, Mexico",
    "lon": -100.1705399,
    "lat": 25.7343197,
    "id": "541a2cac908e69c4ed6fc0e4"
  },
  {
    "Arbol_id": 2850,
    "Folio": 0,
    "Usuario_id": "usuario375",
    "Fecha_plantado": "",
    "Especie": "Encino Roble",
    "Fecha_registro": "2013-11-08",
    "Municipio": "Apodaca",
    "Direccion": "Jesús Yuren, Alberta Escamilla, 66640 Nuevo Leon, Mexico",
    "lon": -100.1705399,
    "lat": 25.7343197,
    "id": "541a2cac908e69c4ed6fc0e5"
  },
  {
    "Arbol_id": 2851,
    "Folio": 0,
    "Usuario_id": "usuario375",
    "Fecha_plantado": "",
    "Especie": "Encino Roble",
    "Fecha_registro": "2013-11-08",
    "Municipio": "Apodaca",
    "Direccion": "Jesús Yuren, Alberta Escamilla, 66640 Nuevo Leon, Mexico",
    "lon": -100.1705399,
    "lat": 25.7343197,
    "id": "541a2cac908e69c4ed6fc0e6"
  },
  {
    "Arbol_id": 2852,
    "Folio": 0,
    "Usuario_id": "usuario375",
    "Fecha_plantado": "",
    "Especie": "Encino Roble",
    "Fecha_registro": "2013-11-08",
    "Municipio": "Apodaca",
    "Direccion": "Jesús Yuren, Alberta Escamilla, 66640 Nuevo Leon, Mexico",
    "lon": -100.1705399,
    "lat": 25.7343197,
    "id": "541a2cac908e69c4ed6fc0e7"
  },
  {
    "Arbol_id": 2853,
    "Folio": 0,
    "Usuario_id": "usuario375",
    "Fecha_plantado": "",
    "Especie": "Encino Roble",
    "Fecha_registro": "2013-11-08",
    "Municipio": "Apodaca",
    "Direccion": "Jesús Yuren, Alberta Escamilla, 66640 Nuevo Leon, Mexico",
    "lon": -100.1705399,
    "lat": 25.7343197,
    "id": "541a2cac908e69c4ed6fc0e8"
  },
  {
    "Arbol_id": 2854,
    "Folio": 0,
    "Usuario_id": "usuario375",
    "Fecha_plantado": "",
    "Especie": "Encino Roble",
    "Fecha_registro": "2013-11-08",
    "Municipio": "Apodaca",
    "Direccion": "Jesús Yuren, Alberta Escamilla, 66640 Nuevo Leon, Mexico",
    "lon": -100.1705399,
    "lat": 25.7343197,
    "id": "541a2cac908e69c4ed6fc0e9"
  },
  {
    "Arbol_id": 2855,
    "Folio": 0,
    "Usuario_id": "usuario375",
    "Fecha_plantado": "",
    "Especie": "Encino Roble",
    "Fecha_registro": "2013-11-08",
    "Municipio": "Apodaca",
    "Direccion": "Jesús Yuren, Alberta Escamilla, 66640 Nuevo Leon, Mexico",
    "lon": -100.1705399,
    "lat": 25.7343197,
    "id": "541a2cac908e69c4ed6fc0ea"
  },
  {
    "Arbol_id": 2856,
    "Folio": 0,
    "Usuario_id": "usuario375",
    "Fecha_plantado": "",
    "Especie": "Encino Roble",
    "Fecha_registro": "2013-11-08",
    "Municipio": "Apodaca",
    "Direccion": "Jesús Yuren, Alberta Escamilla, 66640 Nuevo Leon, Mexico",
    "lon": -100.1705399,
    "lat": 25.7343197,
    "id": "541a2cac908e69c4ed6fc0eb"
  },
  {
    "Arbol_id": 2857,
    "Folio": 0,
    "Usuario_id": "usuario375",
    "Fecha_plantado": "",
    "Especie": "Encino Roble",
    "Fecha_registro": "2013-11-08",
    "Municipio": "Apodaca",
    "Direccion": "Jesús Yuren, Alberta Escamilla, 66640 Nuevo Leon, Mexico",
    "lon": -100.1705399,
    "lat": 25.7343197,
    "id": "541a2cac908e69c4ed6fc0ec"
  },
  {
    "Arbol_id": 2858,
    "Folio": 0,
    "Usuario_id": "usuario375",
    "Fecha_plantado": "",
    "Especie": "Encino Roble",
    "Fecha_registro": "2013-11-08",
    "Municipio": "Apodaca",
    "Direccion": "Jesús Yuren, Alberta Escamilla, 66640 Nuevo Leon, Mexico",
    "lon": -100.1705399,
    "lat": 25.7343197,
    "id": "541a2cac908e69c4ed6fc0ed"
  },
  {
    "Arbol_id": 2859,
    "Folio": 0,
    "Usuario_id": "usuario375",
    "Fecha_plantado": "",
    "Especie": "Encino Roble",
    "Fecha_registro": "2013-11-08",
    "Municipio": "Apodaca",
    "Direccion": "Jesús Yuren, Alberta Escamilla, 66640 Nuevo Leon, Mexico",
    "lon": -100.1705399,
    "lat": 25.7343197,
    "id": "541a2cac908e69c4ed6fc0ee"
  },
  {
    "Arbol_id": 2860,
    "Folio": 0,
    "Usuario_id": "usuario375",
    "Fecha_plantado": "",
    "Especie": "Encino Roble",
    "Fecha_registro": "2013-11-08",
    "Municipio": "Apodaca",
    "Direccion": "Jesús Yuren, Alberta Escamilla, 66640 Nuevo Leon, Mexico",
    "lon": -100.1705399,
    "lat": 25.7343197,
    "id": "541a2cac908e69c4ed6fc0ef"
  },
  {
    "Arbol_id": 2861,
    "Folio": 0,
    "Usuario_id": "usuario375",
    "Fecha_plantado": "",
    "Especie": "Encino Roble",
    "Fecha_registro": "2013-11-08",
    "Municipio": "Apodaca",
    "Direccion": "Jesús Yuren, Alberta Escamilla, 66640 Nuevo Leon, Mexico",
    "lon": -100.1705399,
    "lat": 25.7343197,
    "id": "541a2cac908e69c4ed6fc0f0"
  },
  {
    "Arbol_id": 2862,
    "Folio": 0,
    "Usuario_id": "usuario375",
    "Fecha_plantado": "",
    "Especie": "Encino Roble",
    "Fecha_registro": "2013-11-08",
    "Municipio": "Apodaca",
    "Direccion": "Jesús Yuren, Alberta Escamilla, 66640 Nuevo Leon, Mexico",
    "lon": -100.1705399,
    "lat": 25.7343197,
    "id": "541a2cac908e69c4ed6fc0f1"
  },
  {
    "Arbol_id": 2863,
    "Folio": 0,
    "Usuario_id": "usuario375",
    "Fecha_plantado": "",
    "Especie": "Encino Roble",
    "Fecha_registro": "2013-11-08",
    "Municipio": "Apodaca",
    "Direccion": "Jesús Yuren, Alberta Escamilla, 66640 Nuevo Leon, Mexico",
    "lon": -100.1705399,
    "lat": 25.7343197,
    "id": "541a2cac908e69c4ed6fc0f2"
  },
  {
    "Arbol_id": 2864,
    "Folio": 0,
    "Usuario_id": "usuario375",
    "Fecha_plantado": "",
    "Especie": "Encino Roble",
    "Fecha_registro": "2013-11-08",
    "Municipio": "Apodaca",
    "Direccion": "Zafiro, Joyas del Pedregal, Nuevo Leon, Mexico",
    "lon": -101.2014389,
    "lat": 20.1242695,
    "id": "541a2cac908e69c4ed6fc0f3"
  },
  {
    "Arbol_id": 2865,
    "Folio": 0,
    "Usuario_id": "usuario375",
    "Fecha_plantado": "",
    "Especie": "Encino Roble",
    "Fecha_registro": "2013-11-08",
    "Municipio": "Apodaca",
    "Direccion": "Zafiro, Joyas del Pedregal, Nuevo Leon, Mexico",
    "lon": -101.2014389,
    "lat": 20.1242695,
    "id": "541a2cac908e69c4ed6fc0f4"
  },
  {
    "Arbol_id": 2867,
    "Folio": 0,
    "Usuario_id": "usuario375",
    "Fecha_plantado": "",
    "Especie": "Encino Roble",
    "Fecha_registro": "2013-11-08",
    "Municipio": "Apodaca",
    "Direccion": "Jesús Yuren, Alberta Escamilla, 66640 Nuevo Leon, Mexico",
    "lon": -100.1705399,
    "lat": 25.7343197,
    "id": "541a2cac908e69c4ed6fc0f6"
  },
  {
    "Arbol_id": 2940,
    "Folio": 0,
    "Usuario_id": "usuario2500",
    "Fecha_plantado": "2013-10-31T00:00:00Z",
    "Especie": "Encino Roble",
    "Fecha_registro": "2013-11-12",
    "Municipio": "San Nicolás",
    "Direccion": "Sevilla 621, Andalucía, 66470 Nuevo Leon, Mexico",
    "lon": -100.2437363,
    "lat": 25.7259502,
    "id": "541a2cac908e69c4ed6fc132"
  },
  {
    "Arbol_id": 2947,
    "Folio": 0,
    "Usuario_id": "usuario2500",
    "Fecha_plantado": "2013-08-08T00:00:00Z",
    "Especie": "Encino Roble",
    "Fecha_registro": "2013-11-12",
    "Municipio": "San Nicolás",
    "Direccion": "San Francisco 152, Residencial San Felipe, 66499 Nuevo Leon, Mexico",
    "lon": -100.2609863,
    "lat": 25.7195892,
    "id": "541a2cac908e69c4ed6fc139"
  },
  {
    "Arbol_id": 2948,
    "Folio": 0,
    "Usuario_id": "usuario2500",
    "Fecha_plantado": "2013-09-10T00:00:00Z",
    "Especie": "Encino Roble",
    "Fecha_registro": "2013-11-12",
    "Municipio": "San Nicolás",
    "Direccion": "Casa del Alba 1326, Rincón de Casa Blanca 2o Sector, 66478 Nuevo Leon, Mexico",
    "lon": -100.2281418,
    "lat": 25.7326202,
    "id": "541a2cac908e69c4ed6fc13a"
  },
  {
    "Arbol_id": 2952,
    "Folio": 0,
    "Usuario_id": "usuario2500",
    "Fecha_plantado": "2013-09-05T00:00:00Z",
    "Especie": "Encino Roble",
    "Fecha_registro": "2013-11-12",
    "Municipio": "San Nicolás",
    "Direccion": "Puerto Rico 116, Privadas de Casa Blanca, 66478 Nuevo Leon, Mexico",
    "lon": "",
    "lat": "",
    "id": "541a2cac908e69c4ed6fc13e"
  },
  {
    "Arbol_id": 2953,
    "Folio": 0,
    "Usuario_id": "usuario2500",
    "Fecha_plantado": "2013-09-05T00:00:00Z",
    "Especie": "Encino Roble",
    "Fecha_registro": "2013-11-12",
    "Municipio": "San Nicolás",
    "Direccion": "Calle Brasil 201, Sin Nombre de Colonia 1, 66475 Nuevo Leon, Mexico",
    "lon": -100.235939,
    "lat": 25.7347393,
    "id": "541a2cac908e69c4ed6fc13f"
  },
  {
    "Arbol_id": 2954,
    "Folio": 0,
    "Usuario_id": "usuario2500",
    "Fecha_plantado": "2013-09-05T00:00:00Z",
    "Especie": "Encino Roble",
    "Fecha_registro": "2013-11-12",
    "Municipio": "San Nicolás",
    "Direccion": "Calle Brasil 1629, Villas de Casa Blanca, 66475 Nuevo Leon, Mexico",
    "lon": -100.2348404,
    "lat": 25.7362995,
    "id": "541a2cac908e69c4ed6fc140"
  },
  {
    "Arbol_id": 3064,
    "Folio": 116,
    "Usuario_id": "usuario1822",
    "Fecha_plantado": "",
    "Especie": "Encino Roble",
    "Fecha_registro": "2013-11-18",
    "Municipio": "San Nicolás",
    "Direccion": "S. Carlos 436, Las Villas, 66420 NL, México",
    "lon": -100.3007889,
    "lat": 25.7591896,
    "id": "541a2cac908e69c4ed6fc1a3"
  },
  {
    "Arbol_id": 3068,
    "Folio": 218,
    "Usuario_id": "usuario1822",
    "Fecha_plantado": "2013-10-29T00:00:00Z",
    "Especie": "Encino Roble",
    "Fecha_registro": "2013-11-18",
    "Municipio": "San Nicolás",
    "Direccion": "S. Idelfonso 440, Las Villas, 66420 NL, México",
    "lon": -100.3009033,
    "lat": 25.7589207,
    "id": "541a2cac908e69c4ed6fc1a7"
  },
  {
    "Arbol_id": 3075,
    "Folio": 426,
    "Usuario_id": "usuario637",
    "Fecha_plantado": "",
    "Especie": "Encino Roble",
    "Fecha_registro": "2013-11-18",
    "Municipio": "Monterrey",
    "Direccion": "Jamaica 123-330, Alta Vista, 64840 Monterrey, NL, México",
    "lon": -100.2917709,
    "lat": 25.6445065,
    "id": "541a2cac908e69c4ed6fc1ae"
  },
  {
    "Arbol_id": 3130,
    "Folio": 0,
    "Usuario_id": "usuario2139",
    "Fecha_plantado": "",
    "Especie": "Encino Roble",
    "Fecha_registro": "2013-11-20",
    "Municipio": "Monterrey",
    "Direccion": "Acacias, Valle Alto, 64989 Monterrey, NL, México",
    "lon": -100.2571335,
    "lat": 25.5835991,
    "id": "541a2cac908e69c4ed6fc1e3"
  },
  {
    "Arbol_id": 3141,
    "Folio": 0,
    "Usuario_id": "usuario2139",
    "Fecha_plantado": "",
    "Especie": "Encino Roble",
    "Fecha_registro": "2013-11-20",
    "Municipio": "Monterrey",
    "Direccion": "Acacias, Valle Alto, 64989 Monterrey, NL, México",
    "lon": -100.2571335,
    "lat": 25.5835991,
    "id": "541a2cac908e69c4ed6fc1ee"
  },
  {
    "Arbol_id": 3300,
    "Folio": 0,
    "Usuario_id": "usuario2382",
    "Fecha_plantado": "2013-07-13T00:00:00Z",
    "Especie": "Encino Roble",
    "Fecha_registro": "2013-11-24",
    "Municipio": "Monterrey",
    "Direccion": "Melchor Muzquiz S/n, Tijerina, 64460 Monterrey, NL, México",
    "lon": -100.3396683,
    "lat": 25.6930408,
    "id": "541a2cac908e69c4ed6fc288"
  },
  {
    "Arbol_id": 3301,
    "Folio": 0,
    "Usuario_id": "usuario2382",
    "Fecha_plantado": "2013-07-06T00:00:00Z",
    "Especie": "Encino Roble",
    "Fecha_registro": "2013-11-24",
    "Municipio": "Monterrey",
    "Direccion": "Melchor Muzquiz S/n, Tijerina, 64460 Monterrey, NL, México",
    "lon": -100.3396683,
    "lat": 25.6930408,
    "id": "541a2cac908e69c4ed6fc289"
  },
  {
    "Arbol_id": 3302,
    "Folio": 0,
    "Usuario_id": "usuario2382",
    "Fecha_plantado": "2013-07-06T00:00:00Z",
    "Especie": "Encino Roble",
    "Fecha_registro": "2013-11-24",
    "Municipio": "Monterrey",
    "Direccion": "Melchor Muzquiz S/n, Tijerina, 64460 Monterrey, NL, México",
    "lon": -100.3396683,
    "lat": 25.6930408,
    "id": "541a2cac908e69c4ed6fc28a"
  },
  {
    "Arbol_id": 3347,
    "Folio": 0,
    "Usuario_id": "usuario726",
    "Fecha_plantado": "2013-11-23T00:00:00Z",
    "Especie": "Encino Roble",
    "Fecha_registro": "2013-11-25",
    "Municipio": "Apodaca",
    "Direccion": "Pemex 545, Balcones del Mezquital, 66632 Apodaca, Nuevo Leon, Mexico",
    "lon": -100.2402802,
    "lat": 25.7523899,
    "id": "541a2cac908e69c4ed6fc2b6"
  },
  {
    "Arbol_id": 3369,
    "Folio": 0,
    "Usuario_id": "usuario2450",
    "Fecha_plantado": "",
    "Especie": "Encino Roble",
    "Fecha_registro": "2013-11-30",
    "Municipio": "San Nicol",
    "Direccion": "Lope de Vega 515, An",
    "lon": "",
    "lat": "",
    "id": "541a2cac908e69c4ed6fc2cc"
  },
  {
    "Arbol_id": 3517,
    "Folio": 0,
    "Usuario_id": "usuario979",
    "Fecha_plantado": "2013-11-30T00:00:00Z",
    "Especie": "Encino Roble",
    "Fecha_registro": "2013-12-04",
    "Municipio": "Monterrey",
    "Direccion": "Luis Quintana 2416, Progreso, 64420 Monterrey, NL, México",
    "lon": -100.3341293,
    "lat": 25.698164,
    "id": "541a2cac908e69c4ed6fc35f"
  },
  {
    "Arbol_id": 3518,
    "Folio": 0,
    "Usuario_id": "usuario979",
    "Fecha_plantado": "2013-11-30T00:00:00Z",
    "Especie": "Encino Roble",
    "Fecha_registro": "2013-12-04",
    "Municipio": "Monterrey",
    "Direccion": "Luis Quintana 2414, Progreso, 64420 Monterrey, NL, México",
    "lon": -100.333519,
    "lat": 25.6981792,
    "id": "541a2cac908e69c4ed6fc360"
  },
  {
    "Arbol_id": 3563,
    "Folio": 0,
    "Usuario_id": "usuario2500",
    "Fecha_plantado": "2013-11-19T00:00:00Z",
    "Especie": "Encino Roble",
    "Fecha_registro": "2013-12-10",
    "Municipio": "San Nicolás",
    "Direccion": "Sierra de Mico 1038, Las Puentes 12O Sector, 66460 Nuevo Leon, Mexico",
    "lon": -100.2687836,
    "lat": 25.7484207,
    "id": "541a2cac908e69c4ed6fc383"
  },
  {
    "Arbol_id": 3673,
    "Folio": 0,
    "Usuario_id": "usuario1599",
    "Fecha_plantado": "2013-11-27T00:00:00Z",
    "Especie": "Encino Roble",
    "Fecha_registro": "2013-12-16",
    "Municipio": "San Nicolás",
    "Direccion": "3a. 160, Jardines de Anáhuac, 66463 NL, México",
    "lon": -100.2747116,
    "lat": 25.7317505,
    "id": "541a2cac908e69c4ed6fc3ee"
  },
  {
    "Arbol_id": 3674,
    "Folio": 0,
    "Usuario_id": "usuario1599",
    "Fecha_plantado": "2013-11-27T00:00:00Z",
    "Especie": "Encino Roble",
    "Fecha_registro": "2013-12-16",
    "Municipio": "San Nicolás",
    "Direccion": "3a. 160, Jardines de Anáhuac, 66463 NL, México",
    "lon": -100.2747116,
    "lat": 25.7317505,
    "id": "541a2cac908e69c4ed6fc3ef"
  },
  {
    "Arbol_id": 3680,
    "Folio": 0,
    "Usuario_id": "usuario1599",
    "Fecha_plantado": "2013-11-27T00:00:00Z",
    "Especie": "Encino Roble",
    "Fecha_registro": "2013-12-16",
    "Municipio": "San Nicolás",
    "Direccion": "3a. 148, Jardines de Anáhuac, 66463 NL, México",
    "lon": -100.2747116,
    "lat": 25.7317505,
    "id": "541a2cac908e69c4ed6fc3f5"
  },
  {
    "Arbol_id": 3681,
    "Folio": 0,
    "Usuario_id": "usuario1599",
    "Fecha_plantado": "2013-11-27T00:00:00Z",
    "Especie": "Encino Roble",
    "Fecha_registro": "2013-12-16",
    "Municipio": "San Nicolás",
    "Direccion": "3a. 144, Jardines de Anáhuac, 66463 NL, México",
    "lon": -100.2747116,
    "lat": 25.7317505,
    "id": "541a2cac908e69c4ed6fc3f6"
  },
  {
    "Arbol_id": 3685,
    "Folio": 0,
    "Usuario_id": "usuario1599",
    "Fecha_plantado": "2013-11-27T00:00:00Z",
    "Especie": "Encino Roble",
    "Fecha_registro": "2013-12-16",
    "Municipio": "San Nicolás",
    "Direccion": "3a. 144, Jardines de Anáhuac, 66463 NL, México",
    "lon": -100.2747116,
    "lat": 25.7317505,
    "id": "541a2cac908e69c4ed6fc3fa"
  },
  {
    "Arbol_id": 3694,
    "Folio": 0,
    "Usuario_id": "usuario1599",
    "Fecha_plantado": "2013-11-27T00:00:00Z",
    "Especie": "Encino Roble",
    "Fecha_registro": "2013-12-16",
    "Municipio": "San Nicolás",
    "Direccion": "3a. 148, Jardines de Anáhuac, 66463 NL, México",
    "lon": -100.2747116,
    "lat": 25.7317505,
    "id": "541a2cac908e69c4ed6fc403"
  },
  {
    "Arbol_id": 3695,
    "Folio": 0,
    "Usuario_id": "usuario1599",
    "Fecha_plantado": "2013-11-27T00:00:00Z",
    "Especie": "Encino Roble",
    "Fecha_registro": "2013-12-16",
    "Municipio": "San Nicolás",
    "Direccion": "2a. 123, Jardines de Anáhuac, 66463 NL, México",
    "lon": "",
    "lat": "",
    "id": "541a2cac908e69c4ed6fc404"
  },
  {
    "Arbol_id": 3697,
    "Folio": 0,
    "Usuario_id": "usuario1599",
    "Fecha_plantado": "2013-11-27T00:00:00Z",
    "Especie": "Encino Roble",
    "Fecha_registro": "2013-12-16",
    "Municipio": "San Nicolás",
    "Direccion": "2a. 123, Jardines de Anáhuac, 66463 NL, México",
    "lon": "",
    "lat": "",
    "id": "541a2cac908e69c4ed6fc406"
  },
  {
    "Arbol_id": 3710,
    "Folio": 0,
    "Usuario_id": "usuario1599",
    "Fecha_plantado": "2013-11-27T00:00:00Z",
    "Especie": "Encino Roble",
    "Fecha_registro": "2013-12-18",
    "Municipio": "San Nicolás",
    "Direccion": "2a. 127, Jardines de Anáhuac, 66463 NL, México",
    "lon": "",
    "lat": "",
    "id": "541a2cac908e69c4ed6fc413"
  },
  {
    "Arbol_id": 3714,
    "Folio": 0,
    "Usuario_id": "usuario1599",
    "Fecha_plantado": "2013-11-27T00:00:00Z",
    "Especie": "Encino Roble",
    "Fecha_registro": "2013-12-18",
    "Municipio": "San Nicolás",
    "Direccion": "1a. Avenida 1024, Jardines de Anáhuac, 66463 NL, México",
    "lon": "",
    "lat": "",
    "id": "541a2cac908e69c4ed6fc417"
  },
  {
    "Arbol_id": 3715,
    "Folio": 0,
    "Usuario_id": "usuario1599",
    "Fecha_plantado": "2013-11-27T00:00:00Z",
    "Especie": "Encino Roble",
    "Fecha_registro": "2013-12-18",
    "Municipio": "San Nicolás",
    "Direccion": "1a. Avenida 1022, Jardines de Anáhuac, 66463 NL, México",
    "lon": "",
    "lat": "",
    "id": "541a2cac908e69c4ed6fc418"
  },
  {
    "Arbol_id": 3716,
    "Folio": 0,
    "Usuario_id": "usuario1599",
    "Fecha_plantado": "2013-11-27T00:00:00Z",
    "Especie": "Encino Roble",
    "Fecha_registro": "2013-12-18",
    "Municipio": "San Nicolás",
    "Direccion": "1a. Avenida 1022, Jardines de Anáhuac, 66463 NL, México",
    "lon": "",
    "lat": "",
    "id": "541a2cac908e69c4ed6fc419"
  },
  {
    "Arbol_id": 3718,
    "Folio": 0,
    "Usuario_id": "usuario1599",
    "Fecha_plantado": "2013-11-27T00:00:00Z",
    "Especie": "Encino Roble",
    "Fecha_registro": "2013-12-18",
    "Municipio": "San Nicolás",
    "Direccion": "1a. Avenida 1030, Jardines de Anáhuac, 66463 NL, México",
    "lon": "",
    "lat": "",
    "id": "541a2cac908e69c4ed6fc41b"
  },
  {
    "Arbol_id": 3720,
    "Folio": 0,
    "Usuario_id": "usuario1599",
    "Fecha_plantado": "2013-12-02T00:00:00Z",
    "Especie": "Encino Roble",
    "Fecha_registro": "2013-12-18",
    "Municipio": "San Nicolás",
    "Direccion": "Elche, Costa del Sol 1er Sector, 66470 NL, México",
    "lon": -100.2460785,
    "lat": 25.7259903,
    "id": "541a2cac908e69c4ed6fc41d"
  },
  {
    "Arbol_id": 3722,
    "Folio": 0,
    "Usuario_id": "usuario1599",
    "Fecha_plantado": "2013-12-02T00:00:00Z",
    "Especie": "Encino Roble",
    "Fecha_registro": "2013-12-18",
    "Municipio": "San Nicolás",
    "Direccion": "Elche, Costa del Sol 1er Sector, 66470 NL, México",
    "lon": -100.2460785,
    "lat": 25.7259903,
    "id": "541a2cac908e69c4ed6fc41f"
  },
  {
    "Arbol_id": 3726,
    "Folio": 0,
    "Usuario_id": "usuario1599",
    "Fecha_plantado": "2013-12-02T00:00:00Z",
    "Especie": "Encino Roble",
    "Fecha_registro": "2013-12-18",
    "Municipio": "San Nicolás",
    "Direccion": "Vallecas, Costa del Sol 1er Sector, San Nicolás de Los Garza, NL, México",
    "lon": -100.2461624,
    "lat": 25.7250099,
    "id": "541a2cac908e69c4ed6fc423"
  },
  {
    "Arbol_id": 3767,
    "Folio": 0,
    "Usuario_id": "usuario1599",
    "Fecha_plantado": "2013-12-02T00:00:00Z",
    "Especie": "Encino Roble",
    "Fecha_registro": "2013-12-23",
    "Municipio": "San Nicolás",
    "Direccion": "Vallecas 723, Costa del Sol 1er Sector, 66470 NL, México",
    "lon": -100.2464218,
    "lat": 25.7248497,
    "id": "541a2cac908e69c4ed6fc44a"
  },
  {
    "Arbol_id": 3769,
    "Folio": 0,
    "Usuario_id": "usuario1599",
    "Fecha_plantado": "2013-12-02T00:00:00Z",
    "Especie": "Encino Roble",
    "Fecha_registro": "2013-12-23",
    "Municipio": "San Nicolás",
    "Direccion": "Vallecas 723, Costa del Sol 1er Sector, 66470 NL, México",
    "lon": -100.2464218,
    "lat": 25.7248497,
    "id": "541a2cac908e69c4ed6fc44c"
  },
  {
    "Arbol_id": 3773,
    "Folio": 0,
    "Usuario_id": "usuario1599",
    "Fecha_plantado": "2013-12-02T00:00:00Z",
    "Especie": "Encino Roble",
    "Fecha_registro": "2013-12-23",
    "Municipio": "San Nicolás",
    "Direccion": "Jerez 714, Costa del Sol 1er Sector, 66470 NL, México",
    "lon": -100.2468491,
    "lat": 25.72616,
    "id": "541a2cac908e69c4ed6fc450"
  },
  {
    "Arbol_id": 3774,
    "Folio": 0,
    "Usuario_id": "usuario1599",
    "Fecha_plantado": "2013-12-02T00:00:00Z",
    "Especie": "Encino Roble",
    "Fecha_registro": "2013-12-23",
    "Municipio": "San Nicolás",
    "Direccion": "Jerez 704, Costa del Sol 1er Sector, 66470 NL, México",
    "lon": -100.2465286,
    "lat": 25.7262993,
    "id": "541a2cac908e69c4ed6fc451"
  },
  {
    "Arbol_id": 4055,
    "Folio": 0,
    "Usuario_id": "usuario2273",
    "Fecha_plantado": "",
    "Especie": "Encino Roble",
    "Fecha_registro": "2014-01-23",
    "Municipio": "Guadalupe",
    "Direccion": "Marco A. Séneca 694, Contry La Silla 1er Sector, 67173 NL, México",
    "lon": -100.2676163,
    "lat": 25.6230698,
    "id": "541a2cac908e69c4ed6fc564"
  },
  {
    "Arbol_id": 4325,
    "Folio": 0,
    "Usuario_id": "usuario2255",
    "Fecha_plantado": "",
    "Especie": "Encino Roble",
    "Fecha_registro": "2014-01-24",
    "Municipio": "Guadalupe",
    "Direccion": "Marco Tulio Cicerón 640, Contry La Silla 1er Sector, 67173 NL, México",
    "lon": -100.2688904,
    "lat": 25.6243591,
    "id": "541a2cad908e69c4ed6fc664"
  },
  {
    "Arbol_id": 4327,
    "Folio": 0,
    "Usuario_id": "usuario2255",
    "Fecha_plantado": "",
    "Especie": "Encino Roble",
    "Fecha_registro": "2014-01-24",
    "Municipio": "Guadalupe",
    "Direccion": "Marco Tulio Cicerón 640, Contry La Silla 1er Sector, 67173 NL, México",
    "lon": -100.2688904,
    "lat": 25.6243591,
    "id": "541a2cad908e69c4ed6fc666"
  },
  {
    "Arbol_id": 4984,
    "Folio": 226,
    "Usuario_id": "usuario2840",
    "Fecha_plantado": "",
    "Especie": "Encino Roble",
    "Fecha_registro": "2014-01-30",
    "Municipio": "San Nicolás",
    "Direccion": "Ojo de Agua 411, Residencial Potrero de Anáhuac, 66635 Chandra's Test City [don't deny], state, Mexi",
    "lon": "",
    "lat": "",
    "id": "541a2cad908e69c4ed6fc8ed"
  },
  {
    "Arbol_id": 4986,
    "Folio": 227,
    "Usuario_id": "usuario2840",
    "Fecha_plantado": "",
    "Especie": "Encino Roble",
    "Fecha_registro": "2014-01-30",
    "Municipio": "San Nicolás",
    "Direccion": "Ojo de Agua 411, Residencial Potrero de Anáhuac, 66635 Chandra's Test City [don't deny], state, Mexi",
    "lon": "",
    "lat": "",
    "id": "541a2cad908e69c4ed6fc8ef"
  },
  {
    "Arbol_id": 4987,
    "Folio": 228,
    "Usuario_id": "usuario2840",
    "Fecha_plantado": "",
    "Especie": "Encino Roble",
    "Fecha_registro": "2014-01-30",
    "Municipio": "San Nicolás",
    "Direccion": "Ojo de Agua 411, Residencial Potrero de Anáhuac, 66635 Chandra's Test City [don't deny], state, Mexi",
    "lon": "",
    "lat": "",
    "id": "541a2cad908e69c4ed6fc8f0"
  },
  {
    "Arbol_id": 5059,
    "Folio": 37,
    "Usuario_id": "usuario2840",
    "Fecha_plantado": "",
    "Especie": "Encino Roble",
    "Fecha_registro": "2014-01-31",
    "Municipio": "San Nicolás",
    "Direccion": "Ojo de Agua 635, Villa Las Puentes, 66460 Chandra's Test City [don't deny], state, México",
    "lon": -100.290741,
    "lat": 25.7381191,
    "id": "541a2cad908e69c4ed6fc938"
  },
  {
    "Arbol_id": 5081,
    "Folio": 49,
    "Usuario_id": "usuario2840",
    "Fecha_plantado": "",
    "Especie": "Encino Roble",
    "Fecha_registro": "2014-01-31",
    "Municipio": "San Nicolás",
    "Direccion": "Ojo de Agua SN-S GRAN PARQUE SAN NICOLAS, Sin Nombre de Colonia 2, Chandra's Test City [don't deny],",
    "lon": "",
    "lat": "",
    "id": "541a2cad908e69c4ed6fc94e"
  },
  {
    "Arbol_id": 5121,
    "Folio": 67,
    "Usuario_id": "usuario2840",
    "Fecha_plantado": "",
    "Especie": "Encino Roble",
    "Fecha_registro": "2014-01-31",
    "Municipio": "San Nicolás",
    "Direccion": "Ojo de Agua 421, Residencial Potrero de Anáhuac, 66635 Chandra's Test City [don't deny], state, Méxi",
    "lon": "",
    "lat": "",
    "id": "541a2cad908e69c4ed6fc976"
  },
  {
    "Arbol_id": 5186,
    "Folio": 0,
    "Usuario_id": "usuario2322",
    "Fecha_plantado": "2014-01-07T00:00:00Z",
    "Especie": "Encino Roble",
    "Fecha_registro": "2014-01-31",
    "Municipio": "Apodaca",
    "Direccion": "Avenida Cartagena, Magnolias, NL, México",
    "lon": -99.1768112,
    "lat": 19.3767109,
    "id": "541a2cad908e69c4ed6fc9b7"
  },
  {
    "Arbol_id": 5189,
    "Folio": 0,
    "Usuario_id": "usuario2322",
    "Fecha_plantado": "2014-01-07T00:00:00Z",
    "Especie": "Encino Roble",
    "Fecha_registro": "2014-01-31",
    "Municipio": "Apodaca",
    "Direccion": "Avenida Cartagena, Magnolias, NL, México",
    "lon": -99.1768112,
    "lat": 19.3767109,
    "id": "541a2cad908e69c4ed6fc9ba"
  },
  {
    "Arbol_id": 5190,
    "Folio": 0,
    "Usuario_id": "usuario2322",
    "Fecha_plantado": "",
    "Especie": "Encino Roble",
    "Fecha_registro": "2014-01-31",
    "Municipio": "Apodaca",
    "Direccion": "Avenida Cartagena, Magnolias, NL, México",
    "lon": -99.1768112,
    "lat": 19.3767109,
    "id": "541a2cad908e69c4ed6fc9bb"
  },
  {
    "Arbol_id": 5192,
    "Folio": 0,
    "Usuario_id": "usuario2322",
    "Fecha_plantado": "",
    "Especie": "Encino Roble",
    "Fecha_registro": "2014-01-31",
    "Municipio": "Apodaca",
    "Direccion": "Avenida Cartagena, Magnolias, NL, México",
    "lon": -99.1768112,
    "lat": 19.3767109,
    "id": "541a2cad908e69c4ed6fc9bd"
  },
  {
    "Arbol_id": 5193,
    "Folio": 0,
    "Usuario_id": "usuario2322",
    "Fecha_plantado": "",
    "Especie": "Encino Roble",
    "Fecha_registro": "2014-01-31",
    "Municipio": "",
    "Direccion": "Avenida Cartagena, Magnolias, NL, México",
    "lon": -99.1768112,
    "lat": 19.3767109,
    "id": "541a2cad908e69c4ed6fc9be"
  },
  {
    "Arbol_id": 5194,
    "Folio": 0,
    "Usuario_id": "usuario2322",
    "Fecha_plantado": "",
    "Especie": "Encino Roble",
    "Fecha_registro": "2014-01-31",
    "Municipio": "Apodaca",
    "Direccion": "Avenida Cartagena, Magnolias, NL, México",
    "lon": -99.1768112,
    "lat": 19.3767109,
    "id": "541a2cad908e69c4ed6fc9bf"
  },
  {
    "Arbol_id": 5195,
    "Folio": 0,
    "Usuario_id": "usuario2322",
    "Fecha_plantado": "",
    "Especie": "Encino Roble",
    "Fecha_registro": "2014-01-31",
    "Municipio": "Apodaca",
    "Direccion": "Avenida Cartagena, Magnolias, NL, México",
    "lon": -99.1768112,
    "lat": 19.3767109,
    "id": "541a2cad908e69c4ed6fc9c0"
  },
  {
    "Arbol_id": 5197,
    "Folio": 0,
    "Usuario_id": "usuario2322",
    "Fecha_plantado": "",
    "Especie": "Encino Roble",
    "Fecha_registro": "2014-01-31",
    "Municipio": "Apodaca",
    "Direccion": "Avenida Cartagena, Magnolias, NL, México",
    "lon": -99.1768112,
    "lat": 19.3767109,
    "id": "541a2cad908e69c4ed6fc9c2"
  },
  {
    "Arbol_id": 5198,
    "Folio": 0,
    "Usuario_id": "usuario2322",
    "Fecha_plantado": "",
    "Especie": "Encino Roble",
    "Fecha_registro": "2014-01-31",
    "Municipio": "Apodaca",
    "Direccion": "Avenida Cartagena, Magnolias, NL, México",
    "lon": -99.1768112,
    "lat": 19.3767109,
    "id": "541a2cad908e69c4ed6fc9c3"
  },
  {
    "Arbol_id": 5199,
    "Folio": 0,
    "Usuario_id": "usuario2322",
    "Fecha_plantado": "",
    "Especie": "Encino Roble",
    "Fecha_registro": "2014-01-31",
    "Municipio": "Apodaca",
    "Direccion": "Avenida Cartagena, Magnolias, NL, México",
    "lon": -99.1768112,
    "lat": 19.3767109,
    "id": "541a2cad908e69c4ed6fc9c4"
  },
  {
    "Arbol_id": 5201,
    "Folio": 0,
    "Usuario_id": "usuario2322",
    "Fecha_plantado": "",
    "Especie": "Encino Roble",
    "Fecha_registro": "2014-01-31",
    "Municipio": "Apodaca",
    "Direccion": "Avenida Cartagena, Magnolias, NL, México",
    "lon": -99.1768112,
    "lat": 19.3767109,
    "id": "541a2cad908e69c4ed6fc9c6"
  },
  {
    "Arbol_id": 5202,
    "Folio": 0,
    "Usuario_id": "usuario2322",
    "Fecha_plantado": "",
    "Especie": "Encino Roble",
    "Fecha_registro": "2014-01-31",
    "Municipio": "Apodaca",
    "Direccion": "Avenida Cartagena, Magnolias, NL, México",
    "lon": -99.1768112,
    "lat": 19.3767109,
    "id": "541a2cad908e69c4ed6fc9c7"
  },
  {
    "Arbol_id": 5268,
    "Folio": 292,
    "Usuario_id": "usuario2498",
    "Fecha_plantado": "",
    "Especie": "Encino Roble",
    "Fecha_registro": "2014-01-31",
    "Municipio": "San Nicolás",
    "Direccion": "Ojo de Agua 429, Residencial Potrero de Anáhuac, 66635 Chandra's Test City [don't deny], state, Méxi",
    "lon": "",
    "lat": "",
    "id": "541a2cad908e69c4ed6fca03"
  },
  {
    "Arbol_id": 5272,
    "Folio": 0,
    "Usuario_id": "usuario2273",
    "Fecha_plantado": "",
    "Especie": "Encino Roble",
    "Fecha_registro": "2014-01-31",
    "Municipio": "Guadalupe",
    "Direccion": "Ribera 3519, Riberas del Río, 67160 NL, México",
    "lon": -100.2188187,
    "lat": 25.6771107,
    "id": "541a2cad908e69c4ed6fca07"
  },
  {
    "Arbol_id": 5276,
    "Folio": 296,
    "Usuario_id": "usuario2498",
    "Fecha_plantado": "",
    "Especie": "Encino Roble",
    "Fecha_registro": "2014-01-31",
    "Municipio": "San Nicolás",
    "Direccion": "Ojo de Agua 429, Residencial Potrero de Anáhuac, 66635 Chandra's Test City [don't deny], state, Méxi",
    "lon": "",
    "lat": "",
    "id": "541a2cad908e69c4ed6fca0b"
  },
  {
    "Arbol_id": 5288,
    "Folio": 301,
    "Usuario_id": "usuario958",
    "Fecha_plantado": "",
    "Especie": "Encino Roble",
    "Fecha_registro": "2014-01-31",
    "Municipio": "San Nicolás",
    "Direccion": "Ojo de Agua 435, Residencial Potrero de Anáhuac, 66635 Chandra's Test City [don't deny], state, Méxi",
    "lon": "",
    "lat": "",
    "id": "541a2cad908e69c4ed6fca17"
  },
  {
    "Arbol_id": 5294,
    "Folio": 305,
    "Usuario_id": "usuario958",
    "Fecha_plantado": "",
    "Especie": "Encino Roble",
    "Fecha_registro": "2014-01-31",
    "Municipio": "San Nicolás",
    "Direccion": "Ojo de Agua 601, Villa Las Puentes, Chandra's Test City [don't deny], state, México",
    "lon": "",
    "lat": "",
    "id": "541a2cad908e69c4ed6fca1d"
  },
  {
    "Arbol_id": 5334,
    "Folio": 0,
    "Usuario_id": "usuario2274",
    "Fecha_plantado": "2014-01-31T00:00:00Z",
    "Especie": "Encino Roble",
    "Fecha_registro": "2014-02-04",
    "Municipio": "García",
    "Direccion": "Av. Cumbres Madeira, Nuevo Leon, Mexico",
    "lon": -100.4098969,
    "lat": 25.7522202,
    "id": "541a2cad908e69c4ed6fca3f"
  },
  {
    "Arbol_id": 5711,
    "Folio": 13,
    "Usuario_id": "usuario2498",
    "Fecha_plantado": "",
    "Especie": "Encino Roble",
    "Fecha_registro": "2014-02-06",
    "Municipio": "San Nicolás",
    "Direccion": "Avenida las Puentes 744, Balcones de Las Puentes, MX_Loc2_test, 66466 Chandra's Test City [don't den",
    "lon": "",
    "lat": "",
    "id": "541a2cad908e69c4ed6fcbb2"
  },
  {
    "Arbol_id": 5731,
    "Folio": 20,
    "Usuario_id": "usuario2498",
    "Fecha_plantado": "",
    "Especie": "Encino Roble",
    "Fecha_registro": "2014-02-06",
    "Municipio": "San Nicolás",
    "Direccion": "Avenida las Puentes 744, Las Puentes 6o Sector, 66466 NL, México",
    "lon": -100.2758408,
    "lat": 25.7423897,
    "id": "541a2cad908e69c4ed6fcbc6"
  },
  {
    "Arbol_id": 5750,
    "Folio": 37,
    "Usuario_id": "usuario958",
    "Fecha_plantado": "",
    "Especie": "Encino Roble",
    "Fecha_registro": "2014-02-06",
    "Municipio": "San Nicolás",
    "Direccion": "Avenida las Puentes 744, Las Puentes 6o Sector, 66466 NL, México",
    "lon": -100.2758408,
    "lat": 25.7423897,
    "id": "541a2cad908e69c4ed6fcbd8"
  },
  {
    "Arbol_id": 5795,
    "Folio": 0,
    "Usuario_id": "usuario2273",
    "Fecha_plantado": "",
    "Especie": "Encino Roble",
    "Fecha_registro": "2014-02-07",
    "Municipio": "Guadalupe",
    "Direccion": "Apolo 909, Contry La Escondida, 67173 NL, México",
    "lon": -100.2644348,
    "lat": 25.6287403,
    "id": "541a2cad908e69c4ed6fcc04"
  },
  {
    "Arbol_id": 5821,
    "Folio": 309,
    "Usuario_id": "usuario2840",
    "Fecha_plantado": "",
    "Especie": "Encino Roble",
    "Fecha_registro": "2014-02-07",
    "Municipio": "San Nicolás",
    "Direccion": "Ojo de Agua 601, Villa Las Puentes, 66460 Monterrey, NL, México",
    "lon": -100.288826,
    "lat": 25.743679,
    "id": "541a2cad908e69c4ed6fcc1e"
  },
  {
    "Arbol_id": 5842,
    "Folio": 314,
    "Usuario_id": "usuario2840",
    "Fecha_plantado": "",
    "Especie": "Encino Roble",
    "Fecha_registro": "2014-02-07",
    "Municipio": "San Nicolás",
    "Direccion": "Ojo de Agua 601-603, Villa Las Puentes, Chandra's Test City [don't deny], state, México",
    "lon": "",
    "lat": "",
    "id": "541a2cad908e69c4ed6fcc33"
  },
  {
    "Arbol_id": 5855,
    "Folio": 0,
    "Usuario_id": "usuario2273",
    "Fecha_plantado": "",
    "Especie": "Encino Roble",
    "Fecha_registro": "2014-02-07",
    "Municipio": "Guadalupe",
    "Direccion": "Paseo de las Americas 2961, Contry La Silla 1er Sector, 67173 Guadalupe, NL, México",
    "lon": -100.2687988,
    "lat": 25.6282501,
    "id": "541a2cad908e69c4ed6fcc40"
  },
  {
    "Arbol_id": 5878,
    "Folio": 328,
    "Usuario_id": "usuario2840",
    "Fecha_plantado": "",
    "Especie": "Encino Roble",
    "Fecha_registro": "2014-02-07",
    "Municipio": "San Nicolás",
    "Direccion": "Ojo de Agua 625, Villa Las Puentes, 66460 Chandra's Test City [don't deny], state, México",
    "lon": -100.290741,
    "lat": 25.7381191,
    "id": "541a2cad908e69c4ed6fcc57"
  },
  {
    "Arbol_id": 5881,
    "Folio": 207,
    "Usuario_id": "usuario2840",
    "Fecha_plantado": "",
    "Especie": "Encino Roble",
    "Fecha_registro": "2014-02-07",
    "Municipio": "San Nicolás",
    "Direccion": "Ojo de Agua 627, Villa Las Puentes, 66460 Chandra's Test City [don't deny], state, México",
    "lon": -100.290741,
    "lat": 25.7381191,
    "id": "541a2cad908e69c4ed6fcc5a"
  },