[
  {
    "Arbol_id": 881,
    "Folio": 0,
    "Usuario_id": "usuario1965",
    "Fecha_plantado": "",
    "Especie": "Mimbre",
    "Fecha_registro": "2013-06-21",
    "Municipio": "Monterrey",
    "Direccion": "Avenida Eugenio Garza Lagüera, Zona Valle Oriente, 66269 Nuevo Leon, Mexico",
    "lon": -100.3295212,
    "lat": 25.6437206,
    "id": "541a2cac908e69c4ed6fba14"
  },
  {
    "Arbol_id": 887,
    "Folio": 0,
    "Usuario_id": "usuario1965",
    "Fecha_plantado": "",
    "Especie": "Mimbre",
    "Fecha_registro": "2013-06-21",
    "Municipio": "Monterrey",
    "Direccion": "Avenida Eugenio Garza Lagüera, Zona Valle Oriente, 66269 Nuevo Leon, Mexico",
    "lon": -100.3295212,
    "lat": 25.6437206,
    "id": "541a2cac908e69c4ed6fba19"
  },
  {
    "Arbol_id": 889,
    "Folio": 0,
    "Usuario_id": "usuario1965",
    "Fecha_plantado": "",
    "Especie": "Mimbre",
    "Fecha_registro": "2013-06-21",
    "Municipio": "Monterrey",
    "Direccion": "Avenida Eugenio Garza Lagüera, Zona Valle Oriente, 66269 Nuevo Leon, Mexico",
    "lon": -100.3295212,
    "lat": 25.6437206,
    "id": "541a2cac908e69c4ed6fba1b"
  },
  {
    "Arbol_id": 893,
    "Folio": 0,
    "Usuario_id": "usuario1965",
    "Fecha_plantado": "",
    "Especie": "Mimbre",
    "Fecha_registro": "2013-06-21",
    "Municipio": "Monterrey",
    "Direccion": "Avenida Eugenio Garza Lagüera, Zona Valle Oriente, 66269 Nuevo Leon, Mexico",
    "lon": -100.3295212,
    "lat": 25.6437206,
    "id": "541a2cac908e69c4ed6fba1f"
  },
  {
    "Arbol_id": 894,
    "Folio": 0,
    "Usuario_id": "usuario1965",
    "Fecha_plantado": "",
    "Especie": "Mimbre",
    "Fecha_registro": "2013-06-21",
    "Municipio": "Monterrey",
    "Direccion": "Avenida Eugenio Garza Lagüera, Zona Valle Oriente, 66269 Nuevo Leon, Mexico",
    "lon": -100.3295212,
    "lat": 25.6437206,
    "id": "541a2cac908e69c4ed6fba20"
  },
  {
    "Arbol_id": 895,
    "Folio": 0,
    "Usuario_id": "usuario1965",
    "Fecha_plantado": "",
    "Especie": "Mimbre",
    "Fecha_registro": "2013-06-21",
    "Municipio": "Monterrey",
    "Direccion": "Avenida Eugenio Garza Lagüera, Zona Valle Oriente, 66269 Nuevo Leon, Mexico",
    "lon": -100.3295212,
    "lat": 25.6437206,
    "id": "541a2cac908e69c4ed6fba21"
  },
  {
    "Arbol_id": 922,
    "Folio": 0,
    "Usuario_id": "usuario1965",
    "Fecha_plantado": "",
    "Especie": "Mimbre",
    "Fecha_registro": "2013-06-21",
    "Municipio": "Monterrey",
    "Direccion": "Avenida Eugenio Garza Lagüera, Zona Valle Oriente, 66269 Nuevo Leon, Mexico",
    "lon": -100.3295212,
    "lat": 25.6437206,
    "id": "541a2cac908e69c4ed6fba3c"
  },
  {
    "Arbol_id": 926,
    "Folio": 0,
    "Usuario_id": "usuario1965",
    "Fecha_plantado": "",
    "Especie": "Mimbre",
    "Fecha_registro": "2013-06-21",
    "Municipio": "Monterrey",
    "Direccion": "Avenida Eugenio Garza Lagüera, Zona Valle Oriente, 66269 Nuevo Leon, Mexico",
    "lon": -100.3295212,
    "lat": 25.6437206,
    "id": "541a2cac908e69c4ed6fba40"
  },
  {
    "Arbol_id": 928,
    "Folio": 0,
    "Usuario_id": "usuario1965",
    "Fecha_plantado": "",
    "Especie": "Mimbre",
    "Fecha_registro": "2013-06-21",
    "Municipio": "Monterrey",
    "Direccion": "Avenida Eugenio Garza Lagüera, Zona Valle Oriente, 66269 Nuevo Leon, Mexico",
    "lon": -100.3295212,
    "lat": 25.6437206,
    "id": "541a2cac908e69c4ed6fba42"
  },
  {
    "Arbol_id": 938,
    "Folio": 0,
    "Usuario_id": "usuario1965",
    "Fecha_plantado": "",
    "Especie": "Mimbre",
    "Fecha_registro": "2013-06-21",
    "Municipio": "Monterrey",
    "Direccion": "Avenida Eugenio Garza Lagüera, Zona Valle Oriente, 66269 Nuevo Leon, Mexico",
    "lon": -100.3295212,
    "lat": 25.6437206,
    "id": "541a2cac908e69c4ed6fba4c"
  },
  {
    "Arbol_id": 1345,
    "Folio": 0,
    "Usuario_id": "usuario1965",
    "Fecha_plantado": "",
    "Especie": "Mimbre",
    "Fecha_registro": "2013-07-07",
    "Municipio": "Monterrey",
    "Direccion": "Avenida Eugenio Garza Lagüera, Zona Valle Oriente, 66278 Nuevo Leon, Mexico",
    "lon": -100.3295212,
    "lat": 25.6437206,
    "id": "541a2cac908e69c4ed6fbbad"
  },
  {
    "Arbol_id": 1362,
    "Folio": 0,
    "Usuario_id": "usuario1965",
    "Fecha_plantado": "",
    "Especie": "Mimbre",
    "Fecha_registro": "2013-07-07",
    "Municipio": "Monterrey",
    "Direccion": "Avenida Eugenio Garza Lagüera, Zona Valle Oriente, 66278 Nuevo Leon, Mexico",
    "lon": -100.3295212,
    "lat": 25.6437206,
    "id": "541a2cac908e69c4ed6fbbbd"
  },
  {
    "Arbol_id": 1667,
    "Folio": 18,
    "Usuario_id": "usuario2934",
    "Fecha_plantado": "",
    "Especie": "Mimbre",
    "Fecha_registro": "2013-07-25",
    "Municipio": "Monterrey",
    "Direccion": "Llavale 1205A, Valle del Mirador, 64750 Monterrey, NL, México",
    "lon": -100.3119583,
    "lat": 25.6396599,
    "id": "541a2cac908e69c4ed6fbcaa"
  },
  {
    "Arbol_id": 1668,
    "Folio": 18,
    "Usuario_id": "usuario2934",
    "Fecha_plantado": "",
    "Especie": "Mimbre",
    "Fecha_registro": "2013-07-25",
    "Municipio": "Monterrey",
    "Direccion": "Llavale 3201, Valle del Mirador, 64750 Monterrey, NL, México",
    "lon": -100.312088,
    "lat": 25.6394005,
    "id": "541a2cac908e69c4ed6fbcab"
  },
  {
    "Arbol_id": 5179,
    "Folio": 0,
    "Usuario_id": "usuario2273",
    "Fecha_plantado": "",
    "Especie": "Mimbre",
    "Fecha_registro": "2014-01-31",
    "Municipio": "Guadalupe",
    "Direccion": "Del Río 3408, Riberas del Río, 67160 NL, México",
    "lon": -100.2189789,
    "lat": 25.6787205,
    "id": "541a2cad908e69c4ed6fc9b0"
  },
  {
    "Arbol_id": 6616,
    "Folio": 0,
    "Usuario_id": "usuario2273",
    "Fecha_plantado": "",
    "Especie": "Mimbre",
    "Fecha_registro": "2014-02-11",
    "Municipio": "Guadalupe",
    "Direccion": "Caleta 3330, Riberas del Río, 67160 NL, México",
    "lon": -100.2206116,
    "lat": 25.6786003,
    "id": "541a2cad908e69c4ed6fcf36"
  },
  {
    "Arbol_id": 7151,
    "Folio": 0,
    "Usuario_id": "usuario2273",
    "Fecha_plantado": "",
    "Especie": "Mimbre",
    "Fecha_registro": "2014-02-13",
    "Municipio": "Guadalupe",
    "Direccion": "Alejandro Dumas, Contry La Silla 4o Sector, 67173 NL, México",
    "lon": -100.2651367,
    "lat": 25.6318207,
    "id": "541a2cad908e69c4ed6fd14a"
  },
  {
    "Arbol_id": 7222,
    "Folio": 0,
    "Usuario_id": "usuario2273",
    "Fecha_plantado": "",
    "Especie": "Mimbre",
    "Fecha_registro": "2014-02-14",
    "Municipio": "Guadalupe",
    "Direccion": "Alejandro Dumas, Contry La Silla 4o Sector, 67173 NL, México",
    "lon": -100.2651367,
    "lat": 25.6318207,
    "id": "541a2cad908e69c4ed6fd18e"
  },
  {
    "Arbol_id": 7235,
    "Folio": 0,
    "Usuario_id": "usuario2273",
    "Fecha_plantado": "",
    "Especie": "Mimbre",
    "Fecha_registro": "2014-02-14",
    "Municipio": "Guadalupe",
    "Direccion": "Alejandro Dumas, Contry La Silla 4o Sector, 67173 NL, México",
    "lon": -100.2651367,
    "lat": 25.6318207,
    "id": "541a2cad908e69c4ed6fd197"
  },
  {
    "Arbol_id": 7241,
    "Folio": 0,
    "Usuario_id": "usuario2273",
    "Fecha_plantado": "",
    "Especie": "Mimbre",
    "Fecha_registro": "2014-02-14",
    "Municipio": "Guadalupe",
    "Direccion": "Alejandro Dumas, Contry La Silla 4o Sector, 67173 NL, México",
    "lon": -100.2651367,
    "lat": 25.6318207,
    "id": "541a2cad908e69c4ed6fd19b"
  },
  {
    "Arbol_id": 8908,
    "Folio": 0,
    "Usuario_id": "usuario2273",
    "Fecha_plantado": "",
    "Especie": "Mimbre",
    "Fecha_registro": "2014-02-21",
    "Municipio": "Guadalupe",
    "Direccion": "Albert Einstein 2698, Contry La Silla 4o Sector, 67173 NL, México",
    "lon": -100.2666321,
    "lat": 25.6359997,
    "id": "541a2cae908e69c4ed6fd809"
  },
  {
    "Arbol_id": 9049,
    "Folio": 0,
    "Usuario_id": "usuario1375",
    "Fecha_plantado": "",
    "Especie": "Mimbre",
    "Fecha_registro": "2014-02-21",
    "Municipio": "Santa Catarina",
    "Direccion": "1a. Avenida 434, Ixtlera, NL, México",
    "lon": "",
    "lat": "",
    "id": "541a2cae908e69c4ed6fd896"
  },
  {
    "Arbol_id": 10998,
    "Folio": 174,
    "Usuario_id": "usuario845",
    "Fecha_plantado": "2014-03-04T00:00:00Z",
    "Especie": "Mimbre",
    "Fecha_registro": "2014-03-04",
    "Municipio": "Juárez",
    "Direccion": "Villa España 801, Villas de Oriente, 67267 Ciudad Benito Juárez, NL, México",
    "lon": -100.1150513,
    "lat": 25.6534405,
    "id": "541a2cae908e69c4ed6fe00a"
  },
  {
    "Arbol_id": 12882,
    "Folio": 0,
    "Usuario_id": "usuario1202",
    "Fecha_plantado": "",
    "Especie": "Mimbre",
    "Fecha_registro": "2014-03-11",
    "Municipio": "Monterrey",
    "Direccion": "Botafogo, Estadio, 64830 Monterrey, NL, México",
    "lon": -100.2809219,
    "lat": 25.6543808,
    "id": "541a2caf908e69c4ed6fe750"
  },
  {
    "Arbol_id": 13717,
    "Folio": 22,
    "Usuario_id": "usuario1083",
    "Fecha_plantado": "",
    "Especie": "Mimbre",
    "Fecha_registro": "2014-03-19",
    "Municipio": "Monterrey",
    "Direccion": "Calle Paseo del Agua 4428, Villa Las Fuentes, 64890 Monterrey, NL, México",
    "lon": -100.2663193,
    "lat": 25.6101799,
    "id": "541a2caf908e69c4ed6fea8a"
  },
  {
    "Arbol_id": 16913,
    "Folio": 0,
    "Usuario_id": "usuario2273",
    "Fecha_plantado": "",
    "Especie": "Mimbre",
    "Fecha_registro": "2014-04-07",
    "Municipio": "Guadalupe",
    "Direccion": "Dique 3103, Riberas del Río, 67160 NL, México",
    "lon": -100.2233276,
    "lat": 25.6831799,
    "id": "541a2cb0908e69c4ed6ff6d6"
  },
  {
    "Arbol_id": 17232,
    "Folio": 0,
    "Usuario_id": "usuario2273",
    "Fecha_plantado": "",
    "Especie": "Mimbre",
    "Fecha_registro": "2014-04-09",
    "Municipio": "Guadalupe",
    "Direccion": "Bocana 3102A, Riberas del Río, 67160 NL, México",
    "lon": -100.2234192,
    "lat": 25.6823006,
    "id": "541a2cb0908e69c4ed6ff7ed"
  },
  {
    "Arbol_id": 17612,
    "Folio": 0,
    "Usuario_id": "usuario2273",
    "Fecha_plantado": "",
    "Especie": "Mimbre",
    "Fecha_registro": "2014-04-10",
    "Municipio": "Guadalupe",
    "Direccion": "Catarata 3517, Riberas del Río, 67160 NL, México",
    "lon": -100.2160492,
    "lat": 25.6823406,
    "id": "541a2cb0908e69c4ed6ff967"
  },
  {
    "Arbol_id": 19358,
    "Folio": 0,
    "Usuario_id": "usuario2273",
    "Fecha_plantado": "",
    "Especie": "Mimbre",
    "Fecha_registro": "2014-04-22",
    "Municipio": "Guadalupe",
    "Direccion": "La Boquilla 3049, Riberas del Río, 67160 NL, México",
    "lon": -100.2253647,
    "lat": 25.682703,
    "id": "541a2cb1908e69c4ed6fffe1"
  },
  {
    "Arbol_id": 19360,
    "Folio": 0,
    "Usuario_id": "usuario2273",
    "Fecha_plantado": "",
    "Especie": "Mimbre",
    "Fecha_registro": "2014-04-23",
    "Municipio": "Guadalupe",
    "Direccion": "La Boquilla 3045, Riberas del Río, 67160 NL, México",
    "lon": -100.2245331,
    "lat": 25.6825695,
    "id": "541a2cb1908e69c4ed6fffe3"
  },
  {
    "Arbol_id": 19361,
    "Folio": 0,
    "Usuario_id": "usuario2273",
    "Fecha_plantado": "",
    "Especie": "Mimbre",
    "Fecha_registro": "2014-04-23",
    "Municipio": "Guadalupe",
    "Direccion": "La Boquilla 3051, Riberas del Río, 67160 NL, México",
    "lon": -100.2243576,
    "lat": 25.6825695,
    "id": "541a2cb1908e69c4ed6fffe4"
  },
  {
    "Arbol_id": 19582,
    "Folio": 854,
    "Usuario_id": "usuario2358",
    "Fecha_plantado": "",
    "Especie": "Mimbre",
    "Fecha_registro": "2014-04-23",
    "Municipio": "San Pedro",
    "Direccion": "San Pedro 295, Del Valle, 66220 NL, México",
    "lon": -100.3685303,
    "lat": 25.6605911,
    "id": "541a2cb1908e69c4ed7000c1"
  },
  {
    "Arbol_id": 20185,
    "Folio": 0,
    "Usuario_id": "usuario2273",
    "Fecha_plantado": "",
    "Especie": "Mimbre",
    "Fecha_registro": "2014-04-28",
    "Municipio": "Guadalupe",
    "Direccion": "La Boquilla 3045, Riberas del Río, 67160 NL, México",
    "lon": -100.2245331,
    "lat": 25.6825695,
    "id": "541a2cb1908e69c4ed700314"
  },
  {
    "Arbol_id": 26666,
    "Folio": 0,
    "Usuario_id": "usuario2536",
    "Fecha_plantado": "",
    "Especie": "Mimbre",
    "Fecha_registro": "2014-05-25",
    "Municipio": "Santa Catarina",
    "Direccion": "Perimetral Ote., Mártires de Cananea, 66365 NL, México",
    "lon": -100.4428406,
    "lat": 25.6888409,
    "id": "541a2cb3908e69c4ed701c2f"
  },
  {
    "Arbol_id": 27578,
    "Folio": 0,
    "Usuario_id": "usuario2536",
    "Fecha_plantado": "",
    "Especie": "Mimbre",
    "Fecha_registro": "2014-05-27",
    "Municipio": "Santa Catarina",
    "Direccion": "Puerto Carreño 117, Residencial Cuauhtémoc, 66360 NL, México",
    "lon": -100.4436188,
    "lat": 25.6842003,
    "id": "541a2cb3908e69c4ed701f9e"
  },
  {
    "Arbol_id": 37161,
    "Folio": 0,
    "Usuario_id": "usuario2536",
    "Fecha_plantado": "",
    "Especie": "Mimbre",
    "Fecha_registro": "2014-07-02",
    "Municipio": "Santa Catarina",
    "Direccion": "1a. Pte. 318, Adolfo López Mateos, 66360 NL, México",
    "lon": -100.4499969,
    "lat": 25.6920204,
    "id": "541a2cb6908e69c4ed7044d7"
  },
  {
    "Arbol_id": 41168,
    "Folio": 0,
    "Usuario_id": "usuario2273",
    "Fecha_plantado": "",
    "Especie": "Mimbre",
    "Fecha_registro": "2014-07-24",
    "Municipio": "Guadalupe",
    "Direccion": "Miguel Angel Asturias 2245, Sin Nombre de Colonia 71, NL, México",
    "lon": -99.1773682,
    "lat": 19.3373299,
    "id": "541a2cb7908e69c4ed70546a"
  },
  {
    "Arbol_id": 41846,
    "Folio": 0,
    "Usuario_id": "usuario2273",
    "Fecha_plantado": "",
    "Especie": "Mimbre",
    "Fecha_registro": "2014-07-29",
    "Municipio": "Guadalupe",
    "Direccion": "Río Ana 329, Dos Ríos Sector X-a, 67196 NL, México",
    "lon": -100.165062,
    "lat": 25.6776791,
    "id": "541a2cb7908e69c4ed705708"
  }
]