[
  {
    "Arbol_id": 793,
    "Folio": 0,
    "Usuario_id": "usuario1965",
    "Fecha_plantado": "",
    "Especie": "Monilla",
    "Fecha_registro": "2013-06-21",
    "Municipio": "Monterrey",
    "Direccion": "Avenida Eugenio Garza Lagüera, Zona Valle Oriente, 66269 Nuevo Leon, Mexico",
    "lon": -100.3295212,
    "lat": 25.6437206,
    "id": "541a2cac908e69c4ed6fb9c7"
  },
  {
    "Arbol_id": 1490,
    "Folio": 0,
    "Usuario_id": "usuario153",
    "Fecha_plantado": "",
    "Especie": "Monilla",
    "Fecha_registro": "2013-07-11",
    "Municipio": "Monterrey",
    "Direccion": "Camino Al Panteon 7108, Lomas Mederos, 64978 Monterrey, NL, México",
    "lon": -100.2661819,
    "lat": 25.5923004,
    "id": "541a2cac908e69c4ed6fbc19"
  },
  {
    "Arbol_id": 14820,
    "Folio": 0,
    "Usuario_id": "usuario2273",
    "Fecha_plantado": "",
    "Especie": "Monilla",
    "Fecha_registro": "2014-03-26",
    "Municipio": "Guadalupe",
    "Direccion": "Dante Alighieri 2831, Contry La Silla 4o Sector, 67173 NL, México",
    "lon": -100.2682037,
    "lat": 25.6328392,
    "id": "541a2cb0908e69c4ed6feec1"
  },
  {
    "Arbol_id": 17098,
    "Folio": 0,
    "Usuario_id": "usuario1202",
    "Fecha_plantado": "",
    "Especie": "Monilla",
    "Fecha_registro": "2014-04-08",
    "Municipio": "Monterrey",
    "Direccion": "Luis Elizondo 918, Narvarte, 64830 Monterrey, NL, México",
    "lon": -100.2841873,
    "lat": 25.6526108,
    "id": "541a2cb0908e69c4ed6ff767"
  },
  {
    "Arbol_id": 25526,
    "Folio": 0,
    "Usuario_id": "usuario1154",
    "Fecha_plantado": "",
    "Especie": "Monilla",
    "Fecha_registro": "2014-05-20",
    "Municipio": "Monterrey",
    "Direccion": "Paseo San Gabriel, Sin Nombre de Colonia 63, Monterrey, NL, México",
    "lon": -100.2545395,
    "lat": 25.5781803,
    "id": "541a2cb3908e69c4ed7017d2"
  }
]