[
  {
    "Arbol_id": 611,
    "Folio": 0,
    "Usuario_id": "usuario2715",
    "Fecha_plantado": "",
    "Especie": "Palma Sabal",
    "Fecha_registro": "2013-06-20",
    "Municipio": "Monterrey",
    "Direccion": "Junco De La Vega 3229, Valle Primavera, 64833 Monterrey, Nuevo Leon, Mexico",
    "lon": -100.2848587,
    "lat": 25.6482468,
    "id": "541a2cac908e69c4ed6fb923"
  },
  {
    "Arbol_id": 614,
    "Folio": 0,
    "Usuario_id": "usuario2715",
    "Fecha_plantado": "",
    "Especie": "Palma Sabal",
    "Fecha_registro": "2013-06-20",
    "Municipio": "Monterrey",
    "Direccion": "Junco De La Vega 3229, Valle Primavera, Monterrey, Nuevo Leon, Mexico",
    "lon": -100.2848587,
    "lat": 25.6482468,
    "id": "541a2cac908e69c4ed6fb926"
  },
  {
    "Arbol_id": 664,
    "Folio": 0,
    "Usuario_id": "usuario253",
    "Fecha_plantado": "",
    "Especie": "Palma Sabal",
    "Fecha_registro": "2013-06-20",
    "Municipio": "Monterrey",
    "Direccion": "Paseo de las Cumbres Oriente, Cumbres Madeira, Monterrey, Nuevo Leon, Mexico",
    "lon": -100.4170914,
    "lat": 25.7555504,
    "id": "541a2cac908e69c4ed6fb953"
  },
  {
    "Arbol_id": 668,
    "Folio": 0,
    "Usuario_id": "usuario253",
    "Fecha_plantado": "",
    "Especie": "Palma Sabal",
    "Fecha_registro": "2013-06-20",
    "Municipio": "Monterrey",
    "Direccion": "Paseo de las Cumbres Oriente, Cumbres Madeira, Monterrey, Nuevo Leon, Mexico",
    "lon": -100.4170914,
    "lat": 25.7555504,
    "id": "541a2cac908e69c4ed6fb957"
  },
  {
    "Arbol_id": 669,
    "Folio": 0,
    "Usuario_id": "usuario253",
    "Fecha_plantado": "",
    "Especie": "Palma Sabal",
    "Fecha_registro": "2013-06-20",
    "Municipio": "Monterrey",
    "Direccion": "Paseo de las Cumbres Oriente, Cumbres Madeira, Monterrey, Nuevo Leon, Mexico",
    "lon": -100.4170914,
    "lat": 25.7555504,
    "id": "541a2cac908e69c4ed6fb958"
  },
  {
    "Arbol_id": 670,
    "Folio": 0,
    "Usuario_id": "usuario253",
    "Fecha_plantado": "",
    "Especie": "Palma Sabal",
    "Fecha_registro": "2013-06-20",
    "Municipio": "Monterrey",
    "Direccion": "Paseo de las Cumbres Oriente, Cumbres Madeira, Monterrey, Nuevo Leon, Mexico",
    "lon": -100.4170914,
    "lat": 25.7555504,
    "id": "541a2cac908e69c4ed6fb959"
  },
  {
    "Arbol_id": 673,
    "Folio": 0,
    "Usuario_id": "usuario253",
    "Fecha_plantado": "",
    "Especie": "Palma Sabal",
    "Fecha_registro": "2013-06-20",
    "Municipio": "Monterrey",
    "Direccion": "Paseo de las Cumbres Oriente, Cumbres Madeira, Monterrey, Nuevo Leon, Mexico",
    "lon": -100.4170914,
    "lat": 25.7555504,
    "id": "541a2cac908e69c4ed6fb95c"
  },
  {
    "Arbol_id": 674,
    "Folio": 0,
    "Usuario_id": "usuario253",
    "Fecha_plantado": "",
    "Especie": "Palma Sabal",
    "Fecha_registro": "2013-06-20",
    "Municipio": "Monterrey",
    "Direccion": "Paseo de las Cumbres Oriente, Cumbres Madeira, Monterrey, Nuevo Leon, Mexico",
    "lon": -100.4170914,
    "lat": 25.7555504,
    "id": "541a2cac908e69c4ed6fb95d"
  },
  {
    "Arbol_id": 675,
    "Folio": 0,
    "Usuario_id": "usuario253",
    "Fecha_plantado": "",
    "Especie": "Palma Sabal",
    "Fecha_registro": "2013-06-20",
    "Municipio": "Monterrey",
    "Direccion": "Paseo de las Cumbres Oriente, Cumbres Madeira, Monterrey, Nuevo Leon, Mexico",
    "lon": -100.4170914,
    "lat": 25.7555504,
    "id": "541a2cac908e69c4ed6fb95e"
  },
  {
    "Arbol_id": 678,
    "Folio": 0,
    "Usuario_id": "usuario253",
    "Fecha_plantado": "",
    "Especie": "Palma Sabal",
    "Fecha_registro": "2013-06-20",
    "Municipio": "Monterrey",
    "Direccion": "Paseo de las Cumbres Oriente, Cumbres Madeira, Monterrey, Nuevo Leon, Mexico",
    "lon": -100.4170914,
    "lat": 25.7555504,
    "id": "541a2cac908e69c4ed6fb961"
  },
  {
    "Arbol_id": 679,
    "Folio": 0,
    "Usuario_id": "usuario253",
    "Fecha_plantado": "",
    "Especie": "Palma Sabal",
    "Fecha_registro": "2013-06-20",
    "Municipio": "Monterrey",
    "Direccion": "Paseo de las Cumbres Oriente, Cumbres Madeira, Monterrey, Nuevo Leon, Mexico",
    "lon": -100.4170914,
    "lat": 25.7555504,
    "id": "541a2cac908e69c4ed6fb962"
  },
  {
    "Arbol_id": 680,
    "Folio": 0,
    "Usuario_id": "usuario253",
    "Fecha_plantado": "",
    "Especie": "Palma Sabal",
    "Fecha_registro": "2013-06-20",
    "Municipio": "Monterrey",
    "Direccion": "Paseo de las Cumbres Oriente, Cumbres Madeira, Monterrey, Nuevo Leon, Mexico",
    "lon": -100.4170914,
    "lat": 25.7555504,
    "id": "541a2cac908e69c4ed6fb963"
  },
  {
    "Arbol_id": 683,
    "Folio": 0,
    "Usuario_id": "usuario253",
    "Fecha_plantado": "",
    "Especie": "Palma Sabal",
    "Fecha_registro": "2013-06-20",
    "Municipio": "Monterrey",
    "Direccion": "Paseo de las Cumbres Oriente, Cumbres Madeira, Monterrey, Nuevo Leon, Mexico",
    "lon": -100.4170914,
    "lat": 25.7555504,
    "id": "541a2cac908e69c4ed6fb966"
  },
  {
    "Arbol_id": 684,
    "Folio": 0,
    "Usuario_id": "usuario253",
    "Fecha_plantado": "",
    "Especie": "Palma Sabal",
    "Fecha_registro": "2013-06-20",
    "Municipio": "Monterrey",
    "Direccion": "Paseo de las Cumbres Oriente, Cumbres Madeira, Monterrey, Nuevo Leon, Mexico",
    "lon": -100.4170914,
    "lat": 25.7555504,
    "id": "541a2cac908e69c4ed6fb967"
  },
  {
    "Arbol_id": 685,
    "Folio": 0,
    "Usuario_id": "usuario253",
    "Fecha_plantado": "",
    "Especie": "Palma Sabal",
    "Fecha_registro": "2013-06-20",
    "Municipio": "Monterrey",
    "Direccion": "Paseo de las Cumbres Oriente, Cumbres Madeira, Monterrey, Nuevo Leon, Mexico",
    "lon": -100.4170914,
    "lat": 25.7555504,
    "id": "541a2cac908e69c4ed6fb968"
  },
  {
    "Arbol_id": 689,
    "Folio": 0,
    "Usuario_id": "usuario253",
    "Fecha_plantado": "",
    "Especie": "Palma Sabal",
    "Fecha_registro": "2013-06-20",
    "Municipio": "Monterrey",
    "Direccion": "Paseo de las Cumbres Oriente, Cumbres Madeira, Monterrey, Nuevo Leon, Mexico",
    "lon": -100.4170914,
    "lat": 25.7555504,
    "id": "541a2cac908e69c4ed6fb96c"
  },
  {
    "Arbol_id": 690,
    "Folio": 0,
    "Usuario_id": "usuario253",
    "Fecha_plantado": "",
    "Especie": "Palma Sabal",
    "Fecha_registro": "2013-06-20",
    "Municipio": "Monterrey",
    "Direccion": "Paseo de las Cumbres Oriente, Cumbres Madeira, Monterrey, Nuevo Leon, Mexico",
    "lon": -100.4170914,
    "lat": 25.7555504,
    "id": "541a2cac908e69c4ed6fb96d"
  },
  {
    "Arbol_id": 694,
    "Folio": 0,
    "Usuario_id": "usuario253",
    "Fecha_plantado": "",
    "Especie": "Palma Sabal",
    "Fecha_registro": "2013-06-20",
    "Municipio": "Monterrey",
    "Direccion": "Paseo de las Cumbres Poniente, Cumbres Madeira, Monterrey, Nuevo Leon, Mexico",
    "lon": -100.4170914,
    "lat": 25.7555504,
    "id": "541a2cac908e69c4ed6fb971"
  },
  {
    "Arbol_id": 695,
    "Folio": 0,
    "Usuario_id": "usuario253",
    "Fecha_plantado": "",
    "Especie": "Palma Sabal",
    "Fecha_registro": "2013-06-20",
    "Municipio": "Monterrey",
    "Direccion": "Paseo de las Cumbres Oriente, Cumbres Madeira, Monterrey, Nuevo Leon, Mexico",
    "lon": -100.4170914,
    "lat": 25.7555504,
    "id": "541a2cac908e69c4ed6fb972"
  },
  {
    "Arbol_id": 699,
    "Folio": 0,
    "Usuario_id": "usuario253",
    "Fecha_plantado": "",
    "Especie": "Palma Sabal",
    "Fecha_registro": "2013-06-20",
    "Municipio": "Monterrey",
    "Direccion": "Paseo de las Cumbres Oriente, Cumbres Madeira, Monterrey, Nuevo Leon, Mexico",
    "lon": -100.4170914,
    "lat": 25.7555504,
    "id": "541a2cac908e69c4ed6fb976"
  },
  {
    "Arbol_id": 700,
    "Folio": 0,
    "Usuario_id": "usuario253",
    "Fecha_plantado": "",
    "Especie": "Palma Sabal",
    "Fecha_registro": "2013-06-20",
    "Municipio": "Monterrey",
    "Direccion": "Paseo de las Cumbres Poniente, Cumbres Madeira, Monterrey, Nuevo Leon, Mexico",
    "lon": -100.4170914,
    "lat": 25.7555504,
    "id": "541a2cac908e69c4ed6fb977"
  },
  {
    "Arbol_id": 704,
    "Folio": 0,
    "Usuario_id": "usuario253",
    "Fecha_plantado": "",
    "Especie": "Palma Sabal",
    "Fecha_registro": "2013-06-20",
    "Municipio": "Monterrey",
    "Direccion": "Paseo de las Cumbres Oriente, Cumbres Madeira, Monterrey, Nuevo Leon, Mexico",
    "lon": -100.4170914,
    "lat": 25.7555504,
    "id": "541a2cac908e69c4ed6fb97b"
  },
  {
    "Arbol_id": 705,
    "Folio": 0,
    "Usuario_id": "usuario253",
    "Fecha_plantado": "",
    "Especie": "Palma Sabal",
    "Fecha_registro": "2013-06-20",
    "Municipio": "Monterrey",
    "Direccion": "Paseo de las Cumbres Poniente, Cumbres Madeira, Monterrey, Nuevo Leon, Mexico",
    "lon": -100.4170914,
    "lat": 25.7555504,
    "id": "541a2cac908e69c4ed6fb97c"
  },
  {
    "Arbol_id": 709,
    "Folio": 0,
    "Usuario_id": "usuario253",
    "Fecha_plantado": "",
    "Especie": "Palma Sabal",
    "Fecha_registro": "2013-06-20",
    "Municipio": "Monterrey",
    "Direccion": "Paseo de las Cumbres Poniente, Cumbres Madeira, Monterrey, Nuevo Leon, Mexico",
    "lon": -100.4170914,
    "lat": 25.7555504,
    "id": "541a2cac908e69c4ed6fb980"
  },
  {
    "Arbol_id": 710,
    "Folio": 0,
    "Usuario_id": "usuario253",
    "Fecha_plantado": "",
    "Especie": "Palma Sabal",
    "Fecha_registro": "2013-06-20",
    "Municipio": "Monterrey",
    "Direccion": "Paseo de las Cumbres Poniente, Cumbres Madeira, Monterrey, Nuevo Leon, Mexico",
    "lon": -100.4170914,
    "lat": 25.7555504,
    "id": "541a2cac908e69c4ed6fb981"
  },
  {
    "Arbol_id": 714,
    "Folio": 0,
    "Usuario_id": "usuario253",
    "Fecha_plantado": "",
    "Especie": "Palma Sabal",
    "Fecha_registro": "2013-06-20",
    "Municipio": "Monterrey",
    "Direccion": "Paseo de las Cumbres Poniente, Cumbres Madeira, Monterrey, Nuevo Leon, Mexico",
    "lon": -100.4170914,
    "lat": 25.7555504,
    "id": "541a2cac908e69c4ed6fb985"
  },
  {
    "Arbol_id": 1145,
    "Folio": 0,
    "Usuario_id": "usuario472",
    "Fecha_plantado": "",
    "Especie": "Palma Sabal",
    "Fecha_registro": "2013-07-04",
    "Municipio": "Monterrey",
    "Direccion": "Playa Hornos 3149, Narvarte, 64833 Monterrey, Nuevo Leon, Mexico",
    "lon": -100.2827301,
    "lat": 25.6491508,
    "id": "541a2cac908e69c4ed6fbb08"
  },
  {
    "Arbol_id": 1186,
    "Folio": 0,
    "Usuario_id": "usuario472",
    "Fecha_plantado": "",
    "Especie": "Palma Sabal",
    "Fecha_registro": "2013-07-04",
    "Municipio": "Monterrey",
    "Direccion": "Nantes 3209, Valle Primavera, 64833 Monterrey, Nuevo Leon, Mexico",
    "lon": -100.282547,
    "lat": 25.6488705,
    "id": "541a2cac908e69c4ed6fbb2c"
  },
  {
    "Arbol_id": 1235,
    "Folio": 0,
    "Usuario_id": "usuario938",
    "Fecha_plantado": "",
    "Especie": "Palma Sabal",
    "Fecha_registro": "2013-07-05",
    "Municipio": "Monterrey",
    "Direccion": "Valle Primavera, 64833 Monterrey, Nuevo Leon, Mexico",
    "lon": "",
    "lat": "",
    "id": "541a2cac908e69c4ed6fbb57"
  },
  {
    "Arbol_id": 1551,
    "Folio": 0,
    "Usuario_id": "usuario1799",
    "Fecha_plantado": "",
    "Especie": "Palma Sabal",
    "Fecha_registro": "2013-07-12",
    "Municipio": "Monterrey",
    "Direccion": "Cruz Azul, Estadio, 64830 Monterrey, Nuevo Leon, Mexico",
    "lon": -100.2824707,
    "lat": 25.6534691,
    "id": "541a2cac908e69c4ed6fbc46"
  },
  {
    "Arbol_id": 1646,
    "Folio": 4,
    "Usuario_id": "usuario2934",
    "Fecha_plantado": "",
    "Especie": "Palma Sabal",
    "Fecha_registro": "2013-07-25",
    "Municipio": "Monterrey",
    "Direccion": "Paseo Alicia 1132, Valle del Mirador, 64750 Monterrey, NL, México",
    "lon": -100.3121414,
    "lat": 25.6407909,
    "id": "541a2cac908e69c4ed6fbc95"
  },
  {
    "Arbol_id": 2235,
    "Folio": 0,
    "Usuario_id": "usuario665",
    "Fecha_plantado": "",
    "Especie": "Palma Sabal",
    "Fecha_registro": "2013-10-11",
    "Municipio": "Monterrey",
    "Direccion": "Físicos, Tecnológico, 64700 Monterrey, Nuevo Leon, Mexico",
    "lon": -100.2948074,
    "lat": 25.6504993,
    "id": "541a2cac908e69c4ed6fbea0"
  },
  {
    "Arbol_id": 2291,
    "Folio": 0,
    "Usuario_id": "usuario375",
    "Fecha_plantado": "",
    "Especie": "Palma Sabal",
    "Fecha_registro": "2013-10-11",
    "Municipio": "Monterrey",
    "Direccion": "Miramar, La Primavera, 67855 Monterrey, Nuevo Leon, Mexico",
    "lon": -100.2674408,
    "lat": 25.6914692,
    "id": "541a2cac908e69c4ed6fbed3"
  },
  {
    "Arbol_id": 4714,
    "Folio": 0,
    "Usuario_id": "usuario2273",
    "Fecha_plantado": "",
    "Especie": "Palma Sabal",
    "Fecha_registro": "2014-01-29",
    "Municipio": "Guadalupe",
    "Direccion": "Paseo de las Americas 3115, Contry La Silla 1er Sector, 67173 NL, México",
    "lon": -100.2684631,
    "lat": 25.6352692,
    "id": "541a2cad908e69c4ed6fc7e2"
  },
  {
    "Arbol_id": 10883,
    "Folio": 3071,
    "Usuario_id": "usuario456",
    "Fecha_plantado": "",
    "Especie": "Palma Sabal",
    "Fecha_registro": "2014-03-04",
    "Municipio": "García",
    "Direccion": "Sierra Real, NL, México",
    "lon": -100.58991241455078,
    "lat": 25.779338836669922,
    "id": "541a2cae908e69c4ed6fdf97"
  },
  {
    "Arbol_id": 13752,
    "Folio": 0,
    "Usuario_id": "usuario2273",
    "Fecha_plantado": "",
    "Especie": "Palma Sabal",
    "Fecha_registro": "2014-03-20",
    "Municipio": "Guadalupe",
    "Direccion": "Ortega Y. Gasset 2801, Contry La Silla 4o Sector, 67173 NL, México",
    "lon": -100.2677383,
    "lat": 25.6333294,
    "id": "541a2caf908e69c4ed6feaad"
  },
  {
    "Arbol_id": 13754,
    "Folio": 0,
    "Usuario_id": "usuario2273",
    "Fecha_plantado": "",
    "Especie": "Palma Sabal",
    "Fecha_registro": "2014-03-20",
    "Municipio": "Guadalupe",
    "Direccion": "Ortega Y. Gasset 2801, Contry La Silla 4o Sector, 67173 NL, México",
    "lon": -100.2677383,
    "lat": 25.6333294,
    "id": "541a2caf908e69c4ed6feaaf"
  },
  {
    "Arbol_id": 18543,
    "Folio": 0,
    "Usuario_id": "usuario307",
    "Fecha_plantado": "",
    "Especie": "Palma Sabal",
    "Fecha_registro": "2014-04-11",
    "Municipio": "San Nicolás",
    "Direccion": "Tenochtitlan 245-247, Residencial Anáhuac 1er Sector, 66457 Nuevo Leon, Mexico",
    "lon": -100.3157578,
    "lat": 25.7446842,
    "id": "541a2cb1908e69c4ed6ffcd4"
  },
  {
    "Arbol_id": 18585,
    "Folio": 0,
    "Usuario_id": "usuario1295",
    "Fecha_plantado": "",
    "Especie": "Palma Sabal",
    "Fecha_registro": "2014-04-12",
    "Municipio": "Guadalupe",
    "Direccion": "Las Palmas 2052, Bosques del Contry A-6, 67176 Nuevo Leon, Mexico",
    "lon": -100.2461014,
    "lat": 25.6607304,
    "id": "541a2cb1908e69c4ed6ffcf2"
  },
  {
    "Arbol_id": 20751,
    "Folio": 1037,
    "Usuario_id": "usuario2358",
    "Fecha_plantado": "",
    "Especie": "Palma Sabal",
    "Fecha_registro": "2014-04-29",
    "Municipio": "San Pedro",
    "Direccion": "Río Tigris 175, Del Valle Sector Fátima, NL, México",
    "lon": -100.3710938,
    "lat": 25.6499195,
    "id": "541a2cb1908e69c4ed70054a"
  },
  {
    "Arbol_id": 20754,
    "Folio": 1038,
    "Usuario_id": "usuario2358",
    "Fecha_plantado": "",
    "Especie": "Palma Sabal",
    "Fecha_registro": "2014-04-29",
    "Municipio": "San Pedro",
    "Direccion": "Río Tigris 175, Del Valle Sector Fátima, NL, México",
    "lon": -100.3710938,
    "lat": 25.6499195,
    "id": "541a2cb1908e69c4ed70054d"
  },
  {
    "Arbol_id": 20756,
    "Folio": 1039,
    "Usuario_id": "usuario2358",
    "Fecha_plantado": "",
    "Especie": "Palma Sabal",
    "Fecha_registro": "2014-04-29",
    "Municipio": "San Pedro",
    "Direccion": "Río Tigris 175, Del Valle Sector Fátima, NL, México",
    "lon": -100.3710938,
    "lat": 25.6499195,
    "id": "541a2cb1908e69c4ed70054f"
  },
  {
    "Arbol_id": 20846,
    "Folio": 1070,
    "Usuario_id": "usuario2358",
    "Fecha_plantado": "",
    "Especie": "Palma Sabal",
    "Fecha_registro": "2014-04-29",
    "Municipio": "San Pedro",
    "Direccion": "Río Eufrates, Del Valle Sector Fátima, NL, México",
    "lon": -100.3722076,
    "lat": 25.6500702,
    "id": "541a2cb1908e69c4ed7005a9"
  },
  {
    "Arbol_id": 20849,
    "Folio": 1072,
    "Usuario_id": "usuario2358",
    "Fecha_plantado": "",
    "Especie": "Palma Sabal",
    "Fecha_registro": "2014-04-29",
    "Municipio": "San Pedro",
    "Direccion": "Río Eufrates, Del Valle Sector Fátima, NL, México",
    "lon": -100.3722076,
    "lat": 25.6500702,
    "id": "541a2cb1908e69c4ed7005ac"
  },
  {
    "Arbol_id": 20851,
    "Folio": 1073,
    "Usuario_id": "usuario2358",
    "Fecha_plantado": "",
    "Especie": "Palma Sabal",
    "Fecha_registro": "2014-04-29",
    "Municipio": "San Pedro",
    "Direccion": "Río Eufrates, Del Valle Sector Fátima, NL, México",
    "lon": -100.3722076,
    "lat": 25.6500702,
    "id": "541a2cb1908e69c4ed7005ae"
  },
  {
    "Arbol_id": 26732,
    "Folio": 0,
    "Usuario_id": "usuario2224",
    "Fecha_plantado": "",
    "Especie": "Palma Sabal",
    "Fecha_registro": "2014-05-25",
    "Municipio": "Monterrey",
    "Direccion": "Paseo San Gabriel, Sin Nombre de Colonia 63, Monterrey, NL, México",
    "lon": -100.2545395,
    "lat": 25.5781803,
    "id": "541a2cb3908e69c4ed701c5c"
  },
  {
    "Arbol_id": 33202,
    "Folio": 2614,
    "Usuario_id": "usuario845",
    "Fecha_plantado": "2014-06-18T00:00:00Z",
    "Especie": "Palma Sabal",
    "Fecha_registro": "2014-06-18",
    "Municipio": "Juárez",
    "Direccion": "Hda. San Andrés 500, Hacienda Santa Lucía 1er. Sector, 67250 Ciudad Benito Juárez, NL, México",
    "lon": -100.1240082,
    "lat": 25.65592,
    "id": "541a2cb5908e69c4ed70357f"
  },
  {
    "Arbol_id": 33203,
    "Folio": 2615,
    "Usuario_id": "usuario845",
    "Fecha_plantado": "2014-06-18T00:00:00Z",
    "Especie": "Palma Sabal",
    "Fecha_registro": "2014-06-18",
    "Municipio": "Juárez",
    "Direccion": "Hda. San Andrés 502, Hacienda Santa Lucía 1er. Sector, 67250 Ciudad Benito Juárez, NL, México",
    "lon": -100.1239395,
    "lat": 25.65588,
    "id": "541a2cb5908e69c4ed703580"
  },
  {
    "Arbol_id": 43902,
    "Folio": 0,
    "Usuario_id": "usuario2536",
    "Fecha_plantado": "",
    "Especie": "Palma Sabal",
    "Fecha_registro": "2014-08-14",
    "Municipio": "Santa Catarina",
    "Direccion": "Bosques de Olivo 533, Bosques del Poniente, 66362 NL, México",
    "lon": -100.4548187,
    "lat": 25.67799,
    "id": "541a2cb8908e69c4ed705efa"
  },
  {
    "Arbol_id": 43903,
    "Folio": 0,
    "Usuario_id": "usuario2536",
    "Fecha_plantado": "",
    "Especie": "Palma Sabal",
    "Fecha_registro": "2014-08-14",
    "Municipio": "Santa Catarina",
    "Direccion": "Bosques de Olivo 533, Bosques del Poniente, 66362 NL, México",
    "lon": -100.4548187,
    "lat": 25.67799,
    "id": "541a2cb8908e69c4ed705efb"
  }
]