[
  {
    "Arbol_id": 169,
    "Folio": 0,
    "Usuario_id": "usuario1068",
    "Fecha_plantado": "",
    "Especie": "Sauce de Río",
    "Fecha_registro": "2013-05-21",
    "Municipio": "Monterrey",
    "Direccion": "Camino Al Mirador 5216, Del Paseo Residencial, 64900 Monterrey, NL, México",
    "lon": -100.2988968,
    "lat": 25.6269703,
    "id": "541a2cab908e69c4ed6fb782"
  },
  {
    "Arbol_id": 800,
    "Folio": 0,
    "Usuario_id": "usuario1965",
    "Fecha_plantado": "",
    "Especie": "Sauce de Río",
    "Fecha_registro": "2013-06-21",
    "Municipio": "Monterrey",
    "Direccion": "Avenida Eugenio Garza Lagüera, Zona Valle Oriente, 66269 Nuevo Leon, Mexico",
    "lon": -100.3295212,
    "lat": 25.6437206,
    "id": "541a2cac908e69c4ed6fb9cb"
  },
  {
    "Arbol_id": 987,
    "Folio": 0,
    "Usuario_id": "usuario153",
    "Fecha_plantado": "",
    "Especie": "Sauce de Río",
    "Fecha_registro": "2013-06-22",
    "Municipio": "Monterrey",
    "Direccion": "Calle Captain Fernández de Castro, Sin Nombre de Colonia 49, Monterrey, NL, México",
    "lon": -100.2645874,
    "lat": 25.59585,
    "id": "541a2cac908e69c4ed6fba7d"
  },
  {
    "Arbol_id": 1020,
    "Folio": 0,
    "Usuario_id": "usuario153",
    "Fecha_plantado": "",
    "Especie": "Sauce de Río",
    "Fecha_registro": "2013-06-22",
    "Municipio": "Monterrey",
    "Direccion": "Panorámica 106, Ciudad Satélite, 64960 Monterrey, NL, México",
    "lon": -100.2700577,
    "lat": 25.59828,
    "id": "541a2cac908e69c4ed6fba9d"
  },
  {
    "Arbol_id": 1440,
    "Folio": 0,
    "Usuario_id": "usuario2284",
    "Fecha_plantado": "",
    "Especie": "Sauce de Río",
    "Fecha_registro": "2013-07-07",
    "Municipio": "Monterrey",
    "Direccion": "Cruz Azul, Estadio, 64830 Monterrey, Nuevo León, Mexique",
    "lon": -100.2824707,
    "lat": 25.6534691,
    "id": "541a2cac908e69c4ed6fbbf4"
  },
  {
    "Arbol_id": 2121,
    "Folio": 0,
    "Usuario_id": "usuario1850",
    "Fecha_plantado": "",
    "Especie": "Sauce de Río",
    "Fecha_registro": "2013-10-09",
    "Municipio": "Monterrey",
    "Direccion": "Miguel Nieto 1318, Industrial, 64440 Monterrey, NL, México",
    "lon": -100.3273087,
    "lat": 25.6888199,
    "id": "541a2cac908e69c4ed6fbe39"
  },
  {
    "Arbol_id": 2122,
    "Folio": 0,
    "Usuario_id": "usuario1850",
    "Fecha_plantado": "",
    "Especie": "Sauce de Río",
    "Fecha_registro": "2013-10-09",
    "Municipio": "Monterrey",
    "Direccion": "Miguel Nieto 1318, Industrial, 64440 Monterrey, NL, México",
    "lon": -100.3273087,
    "lat": 25.6888199,
    "id": "541a2cac908e69c4ed6fbe3a"
  },
  {
    "Arbol_id": 2148,
    "Folio": 0,
    "Usuario_id": "usuario665",
    "Fecha_plantado": "",
    "Especie": "Sauce de Río",
    "Fecha_registro": "2013-10-09",
    "Municipio": "Monterrey",
    "Direccion": "Arquitectos 144-202, Tecnológico, 64700 Monterrey, Nuevo Leon, Mexico",
    "lon": -100.2948227,
    "lat": 25.6478596,
    "id": "541a2cac908e69c4ed6fbe53"
  },
  {
    "Arbol_id": 2177,
    "Folio": 0,
    "Usuario_id": "usuario919",
    "Fecha_plantado": "",
    "Especie": "Sauce de Río",
    "Fecha_registro": "2013-10-09",
    "Municipio": "Monterrey",
    "Direccion": "Bahía de Biafra, Rincon De La Primavera, 64835 Monterrey, NL, México",
    "lon": -100.2729187,
    "lat": 25.6515808,
    "id": "541a2cac908e69c4ed6fbe6f"
  },
  {
    "Arbol_id": 2889,
    "Folio": 403,
    "Usuario_id": "usuario637",
    "Fecha_plantado": "",
    "Especie": "Sauce de Río",
    "Fecha_registro": "2013-11-09",
    "Municipio": "Monterrey",
    "Direccion": "Arquitectos 144-202, Tecnológico, 64700 Monterrey, NL, México",
    "lon": -100.2948227,
    "lat": 25.6478596,
    "id": "541a2cac908e69c4ed6fc10b"
  },
  {
    "Arbol_id": 3100,
    "Folio": 161,
    "Usuario_id": "usuario1950",
    "Fecha_plantado": "",
    "Especie": "Sauce de Río",
    "Fecha_registro": "2013-11-19",
    "Municipio": "Monterrey",
    "Direccion": "Acacias, Valle Alto, 64989 Monterrey, NL, México",
    "lon": -100.2571335,
    "lat": 25.5835991,
    "id": "541a2cac908e69c4ed6fc1c5"
  },
  {
    "Arbol_id": 5284,
    "Folio": 0,
    "Usuario_id": "usuario2273",
    "Fecha_plantado": "",
    "Especie": "Sauce de Río",
    "Fecha_registro": "2014-01-31",
    "Municipio": "Guadalupe",
    "Direccion": "Del Río 3427, Riberas del Río, 67160 NL, México",
    "lon": -100.2183304,
    "lat": 25.6786499,
    "id": "541a2cad908e69c4ed6fca13"
  },
  {
    "Arbol_id": 7227,
    "Folio": 0,
    "Usuario_id": "usuario2469",
    "Fecha_plantado": "",
    "Especie": "Sauce de Río",
    "Fecha_registro": "2014-02-14",
    "Municipio": "San Pedro",
    "Direccion": "Licenciado Benito Juárez 250-S, Casco Urbano, 66230 NL, México",
    "lon": "",
    "lat": "",
    "id": "541a2cad908e69c4ed6fd192"
  },
  {
    "Arbol_id": 12193,
    "Folio": 0,
    "Usuario_id": "usuario2273",
    "Fecha_plantado": "",
    "Especie": "Sauce de Río",
    "Fecha_registro": "2014-03-07",
    "Municipio": "Guadalupe",
    "Direccion": "Marea 3202, Riberas del Río, 67160 NL, México",
    "lon": -100.2195587,
    "lat": 25.6826191,
    "id": "541a2caf908e69c4ed6fe4ad"
  },
  {
    "Arbol_id": 12876,
    "Folio": 0,
    "Usuario_id": "usuario1202",
    "Fecha_plantado": "",
    "Especie": "Sauce de Río",
    "Fecha_registro": "2014-03-11",
    "Municipio": "Monterrey",
    "Direccion": "Independiente 2721, Estadio, 64830 Monterrey, NL, México",
    "lon": -100.2804871,
    "lat": 25.6531506,
    "id": "541a2caf908e69c4ed6fe74a"
  },
  {
    "Arbol_id": 14689,
    "Folio": 0,
    "Usuario_id": "usuario2273",
    "Fecha_plantado": "",
    "Especie": "Sauce de Río",
    "Fecha_registro": "2014-03-26",
    "Municipio": "Guadalupe",
    "Direccion": "Dante Alighieri 2831, Contry La Silla 4o Sector, 67173 NL, México",
    "lon": -100.2682037,
    "lat": 25.6328392,
    "id": "541a2cb0908e69c4ed6fee48"
  },
  {
    "Arbol_id": 14980,
    "Folio": 0,
    "Usuario_id": "usuario1099",
    "Fecha_plantado": "",
    "Especie": "Sauce de Río",
    "Fecha_registro": "2014-03-27",
    "Municipio": "Apodaca",
    "Direccion": "P. de Segovia 304, Misión de Huinala, 66646 Nuevo Leon, Mexico",
    "lon": -100.1592865,
    "lat": 25.7553902,
    "id": "541a2cb0908e69c4ed6fef61"
  },
  {
    "Arbol_id": 15305,
    "Folio": 0,
    "Usuario_id": "usuario2248",
    "Fecha_plantado": "",
    "Especie": "Sauce de Río",
    "Fecha_registro": "2014-03-29",
    "Municipio": "Escobedo",
    "Direccion": "Avenida Las Torres 228, Topo Grande, 66056 Escobedo, NL, México",
    "lon": -100.3135529,
    "lat": 25.7838497,
    "id": "541a2cb0908e69c4ed6ff090"
  },
  {
    "Arbol_id": 15307,
    "Folio": 0,
    "Usuario_id": "usuario2248",
    "Fecha_plantado": "",
    "Especie": "Sauce de Río",
    "Fecha_registro": "2014-03-29",
    "Municipio": "Escobedo",
    "Direccion": "Avenida Las Torres 228, Topo Grande, 66056 Escobedo, NL, México",
    "lon": -100.3135529,
    "lat": 25.7838497,
    "id": "541a2cb0908e69c4ed6ff092"
  },
  {
    "Arbol_id": 15328,
    "Folio": 867,
    "Usuario_id": "usuario845",
    "Fecha_plantado": "2014-03-31T00:00:00Z",
    "Especie": "Sauce de Río",
    "Fecha_registro": "2014-03-31",
    "Municipio": "Juárez",
    "Direccion": "Paseo de las Azucenas, Paseo del Prado, Ciudad Benito Juárez, NL, México",
    "lon": -100.1175995,
    "lat": 25.6498203,
    "id": "541a2cb0908e69c4ed6ff0a7"
  },
  {
    "Arbol_id": 15331,
    "Folio": 868,
    "Usuario_id": "usuario845",
    "Fecha_plantado": "2014-03-31T00:00:00Z",
    "Especie": "Sauce de Río",
    "Fecha_registro": "2014-03-31",
    "Municipio": "Juárez",
    "Direccion": "Paseo de las Azucenas, Paseo del Prado, Ciudad Benito Juárez, NL, México",
    "lon": -100.1175995,
    "lat": 25.6498203,
    "id": "541a2cb0908e69c4ed6ff0aa"
  },
  {
    "Arbol_id": 16248,
    "Folio": 1023,
    "Usuario_id": "usuario845",
    "Fecha_plantado": "2014-04-02T00:00:00Z",
    "Especie": "Sauce de Río",
    "Fecha_registro": "2014-04-02",
    "Municipio": "Juárez",
    "Direccion": "Hda Bellavista, Ex Hacienda El Rosario, Jardines de La Silla, NL, México",
    "lon": -100.32122039794922,
    "lat": 25.70121955871582,
    "id": "541a2cb0908e69c4ed6ff43e"
  },
  {
    "Arbol_id": 16632,
    "Folio": 1082,
    "Usuario_id": "usuario819",
    "Fecha_plantado": "",
    "Especie": "Sauce de Río",
    "Fecha_registro": "2014-04-04",
    "Municipio": "Juárez",
    "Direccion": "Av. Ex Hacienda El Rosario, Ex Hacienda El Rosario, Jardines de La Silla, NL, México",
    "lon": "",
    "lat": "",
    "id": "541a2cb0908e69c4ed6ff5be"
  },
  {
    "Arbol_id": 18669,
    "Folio": 0,
    "Usuario_id": "usuario2248",
    "Fecha_plantado": "",
    "Especie": "Sauce de Río",
    "Fecha_registro": "2014-04-13",
    "Municipio": "Escobedo",
    "Direccion": "7 541, Praderas de Girasoles, 66056 Escobedo, NL, México",
    "lon": "",
    "lat": "",
    "id": "541a2cb1908e69c4ed6ffd3b"
  },
  {
    "Arbol_id": 24227,
    "Folio": 4,
    "Usuario_id": "usuario767",
    "Fecha_plantado": "",
    "Especie": "Sauce de Río",
    "Fecha_registro": "2014-05-15",
    "Municipio": "Monterrey",
    "Direccion": "Calle Montevideo 110, Alta Vista, 64840 Monterrey, NL, México",
    "lon": -100.2879562,
    "lat": 25.6480694,
    "id": "541a2cb2908e69c4ed7012cc"
  },
  {
    "Arbol_id": 24389,
    "Folio": 0,
    "Usuario_id": "usuario767",
    "Fecha_plantado": "",
    "Especie": "Sauce de Río",
    "Fecha_registro": "2014-05-15",
    "Municipio": "Monterrey",
    "Direccion": "Guayaquil 204, Alta Vista, Monterrey, NL, México",
    "lon": -100.2875977,
    "lat": 25.6475697,
    "id": "541a2cb2908e69c4ed70136e"
  },
  {
    "Arbol_id": 24762,
    "Folio": 176,
    "Usuario_id": "usuario767",
    "Fecha_plantado": "",
    "Especie": "Sauce de Río",
    "Fecha_registro": "2014-05-16",
    "Municipio": "Monterrey",
    "Direccion": "Carlos Osuna 100, Alta Vista, 64840 Monterrey, NL, México",
    "lon": -100.2872009,
    "lat": 25.6489906,
    "id": "541a2cb2908e69c4ed7014db"
  },
  {
    "Arbol_id": 25722,
    "Folio": 0,
    "Usuario_id": "usuario2273",
    "Fecha_plantado": "",
    "Especie": "Sauce de Río",
    "Fecha_registro": "2014-05-21",
    "Municipio": "Guadalupe",
    "Direccion": "Gral. Lázaro Cárdenas 621-S MAQ Y COMPACTADORES TREVI?O, Ignacio Zaragoza, 67160 NL, México",
    "lon": "",
    "lat": "",
    "id": "541a2cb3908e69c4ed701896"
  },
  {
    "Arbol_id": 26586,
    "Folio": 0,
    "Usuario_id": "usuario2248",
    "Fecha_plantado": "",
    "Especie": "Sauce de Río",
    "Fecha_registro": "2014-05-24",
    "Municipio": "Escobedo",
    "Direccion": "Río Marín 401, Jardines del Canadá, 66050 Escobedo, NL, México",
    "lon": -100.3070984,
    "lat": 25.7996597,
    "id": "541a2cb3908e69c4ed701be2"
  },
  {
    "Arbol_id": 26592,
    "Folio": 0,
    "Usuario_id": "usuario2248",
    "Fecha_plantado": "",
    "Especie": "Sauce de Río",
    "Fecha_registro": "2014-05-24",
    "Municipio": "Escobedo",
    "Direccion": "Río Marín 401, Jardines del Canadá, 66050 Escobedo, NL, México",
    "lon": -100.3070984,
    "lat": 25.7996597,
    "id": "541a2cb3908e69c4ed701be7"
  },
  {
    "Arbol_id": 26710,
    "Folio": 0,
    "Usuario_id": "usuario2248",
    "Fecha_plantado": "",
    "Especie": "Sauce de Río",
    "Fecha_registro": "2014-05-25",
    "Municipio": "Escobedo",
    "Direccion": "Avenida Jardines del Canadá 502, Jardines del Canadá, 66050 Escobedo, NL, México",
    "lon": -100.3076096,
    "lat": 25.8009892,
    "id": "541a2cb3908e69c4ed701c46"
  },
  {
    "Arbol_id": 29313,
    "Folio": 0,
    "Usuario_id": "usuario2224",
    "Fecha_plantado": "",
    "Especie": "Sauce de Río",
    "Fecha_registro": "2014-06-01",
    "Municipio": "Monterrey",
    "Direccion": "Paseo San Gabriel, Sin Nombre de Colonia 63, Monterrey, NL, México",
    "lon": -100.2545395,
    "lat": 25.5781803,
    "id": "541a2cb4908e69c4ed70265f"
  },
  {
    "Arbol_id": 31873,
    "Folio": 0,
    "Usuario_id": "usuario2536",
    "Fecha_plantado": "",
    "Especie": "Sauce de Río",
    "Fecha_registro": "2014-06-10",
    "Municipio": "Santa Catarina",
    "Direccion": "19 Ote. 118, Adolfo López Mateos Infonavit, 66360 NL, México",
    "lon": -100.4430161,
    "lat": 25.6904125,
    "id": "541a2cb4908e69c4ed703053"
  },
  {
    "Arbol_id": 33178,
    "Folio": 0,
    "Usuario_id": "usuario2536",
    "Fecha_plantado": "",
    "Especie": "Sauce de Río",
    "Fecha_registro": "2014-06-17",
    "Municipio": "Santa Catarina",
    "Direccion": "Lic. Luis Donaldo Colosio Murrieta, Sin Nombre de Colonia 3, NL, México",
    "lon": "",
    "lat": "",
    "id": "541a2cb5908e69c4ed703567"
  },
  {
    "Arbol_id": 36358,
    "Folio": 0,
    "Usuario_id": "usuario2248",
    "Fecha_plantado": "",
    "Especie": "Sauce de Río",
    "Fecha_registro": "2014-06-29",
    "Municipio": "Escobedo",
    "Direccion": "Río Marín 423, Jardines del Canadá, 66050 Escobedo, Nuevo Leon, Mexico",
    "lon": -100.3070297,
    "lat": 25.8001709,
    "id": "541a2cb6908e69c4ed7041bb"
  },
  {
    "Arbol_id": 37577,
    "Folio": 0,
    "Usuario_id": "usuario2101",
    "Fecha_plantado": "",
    "Especie": "Sauce de Río",
    "Fecha_registro": "2014-07-03",
    "Municipio": "San Pedro",
    "Direccion": "Los Aldama 401, Casco Urbano, 66230 NL, México",
    "lon": "",
    "lat": "",
    "id": "541a2cb6908e69c4ed704675"
  },
  {
    "Arbol_id": 38906,
    "Folio": 0,
    "Usuario_id": "usuario2273",
    "Fecha_plantado": "",
    "Especie": "Sauce de Río",
    "Fecha_registro": "2014-07-11",
    "Municipio": "Guadalupe",
    "Direccion": "Alfredo Bernardo Nobel 2314, Sin Nombre de Colonia 71, NL, México",
    "lon": "",
    "lat": "",
    "id": "541a2cb6908e69c4ed704ba3"
  },
  {
    "Arbol_id": 39864,
    "Folio": 0,
    "Usuario_id": "usuario2273",
    "Fecha_plantado": "",
    "Especie": "Sauce de Río",
    "Fecha_registro": "2014-07-16",
    "Municipio": "Guadalupe",
    "Direccion": "Albert Einstein 2473, Contry La Silla 8o Sector, 67173 NL, México",
    "lon": -100.2649612,
    "lat": 25.6432056,
    "id": "541a2cb6908e69c4ed704f59"
  },
  {
    "Arbol_id": 43377,
    "Folio": 3604,
    "Usuario_id": "usuario845",
    "Fecha_plantado": "2014-08-12T00:00:00Z",
    "Especie": "Sauce de Río",
    "Fecha_registro": "2014-08-12",
    "Municipio": "Juárez",
    "Direccion": "Punta Esmeralda, Punta Esmeralda, La Reforma, 67250 Ciudad Benito Juárez, NL, México",
    "lon": "",
    "lat": "",
    "id": "541a2cb7908e69c4ed705cf6"
  },
  {
    "Arbol_id": 43446,
    "Folio": 3664,
    "Usuario_id": "usuario845",
    "Fecha_plantado": "2014-08-12T00:00:00Z",
    "Especie": "Sauce de Río",
    "Fecha_registro": "2014-08-12",
    "Municipio": "Juárez",
    "Direccion": "Zafiro, Monte Verde, La Reforma, 67257 Ciudad Benito Juárez, NL, México",
    "lon": -100.1535492,
    "lat": 25.6450291,
    "id": "541a2cb7908e69c4ed705d3b"
  },
  {
    "Arbol_id": 43448,
    "Folio": 3665,
    "Usuario_id": "usuario845",
    "Fecha_plantado": "2014-08-12T00:00:00Z",
    "Especie": "Sauce de Río",
    "Fecha_registro": "2014-08-12",
    "Municipio": "Juárez",
    "Direccion": "Zafiro, Monte Verde, La Reforma, 67257 Ciudad Benito Juárez, NL, México",
    "lon": -100.1535492,
    "lat": 25.6450291,
    "id": "541a2cb7908e69c4ed705d3d"
  },
  {
    "Arbol_id": 43561,
    "Folio": 3683,
    "Usuario_id": "usuario845",
    "Fecha_plantado": "2014-08-13T00:00:00Z",
    "Especie": "Sauce de Río",
    "Fecha_registro": "2014-08-13",
    "Municipio": "Juárez",
    "Direccion": "Amatista, Monte Verde, La Reforma, 67257 Ciudad Benito Juárez, NL, México",
    "lon": -100.1558533,
    "lat": 25.6434994,
    "id": "541a2cb8908e69c4ed705dac"
  },
  {
    "Arbol_id": 44520,
    "Folio": 3898,
    "Usuario_id": "usuario845",
    "Fecha_plantado": "2014-08-18T00:00:00Z",
    "Especie": "Sauce de Río",
    "Fecha_registro": "2014-08-18",
    "Municipio": "Juárez",
    "Direccion": "Hda. de Guadalupe, Jardines de La Silla, NL, México",
    "lon": -100.18396,
    "lat": 25.6423702,
    "id": "541a2cb8908e69c4ed70615b"
  }
]