[
  {
    "Arbol_id": 1034,
    "Folio": 0,
    "Usuario_id": "usuario153",
    "Fecha_plantado": "",
    "Especie": "Álamo Plateado",
    "Fecha_registro": "2013-06-22",
    "Municipio": "Monterrey",
    "Direccion": "Panorámica 106, Ciudad Satélite, 64960 Monterrey, NL, México",
    "lon": -100.2700577,
    "lat": 25.59828,
    "id": "541a2cac908e69c4ed6fbaab"
  },
  {
    "Arbol_id": 1143,
    "Folio": 0,
    "Usuario_id": "usuario472",
    "Fecha_plantado": "",
    "Especie": "Álamo Plateado",
    "Fecha_registro": "2013-07-04",
    "Municipio": "Monterrey",
    "Direccion": "Playa Hornos 3149, Narvarte, 64833 Monterrey, Nuevo Leon, Mexico",
    "lon": -100.2827301,
    "lat": 25.6491508,
    "id": "541a2cac908e69c4ed6fbb07"
  },
  {
    "Arbol_id": 1146,
    "Folio": 0,
    "Usuario_id": "usuario472",
    "Fecha_plantado": "",
    "Especie": "Álamo Plateado",
    "Fecha_registro": "2013-07-04",
    "Municipio": "Monterrey",
    "Direccion": "Playa Hornos 3149, Narvarte, 64833 Monterrey, Nuevo Leon, Mexico",
    "lon": -100.2827301,
    "lat": 25.6491508,
    "id": "541a2cac908e69c4ed6fbb09"
  },
  {
    "Arbol_id": 1157,
    "Folio": 0,
    "Usuario_id": "usuario472",
    "Fecha_plantado": "",
    "Especie": "Álamo Plateado",
    "Fecha_registro": "2013-07-04",
    "Municipio": "Monterrey",
    "Direccion": "Nantes 3205, Valle Primavera, 64833 Monterrey, Nuevo Leon, Mexico",
    "lon": -100.2825775,
    "lat": 25.6490097,
    "id": "541a2cac908e69c4ed6fbb12"
  },
  {
    "Arbol_id": 2099,
    "Folio": 0,
    "Usuario_id": "usuario1436",
    "Fecha_plantado": "",
    "Especie": "Álamo Plateado",
    "Fecha_registro": "2013-10-08",
    "Municipio": "San Pedro",
    "Direccion": "Río Guadalquivir, Del Valle, 66220 Monterrey, Nuevo Leon, Mexico",
    "lon": -100.3553391,
    "lat": 25.6581497,
    "id": "541a2cac908e69c4ed6fbe26"
  },
  {
    "Arbol_id": 4413,
    "Folio": 0,
    "Usuario_id": "usuario2273",
    "Fecha_plantado": "",
    "Especie": "Álamo Plateado",
    "Fecha_registro": "2014-01-27",
    "Municipio": "Guadalupe",
    "Direccion": "Arquímedes 739, Contry La Silla 1er Sector, 67173 Guadalupe, NL, México",
    "lon": -100.2659912,
    "lat": 25.6233196,
    "id": "541a2cad908e69c4ed6fc6bc"
  },
  {
    "Arbol_id": 5698,
    "Folio": 5,
    "Usuario_id": "usuario2498",
    "Fecha_plantado": "",
    "Especie": "Álamo Plateado",
    "Fecha_registro": "2014-02-06",
    "Municipio": "San Nicolás",
    "Direccion": "Avenida las Puentes 760, Las Puentes 6o Sector, MX_Loc2_test, 66460 Chandra's Test City [don't deny]",
    "lon": "",
    "lat": "",
    "id": "541a2cad908e69c4ed6fcba5"
  },
  {
    "Arbol_id": 9308,
    "Folio": 0,
    "Usuario_id": "usuario845",
    "Fecha_plantado": "2014-02-25T00:00:00Z",
    "Especie": "Álamo Plateado",
    "Fecha_registro": "2014-02-25",
    "Municipio": "Juárez",
    "Direccion": "Hda. San Sebastián, Hacienda Santa Lucía 1er. Sector, 67250 Ciudad Benito Juárez, NL, México",
    "lon": -100.1220703,
    "lat": 25.6577797,
    "id": "541a2cae908e69c4ed6fd998"
  },
  {
    "Arbol_id": 10420,
    "Folio": 102,
    "Usuario_id": "usuario819",
    "Fecha_plantado": "",
    "Especie": "Álamo Plateado",
    "Fecha_registro": "2014-03-03",
    "Municipio": "Juárez",
    "Direccion": "Villa España 200, Villas de Oriente, 67267 Ciudad Benito Juárez, NL, México",
    "lon": -97.8314438,
    "lat": 22.2511597,
    "id": "541a2cae908e69c4ed6fddd0"
  },
  {
    "Arbol_id": 10421,
    "Folio": 103,
    "Usuario_id": "usuario819",
    "Fecha_plantado": "",
    "Especie": "Álamo Plateado",
    "Fecha_registro": "2014-03-03",
    "Municipio": "Juárez",
    "Direccion": "Villa España 200, Villas de Oriente, 67267 Ciudad Benito Juárez, NL, México",
    "lon": -97.8314438,
    "lat": 22.2511597,
    "id": "541a2cae908e69c4ed6fddd1"
  },
  {
    "Arbol_id": 10422,
    "Folio": 104,
    "Usuario_id": "usuario819",
    "Fecha_plantado": "",
    "Especie": "Álamo Plateado",
    "Fecha_registro": "2014-03-03",
    "Municipio": "Juárez",
    "Direccion": "Villa España 200, Villas de Oriente, 67267 Ciudad Benito Juárez, NL, México",
    "lon": -97.8314438,
    "lat": 22.2511597,
    "id": "541a2cae908e69c4ed6fddd2"
  },
  {
    "Arbol_id": 10425,
    "Folio": 105,
    "Usuario_id": "usuario819",
    "Fecha_plantado": "",
    "Especie": "Álamo Plateado",
    "Fecha_registro": "2014-03-03",
    "Municipio": "Juárez",
    "Direccion": "Villa España 200, Villas de Oriente, 67267 Ciudad Benito Juárez, NL, México",
    "lon": -97.8314438,
    "lat": 22.2511597,
    "id": "541a2cae908e69c4ed6fddd5"
  },
  {
    "Arbol_id": 10426,
    "Folio": 106,
    "Usuario_id": "usuario819",
    "Fecha_plantado": "",
    "Especie": "Álamo Plateado",
    "Fecha_registro": "2014-03-03",
    "Municipio": "Juárez",
    "Direccion": "Villa España 200, Villas de Oriente, 67267 Ciudad Benito Juárez, NL, México",
    "lon": -97.8314438,
    "lat": 22.2511597,
    "id": "541a2cae908e69c4ed6fddd6"
  },
  {
    "Arbol_id": 10429,
    "Folio": 107,
    "Usuario_id": "usuario819",
    "Fecha_plantado": "",
    "Especie": "Álamo Plateado",
    "Fecha_registro": "2014-03-03",
    "Municipio": "Juárez",
    "Direccion": "Villa España 200, Villas de Oriente, 67267 Ciudad Benito Juárez, NL, México",
    "lon": -97.8314438,
    "lat": 22.2511597,
    "id": "541a2cae908e69c4ed6fddd9"
  },
  {
    "Arbol_id": 10480,
    "Folio": 125,
    "Usuario_id": "usuario845",
    "Fecha_plantado": "2014-03-03T00:00:00Z",
    "Especie": "Álamo Plateado",
    "Fecha_registro": "2014-03-03",
    "Municipio": "Juárez",
    "Direccion": "Villa España 232, Villas de Oriente, 67267 Ciudad Benito Juárez, NL, México",
    "lon": -100.1137695,
    "lat": 25.6550007,
    "id": "541a2cae908e69c4ed6fde0c"
  },
  {
    "Arbol_id": 10488,
    "Folio": 127,
    "Usuario_id": "usuario845",
    "Fecha_plantado": "2014-03-03T00:00:00Z",
    "Especie": "Álamo Plateado",
    "Fecha_registro": "2014-03-03",
    "Municipio": "Juárez",
    "Direccion": "Villa España 238, Villas de Oriente, 67267 Ciudad Benito Juárez, NL, México",
    "lon": -100.1136475,
    "lat": 25.6550999,
    "id": "541a2cae908e69c4ed6fde14"
  },
  {
    "Arbol_id": 10492,
    "Folio": 129,
    "Usuario_id": "usuario845",
    "Fecha_plantado": "2014-03-03T00:00:00Z",
    "Especie": "Álamo Plateado",
    "Fecha_registro": "2014-03-03",
    "Municipio": "Juárez",
    "Direccion": "Villa España 238, Villas de Oriente, 67267 Ciudad Benito Juárez, NL, México",
    "lon": -100.1136475,
    "lat": 25.6550999,
    "id": "541a2cae908e69c4ed6fde18"
  },
  {
    "Arbol_id": 10494,
    "Folio": 130,
    "Usuario_id": "usuario845",
    "Fecha_plantado": "2014-03-03T00:00:00Z",
    "Especie": "Álamo Plateado",
    "Fecha_registro": "2014-03-03",
    "Municipio": "Juárez",
    "Direccion": "Villa España 238, Villas de Oriente, 67267 Ciudad Benito Juárez, NL, México",
    "lon": -100.1136475,
    "lat": 25.6550999,
    "id": "541a2cae908e69c4ed6fde1a"
  },
  {
    "Arbol_id": 10495,
    "Folio": 131,
    "Usuario_id": "usuario845",
    "Fecha_plantado": "2014-03-03T00:00:00Z",
    "Especie": "Álamo Plateado",
    "Fecha_registro": "2014-03-03",
    "Municipio": "Juárez",
    "Direccion": "Villa España 236, Villas de Oriente, 67267 Ciudad Benito Juárez, NL, México",
    "lon": -100.1136703,
    "lat": 25.6550808,
    "id": "541a2cae908e69c4ed6fde1b"
  },
  {
    "Arbol_id": 10497,
    "Folio": 132,
    "Usuario_id": "usuario845",
    "Fecha_plantado": "2014-03-03T00:00:00Z",
    "Especie": "Álamo Plateado",
    "Fecha_registro": "2014-03-03",
    "Municipio": "Juárez",
    "Direccion": "Villa España 236, Villas de Oriente, 67267 Ciudad Benito Juárez, NL, México",
    "lon": -100.1136703,
    "lat": 25.6550808,
    "id": "541a2cae908e69c4ed6fde1d"
  },
  {
    "Arbol_id": 10512,
    "Folio": 141,
    "Usuario_id": "usuario845",
    "Fecha_plantado": "2014-02-03T00:00:00Z",
    "Especie": "Álamo Plateado",
    "Fecha_registro": "2014-03-03",
    "Municipio": "Juárez",
    "Direccion": "Villa España 214, Villas de Oriente, 67267 Ciudad Benito Juárez, NL, México",
    "lon": -100.1141891,
    "lat": 25.6546803,
    "id": "541a2cae908e69c4ed6fde2c"
  },
  {
    "Arbol_id": 10515,
    "Folio": 142,
    "Usuario_id": "usuario845",
    "Fecha_plantado": "2014-02-03T00:00:00Z",
    "Especie": "Álamo Plateado",
    "Fecha_registro": "2014-03-03",
    "Municipio": "Juárez",
    "Direccion": "Villa España 212, Villas de Oriente, 67267 Ciudad Benito Juárez, NL, México",
    "lon": -100.1142426,
    "lat": 25.6546497,
    "id": "541a2cae908e69c4ed6fde2f"
  },
  {
    "Arbol_id": 10518,
    "Folio": 143,
    "Usuario_id": "usuario845",
    "Fecha_plantado": "2014-02-03T00:00:00Z",
    "Especie": "Álamo Plateado",
    "Fecha_registro": "2014-03-03",
    "Municipio": "Juárez",
    "Direccion": "Villa España 206, Villas de Oriente, 67267 Ciudad Benito Juárez, NL, México",
    "lon": -97.8311462,
    "lat": 22.2508793,
    "id": "541a2cae908e69c4ed6fde32"
  },
  {
    "Arbol_id": 10521,
    "Folio": 144,
    "Usuario_id": "usuario845",
    "Fecha_plantado": "2014-02-03T00:00:00Z",
    "Especie": "Álamo Plateado",
    "Fecha_registro": "2014-03-03",
    "Municipio": "Juárez",
    "Direccion": "Villa España 208, Villas de Oriente, 67267 Ciudad Benito Juárez, NL, México",
    "lon": -100.1143494,
    "lat": 25.6545601,
    "id": "541a2cae908e69c4ed6fde35"
  },
  {
    "Arbol_id": 10523,
    "Folio": 145,
    "Usuario_id": "usuario845",
    "Fecha_plantado": "2014-02-03T00:00:00Z",
    "Especie": "Álamo Plateado",
    "Fecha_registro": "2014-03-03",
    "Municipio": "Juárez",
    "Direccion": "Villa España 210, Villas de Oriente, 67267 Ciudad Benito Juárez, NL, México",
    "lon": -100.1142883,
    "lat": 25.6546097,
    "id": "541a2cae908e69c4ed6fde37"
  },
  {
    "Arbol_id": 10527,
    "Folio": 146,
    "Usuario_id": "usuario845",
    "Fecha_plantado": "2014-03-03T00:00:00Z",
    "Especie": "Álamo Plateado",
    "Fecha_registro": "2014-03-03",
    "Municipio": "Juárez",
    "Direccion": "Villa España 224, Villas de Oriente, 67267 Ciudad Benito Juárez, NL, México",
    "lon": -100.1139832,
    "lat": 25.6548595,
    "id": "541a2cae908e69c4ed6fde3b"
  },
  {
    "Arbol_id": 10534,
    "Folio": 147,
    "Usuario_id": "usuario845",
    "Fecha_plantado": "2014-02-28T00:00:00Z",
    "Especie": "Álamo Plateado",
    "Fecha_registro": "2014-03-03",
    "Municipio": "Juárez",
    "Direccion": "Villa España 220, Villas de Oriente, 67267 Ciudad Benito Juárez, NL, México",
    "lon": -100.1140823,
    "lat": 25.6547794,
    "id": "541a2cae908e69c4ed6fde42"
  },
  {
    "Arbol_id": 10588,
    "Folio": 148,
    "Usuario_id": "usuario845",
    "Fecha_plantado": "2014-03-04T00:00:00Z",
    "Especie": "Álamo Plateado",
    "Fecha_registro": "2014-03-04",
    "Municipio": "Juárez",
    "Direccion": "Villa España 226, Villas de Oriente, 67267 Ciudad Benito Juárez, NL, México",
    "lon": -100.1139297,
    "lat": 25.6548996,
    "id": "541a2cae908e69c4ed6fde71"
  },
  {
    "Arbol_id": 10590,
    "Folio": 149,
    "Usuario_id": "usuario845",
    "Fecha_plantado": "2014-03-04T00:00:00Z",
    "Especie": "Álamo Plateado",
    "Fecha_registro": "2014-03-04",
    "Municipio": "Juárez",
    "Direccion": "Villa España 216, Villas de Oriente, 67267 Ciudad Benito Juárez, NL, México",
    "lon": -100.114151,
    "lat": 25.6547203,
    "id": "541a2cae908e69c4ed6fde73"
  },
  {
    "Arbol_id": 10603,
    "Folio": 150,
    "Usuario_id": "usuario845",
    "Fecha_plantado": "2014-03-04T00:00:00Z",
    "Especie": "Álamo Plateado",
    "Fecha_registro": "2014-03-04",
    "Municipio": "Juárez",
    "Direccion": "Villa España 230, Villas de Oriente, 67267 Ciudad Benito Juárez, NL, México",
    "lon": -100.1138306,
    "lat": 25.6549702,
    "id": "541a2cae908e69c4ed6fde80"
  },
  {
    "Arbol_id": 10886,
    "Folio": 148,
    "Usuario_id": "usuario845",
    "Fecha_plantado": "2014-03-04T00:00:00Z",
    "Especie": "Álamo Plateado",
    "Fecha_registro": "2014-03-04",
    "Municipio": "Juárez",
    "Direccion": "Villa Castellón 247, Villas de Oriente, 67267 Ciudad Benito Juárez, NL, México",
    "lon": -100.1135025,
    "lat": 25.6553593,
    "id": "541a2cae908e69c4ed6fdf9a"
  },
  {
    "Arbol_id": 10902,
    "Folio": 154,
    "Usuario_id": "usuario845",
    "Fecha_plantado": "2014-03-04T00:00:00Z",
    "Especie": "Álamo Plateado",
    "Fecha_registro": "2014-03-04",
    "Municipio": "Juárez",
    "Direccion": "Villa Castellón 247, Villas de Oriente, 67267 Ciudad Benito Juárez, NL, México",
    "lon": -100.1135025,
    "lat": 25.6553593,
    "id": "541a2cae908e69c4ed6fdfaa"
  },
  {
    "Arbol_id": 12504,
    "Folio": 388,
    "Usuario_id": "usuario208",
    "Fecha_plantado": "",
    "Especie": "Álamo Plateado",
    "Fecha_registro": "2014-03-10",
    "Municipio": "Juárez",
    "Direccion": "Villa Bilbao 412, Villas de Oriente, 67267 Ciudad Benito Juárez, NL, México",
    "lon": -100.1136093,
    "lat": 25.6577301,
    "id": "541a2caf908e69c4ed6fe5dc"
  },
  {
    "Arbol_id": 13305,
    "Folio": 709,
    "Usuario_id": "usuario208",
    "Fecha_plantado": "",
    "Especie": "Álamo Plateado",
    "Fecha_registro": "2014-03-18",
    "Municipio": "Juárez",
    "Direccion": "Gral. L. Garza Ayala SN-S DEPARTAMENTO DE BOMBEROS, Joaquín Garza y Garza, 67250 Benito Juárez, NL,",
    "lon": -100.0968933,
    "lat": 25.6466293,
    "id": "541a2caf908e69c4ed6fe8f4"
  },
  {
    "Arbol_id": 13308,
    "Folio": 712,
    "Usuario_id": "usuario208",
    "Fecha_plantado": "",
    "Especie": "Álamo Plateado",
    "Fecha_registro": "2014-03-18",
    "Municipio": "Juárez",
    "Direccion": "Gral. Vicente Guerrero 301, Centro de Benito Juárez, 67250 Ciudad Benito Juárez, NL, México",
    "lon": -100.0946121,
    "lat": 25.64674,
    "id": "541a2caf908e69c4ed6fe8f7"
  },
  {
    "Arbol_id": 13368,
    "Folio": 739,
    "Usuario_id": "usuario208",
    "Fecha_plantado": "",
    "Especie": "Álamo Plateado",
    "Fecha_registro": "2014-03-18",
    "Municipio": "Juárez",
    "Direccion": "Gral. L. Garza Ayala SN-S EVENTOS ESPECIALES, Joaquín Garza y Garza, 67250 Benito Juárez, NL, México",
    "lon": -100.0968933,
    "lat": 25.6466293,
    "id": "541a2caf908e69c4ed6fe933"
  },
  {
    "Arbol_id": 14315,
    "Folio": 794,
    "Usuario_id": "usuario819",
    "Fecha_plantado": "",
    "Especie": "Álamo Plateado",
    "Fecha_registro": "2014-03-24",
    "Municipio": "Juárez",
    "Direccion": "Loma Linda 170, Las Lomas, 67265 Ciudad Benito Juárez, NL, México",
    "lon": -100.1300735,
    "lat": 25.6584892,
    "id": "541a2caf908e69c4ed6fecda"
  },
  {
    "Arbol_id": 15742,
    "Folio": 0,
    "Usuario_id": "usuario2322",
    "Fecha_plantado": "2014-03-07T00:00:00Z",
    "Especie": "Álamo Plateado",
    "Fecha_registro": "2014-04-01",
    "Municipio": "Apodaca",
    "Direccion": "Argelia 101, Nuevo Amanecer, 66636 NL, México",
    "lon": -100.2488403,
    "lat": 25.7805195,
    "id": "541a2cb0908e69c4ed6ff244"
  },
  {
    "Arbol_id": 16228,
    "Folio": 1003,
    "Usuario_id": "usuario845",
    "Fecha_plantado": "2014-04-02T00:00:00Z",
    "Especie": "Álamo Plateado",
    "Fecha_registro": "2014-04-02",
    "Municipio": "Juárez",
    "Direccion": "Av. Hda Molino de las Flores, Jardines de La Silla, NL, México",
    "lon": "",
    "lat": "",
    "id": "541a2cb0908e69c4ed6ff42a"
  },
  {
    "Arbol_id": 17099,
    "Folio": 0,
    "Usuario_id": "usuario1202",
    "Fecha_plantado": "",
    "Especie": "Álamo Plateado",
    "Fecha_registro": "2014-04-08",
    "Municipio": "Monterrey",
    "Direccion": "Ricardo Covarrubias 2614, Estadio, 64830 Monterrey, NL, México",
    "lon": -100.2817001,
    "lat": 25.6524906,
    "id": "541a2cb0908e69c4ed6ff768"
  },
  {
    "Arbol_id": 17193,
    "Folio": 0,
    "Usuario_id": "usuario2273",
    "Fecha_plantado": "",
    "Especie": "Álamo Plateado",
    "Fecha_registro": "2014-04-09",
    "Municipio": "Guadalupe",
    "Direccion": "La Boquilla 3059, Riberas del Río, 67160 NL, México",
    "lon": -100.2252045,
    "lat": 25.6826725,
    "id": "541a2cb0908e69c4ed6ff7c6"
  },
  {
    "Arbol_id": 22173,
    "Folio": 1407,
    "Usuario_id": "usuario845",
    "Fecha_plantado": "",
    "Especie": "Álamo Plateado",
    "Fecha_registro": "2014-05-07",
    "Municipio": "Juárez",
    "Direccion": "Avenida Pablo Livas, NL, México",
    "lon": -100.2206116,
    "lat": 25.6667404,
    "id": "541a2cb2908e69c4ed700ace"
  },
  {
    "Arbol_id": 22178,
    "Folio": 1412,
    "Usuario_id": "usuario845",
    "Fecha_plantado": "",
    "Especie": "Álamo Plateado",
    "Fecha_registro": "2014-05-07",
    "Municipio": "Juárez",
    "Direccion": "Avenida Pablo Livas, NL, México",
    "lon": -100.2206116,
    "lat": 25.6667404,
    "id": "541a2cb2908e69c4ed700ad3"
  },
  {
    "Arbol_id": 22179,
    "Folio": 1413,
    "Usuario_id": "usuario845",
    "Fecha_plantado": "",
    "Especie": "Álamo Plateado",
    "Fecha_registro": "2014-05-07",
    "Municipio": "Juárez",
    "Direccion": "Avenida Pablo Livas, NL, México",
    "lon": -100.2206116,
    "lat": 25.6667404,
    "id": "541a2cb2908e69c4ed700ad4"
  },
  {
    "Arbol_id": 22181,
    "Folio": 1415,
    "Usuario_id": "usuario845",
    "Fecha_plantado": "",
    "Especie": "Álamo Plateado",
    "Fecha_registro": "2014-05-07",
    "Municipio": "Juárez",
    "Direccion": "Avenida Pablo Livas, NL, México",
    "lon": -100.2206116,
    "lat": 25.6667404,
    "id": "541a2cb2908e69c4ed700ad6"
  },
  {
    "Arbol_id": 22194,
    "Folio": 1429,
    "Usuario_id": "usuario845",
    "Fecha_plantado": "",
    "Especie": "Álamo Plateado",
    "Fecha_registro": "2014-05-07",
    "Municipio": "Juárez",
    "Direccion": "Avenida Pablo Livas, NL, México",
    "lon": -100.2206116,
    "lat": 25.6667404,
    "id": "541a2cb2908e69c4ed700ae3"
  },
  {
    "Arbol_id": 22211,
    "Folio": 1436,
    "Usuario_id": "usuario845",
    "Fecha_plantado": "",
    "Especie": "Álamo Plateado",
    "Fecha_registro": "2014-05-07",
    "Municipio": "Juárez",
    "Direccion": "Avenida Pablo Livas, NL, México",
    "lon": -100.2206116,
    "lat": 25.6667404,
    "id": "541a2cb2908e69c4ed700af4"
  },
  {
    "Arbol_id": 22217,
    "Folio": 1440,
    "Usuario_id": "usuario845",
    "Fecha_plantado": "",
    "Especie": "Álamo Plateado",
    "Fecha_registro": "2014-05-07",
    "Municipio": "Juárez",
    "Direccion": "Avenida Pablo Livas, NL, México",
    "lon": -100.2206116,
    "lat": 25.6667404,
    "id": "541a2cb2908e69c4ed700afa"
  },
  {
    "Arbol_id": 22259,
    "Folio": 1450,
    "Usuario_id": "usuario845",
    "Fecha_plantado": "",
    "Especie": "Álamo Plateado",
    "Fecha_registro": "2014-05-07",
    "Municipio": "Juárez",
    "Direccion": "Avenida Pablo Livas, NL, México",
    "lon": -100.2206116,
    "lat": 25.6667404,
    "id": "541a2cb2908e69c4ed700b24"
  },
  {
    "Arbol_id": 22384,
    "Folio": 1481,
    "Usuario_id": "usuario845",
    "Fecha_plantado": "",
    "Especie": "Álamo Plateado",
    "Fecha_registro": "2014-05-07",
    "Municipio": "Juárez",
    "Direccion": "Loma Chica, NL, México",
    "lon": -100.3442688,
    "lat": 25.6646996,
    "id": "541a2cb2908e69c4ed700ba1"
  },
  {
    "Arbol_id": 22450,
    "Folio": 1496,
    "Usuario_id": "usuario845",
    "Fecha_plantado": "",
    "Especie": "Álamo Plateado",
    "Fecha_registro": "2014-05-07",
    "Municipio": "Juárez",
    "Direccion": "Avenida Pablo Livas, NL, México",
    "lon": -100.2206116,
    "lat": 25.6667404,
    "id": "541a2cb2908e69c4ed700be3"
  },
  {
    "Arbol_id": 24592,
    "Folio": 1604,
    "Usuario_id": "usuario845",
    "Fecha_plantado": "2014-05-16T00:00:00Z",
    "Especie": "Álamo Plateado",
    "Fecha_registro": "2014-05-16",
    "Municipio": "Juárez",
    "Direccion": "Loma Linda 183, Las Lomas, 67265 Ciudad Benito Juárez, NL, México",
    "lon": -100.1298981,
    "lat": 25.6583691,
    "id": "541a2cb2908e69c4ed701431"
  },
  {
    "Arbol_id": 24645,
    "Folio": 0,
    "Usuario_id": "usuario979",
    "Fecha_plantado": "",
    "Especie": "Álamo Plateado",
    "Fecha_registro": "2014-05-16",
    "Municipio": "Monterrey",
    "Direccion": "Juan Zuazua, Centro, 64000 Monterrey, NL, México",
    "lon": -100.3079834,
    "lat": 25.6798306,
    "id": "541a2cb2908e69c4ed701466"
  },
  {
    "Arbol_id": 25138,
    "Folio": 1707,
    "Usuario_id": "usuario845",
    "Fecha_plantado": "2014-05-19T00:00:00Z",
    "Especie": "Álamo Plateado",
    "Fecha_registro": "2014-05-19",
    "Municipio": "Juárez",
    "Direccion": "Loma Alta 165, Las Lomas, 67265 Ciudad Benito Juárez, NL, México",
    "lon": -100.1297684,
    "lat": 25.6585407,
    "id": "541a2cb2908e69c4ed701653"
  },
  {
    "Arbol_id": 28458,
    "Folio": 2144,
    "Usuario_id": "usuario845",
    "Fecha_plantado": "2014-05-29T00:00:00Z",
    "Especie": "Álamo Plateado",
    "Fecha_registro": "2014-05-29",
    "Municipio": "Juárez",
    "Direccion": "Huizache 249, Sin Nombre de Colonia 3, Ciudad Benito Juárez, NL, México",
    "lon": -86.8845367,
    "lat": 21.1314602,
    "id": "541a2cb3908e69c4ed70230a"
  },
  {
    "Arbol_id": 33232,
    "Folio": 2624,
    "Usuario_id": "usuario845",
    "Fecha_plantado": "2014-06-18T00:00:00Z",
    "Especie": "Álamo Plateado",
    "Fecha_registro": "2014-06-18",
    "Municipio": "Juárez",
    "Direccion": "Hda. San Andrés 526, Hacienda Santa Lucía 1er. Sector, 67250 Ciudad Benito Juárez, NL, México",
    "lon": -100.1232376,
    "lat": 25.6554794,
    "id": "541a2cb5908e69c4ed70359c"
  },
  {
    "Arbol_id": 33531,
    "Folio": 2662,
    "Usuario_id": "usuario845",
    "Fecha_plantado": "2014-06-19T00:00:00Z",
    "Especie": "Álamo Plateado",
    "Fecha_registro": "2014-06-19",
    "Municipio": "Juárez",
    "Direccion": "Hda. San Jorge 519, Hacienda Santa Lucía 1er. Sector, 67250 Ciudad Benito Juárez, NL, México",
    "lon": -100.1231079,
    "lat": 25.6564598,
    "id": "541a2cb5908e69c4ed7036c4"
  },
  {
    "Arbol_id": 33992,
    "Folio": 0,
    "Usuario_id": "usuario2101",
    "Fecha_plantado": "",
    "Especie": "Álamo Plateado",
    "Fecha_registro": "2014-06-20",
    "Municipio": "San Pedro",
    "Direccion": "Reforma 553-565, Zona Los Callejones, 66230 Monterrey, NL, México",
    "lon": "",
    "lat": "",
    "id": "541a2cb5908e69c4ed70388e"
  },
  {
    "Arbol_id": 35467,
    "Folio": 2872,
    "Usuario_id": "usuario845",
    "Fecha_plantado": "2014-06-26T00:00:00Z",
    "Especie": "Álamo Plateado",
    "Fecha_registro": "2014-06-26",
    "Municipio": "Juárez",
    "Direccion": "Paseo de las Bugambilias, Paseo del Prado, Ciudad Benito Juárez, NL, México",
    "lon": -100.1163101,
    "lat": 25.6502495,
    "id": "541a2cb5908e69c4ed703e49"
  },
  {
    "Arbol_id": 35718,
    "Folio": 0,
    "Usuario_id": "usuario2101",
    "Fecha_plantado": "",
    "Especie": "Álamo Plateado",
    "Fecha_registro": "2014-06-26",
    "Municipio": "San Pedro",
    "Direccion": "José María Morelos y Pavón 419, Casco Urbano, 66230 NL, México",
    "lon": -100.4012909,
    "lat": 25.6647758,
    "id": "541a2cb5908e69c4ed703f41"
  },
  {
    "Arbol_id": 37637,
    "Folio": 0,
    "Usuario_id": "usuario1522",
    "Fecha_plantado": "2000-04-12T00:00:00Z",
    "Especie": "Álamo Plateado",
    "Fecha_registro": "2014-07-04",
    "Municipio": "San Pedro",
    "Direccion": "Juan Zuazua, Centro, 64000 Monterrey, NL, México",
    "lon": -100.3079834,
    "lat": 25.6798306,
    "id": "541a2cb6908e69c4ed7046b1"
  },
  {
    "Arbol_id": 43337,
    "Folio": 3175,
    "Usuario_id": "usuario866",
    "Fecha_plantado": "2014-08-11T00:00:00Z",
    "Especie": "Álamo Plateado",
    "Fecha_registro": "2014-08-11",
    "Municipio": "Juárez",
    "Direccion": "Ébano 201, Sin Nombre de Colonia 1, Juárez, Nuevo Leon, Mexico",
    "lon": -100.1186676,
    "lat": 25.5904808,
    "id": "541a2cb7908e69c4ed705cce"
  },
  {
    "Arbol_id": 43375,
    "Folio": 3602,
    "Usuario_id": "usuario845",
    "Fecha_plantado": "2014-08-12T00:00:00Z",
    "Especie": "Álamo Plateado",
    "Fecha_registro": "2014-08-12",
    "Municipio": "Juárez",
    "Direccion": "Punta Esmeralda, Punta Esmeralda, La Reforma, 67250 Ciudad Benito Juárez, NL, México",
    "lon": "",
    "lat": "",
    "id": "541a2cb7908e69c4ed705cf4"
  },
  {
    "Arbol_id": 43381,
    "Folio": 3608,
    "Usuario_id": "usuario845",
    "Fecha_plantado": "2014-08-12T00:00:00Z",
    "Especie": "Álamo Plateado",
    "Fecha_registro": "2014-08-12",
    "Municipio": "Juárez",
    "Direccion": "Punta Esmeralda, Punta Esmeralda, La Reforma, 67250 Ciudad Benito Juárez, NL, México",
    "lon": "",
    "lat": "",
    "id": "541a2cb7908e69c4ed705cfa"
  },
  {
    "Arbol_id": 43385,
    "Folio": 3613,
    "Usuario_id": "usuario845",
    "Fecha_plantado": "2014-08-12T00:00:00Z",
    "Especie": "Álamo Plateado",
    "Fecha_registro": "2014-08-12",
    "Municipio": "Juárez",
    "Direccion": "Punta Esmeralda, Punta Esmeralda, La Reforma, 67250 Ciudad Benito Juárez, NL, México",
    "lon": "",
    "lat": "",
    "id": "541a2cb7908e69c4ed705cfe"
  },
  {
    "Arbol_id": 43797,
    "Folio": 3795,
    "Usuario_id": "usuario845",
    "Fecha_plantado": "2014-08-14T00:00:00Z",
    "Especie": "Álamo Plateado",
    "Fecha_registro": "2014-08-14",
    "Municipio": "Juárez",
    "Direccion": "Punta Esmeralda, Punta Esmeralda, 67250 Ciudad Benito Juárez, NL, México",
    "lon": -100.1544037,
    "lat": 25.6428795,
    "id": "541a2cb8908e69c4ed705e93"
  },
  {
    "Arbol_id": 43811,
    "Folio": 3809,
    "Usuario_id": "usuario845",
    "Fecha_plantado": "2014-08-14T00:00:00Z",
    "Especie": "Álamo Plateado",
    "Fecha_registro": "2014-08-14",
    "Municipio": "Juárez",
    "Direccion": "Punta Esmeralda, Punta Esmeralda, 67250 Ciudad Benito Juárez, NL, México",
    "lon": -100.1544037,
    "lat": 25.6428795,
    "id": "541a2cb8908e69c4ed705ea1"
  },
  {
    "Arbol_id": 43813,
    "Folio": 2811,
    "Usuario_id": "usuario845",
    "Fecha_plantado": "2014-08-14T00:00:00Z",
    "Especie": "Álamo Plateado",
    "Fecha_registro": "2014-08-14",
    "Municipio": "Juárez",
    "Direccion": "Punta Esmeralda, Ciudad Benito Juárez, NL, México",
    "lon": -100.1544037,
    "lat": 25.6428795,
    "id": "541a2cb8908e69c4ed705ea3"
  },
  {
    "Arbol_id": 43816,
    "Folio": 3813,
    "Usuario_id": "usuario845",
    "Fecha_plantado": "2014-08-14T00:00:00Z",
    "Especie": "Álamo Plateado",
    "Fecha_registro": "2014-08-14",
    "Municipio": "Juárez",
    "Direccion": "Avenida Eloy Cavazos, Monte Verde, 67257 Ciudad Benito Juárez, NL, México",
    "lon": -100.1615982,
    "lat": 25.6424103,
    "id": "541a2cb8908e69c4ed705ea6"
  },
  {
    "Arbol_id": 43820,
    "Folio": 3815,
    "Usuario_id": "usuario845",
    "Fecha_plantado": "2014-08-14T00:00:00Z",
    "Especie": "Álamo Plateado",
    "Fecha_registro": "2014-08-14",
    "Municipio": "Juárez",
    "Direccion": "Avenida Eloy Cavazos, Monte Verde, 67257 Ciudad Benito Juárez, NL, México",
    "lon": -100.1615982,
    "lat": 25.6424103,
    "id": "541a2cb8908e69c4ed705eaa"
  },
  {
    "Arbol_id": 43834,
    "Folio": 3823,
    "Usuario_id": "usuario845",
    "Fecha_plantado": "2014-08-14T00:00:00Z",
    "Especie": "Álamo Plateado",
    "Fecha_registro": "2014-08-14",
    "Municipio": "Juárez",
    "Direccion": "Amatista, Punta Esmeralda, Ciudad Benito Juárez, NL, México",
    "lon": -100.1544037,
    "lat": 25.6428795,
    "id": "541a2cb8908e69c4ed705eb8"
  },
  {
    "Arbol_id": 43967,
    "Folio": 3831,
    "Usuario_id": "usuario845",
    "Fecha_plantado": "2014-08-15T00:00:00Z",
    "Especie": "Álamo Plateado",
    "Fecha_registro": "2014-08-15",
    "Municipio": "Juárez",
    "Direccion": "Amatista, Punta Esmeralda, Ciudad Benito Juárez, NL, México",
    "lon": -100.1544037,
    "lat": 25.6428795,
    "id": "541a2cb8908e69c4ed705f3a"
  },
  {
    "Arbol_id": 44330,
    "Folio": 3836,
    "Usuario_id": "usuario845",
    "Fecha_plantado": "2014-08-18T00:00:00Z",
    "Especie": "Álamo Plateado",
    "Fecha_registro": "2014-08-18",
    "Municipio": "Juárez",
    "Direccion": "Punta Esmeralda, Punta Esmeralda, 67250 Ciudad Benito Juárez, NL, México",
    "lon": -100.1544037,
    "lat": 25.6428795,
    "id": "541a2cb8908e69c4ed70609f"
  },
  {
    "Arbol_id": 44334,
    "Folio": 3840,
    "Usuario_id": "usuario845",
    "Fecha_plantado": "2014-08-18T00:00:00Z",
    "Especie": "Álamo Plateado",
    "Fecha_registro": "2014-08-18",
    "Municipio": "Juárez",
    "Direccion": "Amatista, Punta Esmeralda, Ciudad Benito Juárez, NL, México",
    "lon": -100.1544037,
    "lat": 25.6428795,
    "id": "541a2cb8908e69c4ed7060a3"
  },
  {
    "Arbol_id": 44340,
    "Folio": 3846,
    "Usuario_id": "usuario845",
    "Fecha_plantado": "2014-08-18T00:00:00Z",
    "Especie": "Álamo Plateado",
    "Fecha_registro": "2014-08-18",
    "Municipio": "Juárez",
    "Direccion": "Punta Esmeralda, Punta Esmeralda, 67250 Ciudad Benito Juárez, NL, México",
    "lon": -100.1544037,
    "lat": 25.6428795,
    "id": "541a2cb8908e69c4ed7060a9"
  },
  {
    "Arbol_id": 44342,
    "Folio": 3848,
    "Usuario_id": "usuario845",
    "Fecha_plantado": "2014-08-18T00:00:00Z",
    "Especie": "Álamo Plateado",
    "Fecha_registro": "2014-08-18",
    "Municipio": "Juárez",
    "Direccion": "Punta Esmeralda, Punta Esmeralda, 67250 Ciudad Benito Juárez, NL, México",
    "lon": -100.1544037,
    "lat": 25.6428795,
    "id": "541a2cb8908e69c4ed7060ab"
  },
  {
    "Arbol_id": 44385,
    "Folio": 3859,
    "Usuario_id": "usuario845",
    "Fecha_plantado": "2014-08-18T00:00:00Z",
    "Especie": "Álamo Plateado",
    "Fecha_registro": "2014-08-18",
    "Municipio": "Juárez",
    "Direccion": "Amatista, Punta Esmeralda, Ciudad Benito Juárez, NL, México",
    "lon": -100.1544037,
    "lat": 25.6428795,
    "id": "541a2cb8908e69c4ed7060d5"
  },
  {
    "Arbol_id": 44460,
    "Folio": 3867,
    "Usuario_id": "usuario845",
    "Fecha_plantado": "2014-08-18T00:00:00Z",
    "Especie": "Álamo Plateado",
    "Fecha_registro": "2014-08-18",
    "Municipio": "Juárez",
    "Direccion": "Amatista, Punta Esmeralda, Ciudad Benito Juárez, NL, México",
    "lon": -100.1544037,
    "lat": 25.6428795,
    "id": "541a2cb8908e69c4ed70611f"
  },
  {
    "Arbol_id": 44463,
    "Folio": 3870,
    "Usuario_id": "usuario845",
    "Fecha_plantado": "2014-08-18T00:00:00Z",
    "Especie": "Álamo Plateado",
    "Fecha_registro": "2014-08-18",
    "Municipio": "Juárez",
    "Direccion": "Punta Esmeralda, Punta Esmeralda, 67250 Ciudad Benito Juárez, NL, México",
    "lon": -100.1544037,
    "lat": 25.6428795,
    "id": "541a2cb8908e69c4ed706122"
  },
  {
    "Arbol_id": 44466,
    "Folio": 3873,
    "Usuario_id": "usuario845",
    "Fecha_plantado": "2014-08-18T00:00:00Z",
    "Especie": "Álamo Plateado",
    "Fecha_registro": "2014-08-18",
    "Municipio": "Juárez",
    "Direccion": "Amatista, Punta Esmeralda, Ciudad Benito Juárez, NL, México",
    "lon": -100.1544037,
    "lat": 25.6428795,
    "id": "541a2cb8908e69c4ed706125"
  },
  {
    "Arbol_id": 44714,
    "Folio": 0,
    "Usuario_id": "usuario2273",
    "Fecha_plantado": "",
    "Especie": "Álamo Plateado",
    "Fecha_registro": "2014-08-19",
    "Municipio": "Guadalupe",
    "Direccion": "Adonis 418, Nueva Linda Vista, 67110 NL, México",
    "lon": -100.2282028,
    "lat": 25.7082596,
    "id": "541a2cb8908e69c4ed70621c"
  }
]